timestamp,gyro_rad[0],gyro_rad[1],gyro_rad[2],gyro_integral_dt,accelerometer_timestamp_relative,accelerometer_m_s2[0],accelerometer_m_s2[1],accelerometer_m_s2[2],accelerometer_integral_dt,magnetometer_timestamp_relative,magnetometer_ga[0],magnetometer_ga[1],magnetometer_ga[2],baro_timestamp_relative,baro_alt_meter,baro_temp_celcius
990238826,-0.0133715,-0.0604622,-0.0146858,0.001043,0,0.0774337,0.225023,-10.1679,0.001043,0,0.0273223,-0.162526,-1.05263,-6559,-61264.1,64.69
990239891,-0.0107178,-0.0604337,-0.0132496,0.001184,0,0.103901,0.300443,-10.2225,0.001184,0,0.0273223,-0.162526,-1.05263,-7624,-61264.1,64.69
990240911,-0.00918652,-0.0615275,-0.0128596,0.001029,0,0.125556,0.316264,-10.1922,0.001029,0,0.0273223,-0.162526,-1.05263,-8644,-61264.1,64.69
990243864,-0.0135807,-0.0645616,-0.015713,0.001184,0,0.107811,0.275531,-10.2237,0.001184,0,0.0417129,-0.155331,-1.04916,-11597,-61264.1,64.69
990246886,-0.0130671,-0.061071,-0.0133161,0.001043,0,0.0379048,0.276475,-10.1536,0.001043,0,0.0417129,-0.155331,-1.04916,-14619,-61264.1,64.69
990250796,-0.00909775,-0.0612992,-0.0116295,0.0009,0,0.0810428,0.290138,-10.2338,0.0009,0,0.0417129,-0.155331,-1.04916,-18529,-61264.1,64.69
990254829,-0.0155781,-0.0659154,-0.0180211,0.0009,0,0.0674082,0.252521,-10.2338,0.0009,0,0.0381152,-0.140941,-1.04569,-2475,-61264.1,64.69
990257836,-0.00789299,-0.0621362,-0.0133922,0.001043,0,0.138274,0.336845,-10.1987,0.001043,0,0.0381152,-0.140941,-1.04569,-5482,-61264.1,64.69
990261848,-0.00834953,-0.0584839,-0.0124791,0.001036,0,0.0925578,0.247662,-10.2799,0.001036,0,0.0381152,-0.140941,-1.04569,-9494,-61264.1,64.69
990264817,-0.0138027,-0.0570382,-0.0165119,0.000894,0,0.0762306,0.309347,-10.2295,0.000894,0,0.0309199,-0.155331,-1.0561,-12463,-61264.1,64.69
990267901,-0.0175755,-0.0623645,-0.00592587,0.001184,0,0.133977,0.288437,-10.293,0.001184,0,0.0309199,-0.155331,-1.0561,-15547,-61264.1,64.69
990271884,-0.0153118,-0.0612992,-0.014448,0.001176,0,0.113224,0.289338,-10.1812,0.001176,0,0.0309199,-0.155331,-1.0561,-19530,-61264.1,64.69
990274862,-0.00998547,-0.0630747,-0.0143814,0.000894,0,0.102297,0.254522,-10.2936,0.000894,0,0.0543047,-0.139142,-1.0509,-2561,-61264.1,64.7
990278870,-0.0178608,-0.0620601,-0.0130118,0.001043,0,0.124868,0.241144,-10.2786,0.001043,0,0.0543047,-0.139142,-1.0509,-6569,-61264.1,64.7
990285944,-0.0143607,-0.065332,-0.0162837,0.001036,0,0.100464,0.310433,-10.2011,0.001036,0,0.0291211,-0.15713,-1.0509,-13643,-61264.1,64.7
990288853,-0.0144241,-0.0630747,-0.0122509,0.000888,0,0.122348,0.289738,-10.1601,0.000888,0,0.0291211,-0.15713,-1.0509,-16552,-61264.1,64.7
990292844,-0.00794371,-0.0603227,-0.0115407,0.000894,0,0.0986876,0.25012,-10.1912,0.000894,0,0.0291211,-0.15713,-1.0509,-536,-61264.5,64.69
990295993,-0.0143797,-0.0666921,-0.0145146,0.001176,0,0.124052,0.29474,-10.2628,0.001176,0,0.0237246,-0.155331,-1.0665,-3685,-61264.5,64.69
990299782,-0.00723354,-0.0659154,-0.0141151,0.000894,0,0.125155,0.292939,-10.1534,0.000894,-944,0.0237246,-0.155331,-1.0665,-7474,-61264.5,64.69
990303762,-0.0112283,-0.0644063,-0.011807,0.000894,0,0.101495,0.305345,-10.3091,0.000894,0,0.0219258,-0.131946,-1.0613,-11454,-61264.5,64.69
990306872,-0.0163771,-0.0654937,-0.0137822,0.001184,0,0.106307,0.248519,-10.2183,0.001184,0,0.0219258,-0.131946,-1.0613,-14564,-61264.5,64.69
990309834,-0.0137519,-0.061908,-0.00700064,0.001043,0,0.0953076,0.253493,-10.2509,0.001043,0,0.0219258,-0.131946,-1.0613,-17526,-61264.5,64.69
990313866,-0.00758863,-0.0632522,-0.011807,0.000894,0,0.0726215,0.276932,-10.237,0.000894,0,0.0219258,-0.131946,-1.0613,-1494,-61264.3,64.69
990317848,-0.0134476,-0.0628084,-0.01882,0.0009,0,0.121145,0.308947,-10.2318,0.0009,0,0.0219258,-0.131946,-1.0613,-5476,-61264.3,64.69
990320841,-0.0141578,-0.0624533,-0.0125172,0.000894,0,0.110317,0.298542,-10.2852,0.000894,0,0.0219258,-0.131946,-1.0613,-8469,-61264.3,64.69
990324884,-0.0105181,-0.0587248,-0.00834491,0.000894,0,0.085053,0.301743,-10.2191,0.000894,0,0.0399141,-0.15713,-1.04743,-12512,-61264.3,64.69
990327866,-0.0147792,-0.0588136,-0.0117182,0.000894,0,0.0790377,0.230911,-10.2709,0.000894,0,0.0399141,-0.15713,-1.04743,-15494,-61264.3,64.69
990331803,-0.0111395,-0.0652052,-0.015713,0.000894,0,0.0902662,0.259324,-10.2773,0.000894,0,0.0399141,-0.15713,-1.04743,-19431,-61264.3,64.69
990334964,-0.012116,-0.0607666,-0.00925482,0.001184,-1146,0.0729652,0.256923,-10.2554,0.001043,-1146,0.0471094,-0.153532,-1.0509,-2704,-61263.6,64.7
990337828,-0.012991,-0.0663212,-0.0156749,0.001043,0,0.13518,0.277161,-10.1843,0.001043,0,0.0471094,-0.153532,-1.0509,-5568,-61263.6,64.7
990341853,-0.0117736,-0.0623645,-0.0133161,0.001043,0,0.0990886,0.291567,-10.2352,0.001043,0,0.0471094,-0.153532,-1.0509,-9593,-61263.6,64.7
990345820,-0.0126867,-0.0624406,-0.0172728,0.001043,0,0.0946201,0.260353,-10.2359,0.001043,0,0.050707,-0.149935,-1.04743,-13560,-61263.6,64.7
990348841,-0.00911043,-0.0572665,-0.0122509,0.001043,0,0.0932452,0.303573,-10.2017,0.001043,0,0.050707,-0.149935,-1.04743,-16581,-61263.6,64.7
990352754,-0.0140867,-0.0666256,-0.014914,0.00075,0,0.0615534,0.295821,-10.3075,0.00075,0,0.0291211,-0.135544,-1.04049,-501,-61264.3,64.71
990355808,-0.0135364,-0.0616543,-0.0163344,0.000894,0,0.133977,0.277332,-10.2255,0.000894,0,0.0291211,-0.135544,-1.04049,-3555,-61264.3,64.71
990358848,-0.012991,-0.0660168,-0.0107291,0.001036,0,0.136211,0.279905,-10.2089,0.001036,0,0.0291211,-0.135544,-1.04049,-6595,-61264.3,64.71
990362921,-0.011241,-0.0628971,-0.0128596,0.001036,0,0.0929015,0.282306,-10.2226,0.001036,0,0.0291211,-0.135544,-1.04049,-10668,-61264.3,64.71
990366788,-0.00874266,-0.0615656,-0.0118958,0.000894,0,0.117134,0.279733,-10.253,0.000894,-903,0.0309199,-0.148136,-1.05957,-14535,-61264.3,64.71
990369843,-0.0127152,-0.0621648,-0.0102535,0.001184,0,0.15082,0.282134,-10.1965,0.001184,-974,0.0309199,-0.148136,-1.05957,-17590,-61264.3,64.71
990372878,-0.0149567,-0.0590799,-0.0170446,0.000894,0,0.115931,0.258524,-10.247,0.000894,0,0.0345176,-0.144538,-1.05263,-513,-61264.2,64.71
990376991,-0.00918652,-0.0612992,-0.0116422,0.001043,0,0.0836208,0.336845,-10.2721,0.001043,0,0.0345176,-0.144538,-1.05263,-4626,-61264.2,64.71
990380760,-0.0115834,-0.0601452,-0.0125172,0.0009,0,0.115931,0.243717,-10.306,0.0009,0,0.0345176,-0.144538,-1.05263,-8395,-61264.2,64.71
990383857,-0.012078,-0.0589404,-0.0164358,0.001043,0,0.0729652,0.310776,-10.3117,0.001043,0,0.0345176,-0.144538,-1.05263,-11492,-61264.2,64.71
990387788,-0.0148679,-0.0600564,-0.0099428,0.0009,0,0.0890632,0.327355,-10.1868,0.0009,0,0.0345176,-0.144538,-1.05263,-15423,-61264.2,64.71
990388974,-0.0141134,-0.0608998,-0.0135159,0.001184,0,0.106307,0.27283,-10.1911,0.001184,0,0.0345176,-0.144538,-1.05263,-16609,-61264.2,64.71
990394816,-0.0136251,-0.0589024,-0.014914,0.000888,0,0.0886622,0.226909,-10.1952,0.000888,0,0.0399141,-0.153532,-1.05783,-2593,-61264.3,64.72
990397848,-0.0157778,-0.0613658,-0.0121843,0.001184,0,0.0804413,0.277933,-10.2482,0.001184,0,0.0399141,-0.153532,-1.05783,-5625,-61264.3,64.72
990398914,-0.0177086,-0.0649389,-0.0126947,0.000888,0,0.0974846,0.27213,-10.2749,0.000888,-1066,0.0399141,-0.153532,-1.05783,-6691,-61264.3,64.72
990404874,-0.0133715,-0.0632015,-0.0120987,0.001043,-1062,0.143086,0.336845,-10.2301,0.001043,-1062,0.0309199,-0.144538,-1.07344,-12651,-61264.3,64.72
990407784,-0.0114058,-0.0626308,-0.0071021,0.0009,0,0.0914693,0.281734,-10.2338,0.0009,0,0.0309199,-0.144538,-1.07344,-15561,-61264.3,64.72
990410790,-0.017176,-0.0601452,-0.0144702,0.000894,0,0.160043,0.279733,-10.2669,0.000894,0,0.0309199,-0.144538,-1.07344,-18567,-61264.3,64.72
990415785,-0.0173535,-0.0612992,-0.0163344,0.0009,0,0.100292,0.268528,-10.1757,0.0009,0,0.0363164,-0.142739,-1.0613,-3453,-61264.1,64.71
990418808,-0.0133715,-0.0612231,-0.0117943,0.001043,0,0.0660906,0.293282,-10.3274,0.001043,0,0.0363164,-0.142739,-1.0613,-6476,-61264.1,64.71
990422840,-0.01327,-0.0596126,-0.00967649,0.000888,0,0.138388,0.310547,-10.2952,0.000888,0,0.0237246,-0.133745,-1.05263,-10508,-61264.1,64.71
990425933,-0.0169477,-0.062745,-0.00669628,0.001036,0,0.0571537,0.27476,-10.3172,0.001036,0,0.0237246,-0.133745,-1.05263,-13601,-61264.1,64.71
990429815,-0.0150455,-0.0606778,-0.0133161,0.000894,0,0.176084,0.285336,-10.2,0.000894,0,0.0237246,-0.133745,-1.05263,-17483,-61264.1,64.71
990432929,-0.00758863,-0.0576374,-0.0140485,0.001176,0,0.1036,0.25062,-10.1845,0.001176,0,0.0237246,-0.133745,-1.05263,-660,-61264.8,64.72
990436861,-0.0145794,-0.0659598,-0.00852245,0.001176,0,0.14691,0.319952,-10.2398,0.001176,0,0.0543047,-0.164325,-1.05436,-4592,-61264.8,64.72
990439827,-0.0173535,-0.0607666,-0.0177547,0.0009,0,0.0970835,0.324954,-10.233,0.0009,-1029,0.0543047,-0.164325,-1.05436,-7558,-61264.8,64.72
990443798,-0.0113171,-0.0609442,-0.0166007,0.0009,0,0.118738,0.282134,-10.2199,0.0009,0,0.0399141,-0.146337,-1.05783,-11529,-61264.8,64.72
990446845,-0.0148933,-0.060234,-0.0148379,0.001043,0,0.0640282,0.279905,-10.2007,0.001043,0,0.0399141,-0.146337,-1.05783,-14576,-61264.8,64.72
990449807,-0.0169097,-0.062187,-0.0158018,0.000894,0,0.111921,0.262125,-10.3072,0.000894,0,0.0399141,-0.146337,-1.05783,-17538,-61264.8,64.72
990453817,-0.0126486,-0.0581922,-0.0127835,0.000894,0,0.117936,0.288537,-10.2012,0.000894,-918,0.0399141,-0.146337,-1.05783,-1484,-61264.0,64.72
990456920,-0.014646,-0.0644285,-0.0166451,0.001184,0,0.0975848,0.313649,-10.2452,0.001184,0,0.0399141,-0.146337,-1.05783,-4587,-61264.0,64.72
990460821,-0.00949088,-0.0596253,-0.0130118,0.001043,0,0.116963,0.264812,-10.2355,0.001043,0,0.0399141,-0.146337,-1.05783,-8488,-61264.0,64.72
990463816,-0.0145128,-0.0628211,-0.00981599,0.001043,0,0.125212,0.247662,-10.2687,0.001043,0,0.020127,-0.148136,-1.04916,-11483,-61264.0,64.72
990467873,-0.0131432,-0.0582556,-0.0105769,0.001043,-1086,0.125556,0.319351,-10.3003,0.000745,-1086,0.020127,-0.148136,-1.04916,-15540,-61264.0,64.72
990471865,-0.0150455,-0.0609188,-0.0187186,0.001036,0,0.223175,0.301858,-10.2222,0.001036,0,0.020127,-0.148136,-1.04916,-19532,-61264.0,64.72
990474881,-0.00903434,-0.0609949,-0.012327,0.001043,0,0.105963,0.245604,-10.2287,0.001043,0,0.0417129,-0.137343,-1.05263,-2506,-61264.0,64.72
990478838,-0.0161107,-0.0662705,-0.0153579,0.0009,0,0.144805,0.230111,-10.3012,0.0009,-1002,0.0417129,-0.137343,-1.05263,-6463,-61264.0,64.72
990481849,-0.0154893,-0.0576596,-0.0162456,0.000894,0,0.130769,0.346564,-10.2438,0.000894,0,0.0417129,-0.137343,-1.05263,-9474,-61264.0,64.72
990485802,-0.00918652,-0.0618319,-0.00914386,0.0009,-990,0.0702154,0.298142,-10.2366,0.000894,-990,0.050707,-0.146337,-1.04743,-13427,-61264.0,64.72
990487901,-0.0141134,-0.0612327,-0.0157796,0.001184,0,0.0993894,0.299242,-10.23,0.001184,0,0.050707,-0.146337,-1.04743,-15526,-61264.0,64.72
990491879,-0.00889061,-0.0626012,-0.0135529,0.001323,0,0.0696807,0.237714,-10.1985,0.001323,0,0.050707,-0.146337,-1.04743,-19504,-61264.0,64.72
990495938,-0.0149271,-0.0630747,-0.00958771,0.001323,-1136,0.108312,0.256523,-10.2426,0.0009,0,0.020127,-0.148136,-1.04916,-3562,-61264.5,64.72
990498862,-0.0107083,-0.0629732,-0.0165119,0.001043,0,0.0702154,0.314206,-10.2919,0.001043,0,0.020127,-0.148136,-1.04916,-6486,-61264.5,64.72
990502796,-0.0118497,-0.0614768,-0.0125172,0.0009,0,0.0982866,0.27213,-10.1876,0.0009,-1064,0.020127,-0.148136,-1.04916,-10420,-61264.5,64.72
990506807,-0.017176,-0.061388,-0.0123396,0.000894,0,0.116332,0.262125,-10.2171,0.000894,-982,0.0111328,-0.15713,-1.07518,-14431,-61264.5,64.72
990509842,-0.0102518,-0.0588136,-0.0148253,0.000894,0,0.085053,0.274531,-10.1474,0.000894,0,0.0111328,-0.15713,-1.07518,-17466,-61264.5,64.72
990513909,-0.0119385,-0.060234,-0.01376,0.000888,0,0.0962815,0.265327,-10.1761,0.000888,-984,0.0453106,-0.137343,-1.06304,-1548,-61264.5,64.73
990516787,-0.0150455,-0.0605891,-0.00967649,0.000894,0,0.0950784,0.260124,-10.2617,0.000894,0,0.0453106,-0.137343,-1.06304,-4426,-61264.5,64.73
990519852,-0.0133715,-0.0618319,-0.0120226,0.001043,0,0.122806,0.264469,-10.2338,0.001043,-998,0.0453106,-0.137343,-1.06304,-7491,-61264.5,64.73
990523869,-0.0126867,-0.0695931,-0.0130879,0.001036,0,0.127962,0.258981,-10.283,0.001036,0,0.0453106,-0.137343,-1.06304,-11508,-61264.5,64.73
990526914,-0.0145128,-0.0612231,-0.016588,0.001043,0,0.128649,0.312834,-10.2256,0.001043,0,0.0453106,-0.137343,-1.06304,-14553,-61264.5,64.73
990530840,-0.0159776,-0.0645616,-0.0154467,0.001184,0,0.122849,0.282134,-10.1914,0.001184,0,0.0453106,-0.137343,-1.06304,-18479,-61264.5,64.73
990533841,-0.0107844,-0.0603227,-0.00701333,0.000894,-965,0.116275,0.293282,-10.2383,0.001036,-965,0.0219258,-0.142739,-1.0509,-1500,-61264.4,64.72
990537738,-0.0102518,-0.0612992,-0.0197077,0.00075,0,0.144323,0.27325,-10.2085,0.00075,0,0.0219258,-0.142739,-1.0509,-5397,-61264.4,64.72
990541827,-0.0104293,-0.0591687,-0.0150916,0.000894,0,0.0990886,0.254922,-10.2633,0.000894,0,0.0255235,-0.139142,-1.0613,-9486,-61264.4,64.72
990544838,-0.0143353,-0.0662705,-0.0110081,0.000888,0,0.0958805,0.310947,-10.237,0.000888,-927,0.0255235,-0.139142,-1.0613,-12497,-61264.4,64.72
990548882,-0.0147411,-0.0630493,-0.014001,0.001036,0,0.0925578,0.249377,-10.2075,0.001036,0,0.0255235,-0.139142,-1.0613,-16541,-61264.4,64.72
990551817,-0.0120272,-0.0592575,-0.0155354,0.000888,0,0.141997,0.278133,-10.2147,0.000888,0,0.0255235,-0.139142,-1.0613,-19476,-61264.4,64.72
990555870,-0.0159332,-0.0592575,-0.0132274,0.000888,-981,0.131571,0.277032,-10.1995,0.001176,-981,0.020127,-0.144538,-1.05263,-3651,-61264.0,64.74
990558829,-0.0134476,-0.0641907,-0.0130118,0.001036,0,0.121087,0.32038,-10.2827,0.001036,0,0.020127,-0.144538,-1.05263,-6610,-61264.0,64.74
990562858,-0.0113836,-0.0568384,-0.0127169,0.001184,0,0.132774,0.306145,-10.2784,0.001184,0,0.0291211,-0.139142,-1.06477,-10639,-61264.0,64.74
990565833,-0.0134476,-0.0630747,-0.011807,0.000894,-1029,0.1035,0.31735,-10.1585,0.000894,0,0.0291211,-0.139142,-1.06477,-13614,-61264.0,64.74
990568772,-0.0102518,-0.0635363,-0.0140618,0.00075,0,0.0966825,0.354887,-10.252,0.00075,0,0.0291211,-0.139142,-1.06477,-16553,-61264.0,64.74
990572830,-0.0117609,-0.0629859,-0.011807,0.000894,0,0.0421442,0.274131,-10.1593,0.000894,0,0.0453106,-0.144538,-1.0665,-520,-61264.9,64.74
990575792,-0.0110507,-0.0620094,-0.0105642,0.000888,0,0.116733,0.286536,-10.3215,0.000888,0,0.0453106,-0.144538,-1.0665,-3482,-61264.9,64.74
990579831,-0.00812126,-0.0624533,-0.00701333,0.000888,0,0.102698,0.304144,-10.1709,0.000888,0,0.0453106,-0.144538,-1.0665,-7521,-61264.9,64.74
990582885,-0.0131813,-0.0617653,-0.0179101,0.001176,0,0.147211,0.291138,-10.3127,0.001176,0,0.0327187,-0.139142,-1.0613,-10575,-61264.9,64.74
990586910,-0.00792152,-0.0601674,-0.0133827,0.001176,0,0.170069,0.225409,-10.2075,0.001176,0,0.0327187,-0.139142,-1.0613,-14600,-61264.9,64.74
990590879,-0.0143607,-0.0648755,-0.0108813,0.001036,0,0.117994,0.319008,-10.2239,0.001036,0,0.0327187,-0.139142,-1.0613,-18569,-61264.9,64.74
990593911,-0.00931968,-0.0640956,-0.0151804,0.001184,0,0.116232,0.252121,-10.1848,0.001184,0,0.0327187,-0.139142,-1.0613,-1644,-61263.9,64.74
990597774,-0.0177086,-0.064495,-0.0162456,0.000888,0,0.181698,0.236514,-10.2872,0.000888,0,0.0327187,-0.139142,-1.0613,-5507,-61263.9,64.74
990600768,-0.0113171,-0.0648501,-0.0158905,0.0009,0,0.113124,0.296941,-10.2219,0.0009,0,0.0327187,-0.139142,-1.0613,-8501,-61263.9,64.74
990604828,-0.0172648,-0.0601452,-0.0110081,0.000894,0,0.0894642,0.29454,-10.2733,0.000894,0,0.0273223,-0.12655,-1.06997,-12561,-61263.9,64.74
990607766,-0.0145128,-0.0601275,-0.014914,0.00075,0,0.100532,0.275171,-10.1516,0.00075,0,0.0273223,-0.12655,-1.06997,-15499,-61263.9,64.74
990611854,-0.0154006,-0.0625421,-0.0167783,0.000894,0,0.122749,0.335358,-10.2605,0.000894,-1049,0.0273223,-0.12655,-1.06997,-19587,-61263.9,64.74
990614794,-0.0131813,-0.061388,-0.0118958,0.000888,0,0.0349258,0.265327,-10.2251,0.000888,-835,0.020127,-0.130148,-1.04916,-2419,-61264.2,64.74
990617814,-0.0132193,-0.0609949,-0.0177294,0.001036,0,0.127618,0.311119,-10.2065,0.001036,0,0.020127,-0.130148,-1.04916,-5439,-61264.2,64.74
990621876,-0.01671,-0.0647613,-0.0121843,0.001184,0,0.132473,0.31575,-10.2034,0.001184,0,0.020127,-0.130148,-1.04916,-9501,-61264.2,64.74
990625852,-0.0161107,-0.0687561,-0.0142482,0.001184,0,0.124653,0.29444,-10.2805,0.001184,0,0.0525059,-0.151734,-1.0665,-13477,-61264.2,64.74
990628849,-0.00766472,-0.0632015,-0.00989208,0.001043,0,0.0784649,0.354338,-10.3445,0.001043,0,0.0525059,-0.151734,-1.0665,-16474,-61264.2,64.74
990630856,-0.0158444,-0.0614768,-0.0152691,0.000888,0,0.127561,0.263326,-10.2916,0.000888,0,0.0525059,-0.151734,-1.0665,-18481,-61264.2,64.74
990635741,-0.0105714,-0.0603405,-0.0206665,0.000745,0,0.135661,0.254522,-10.2783,0.000745,0,0.0237246,-0.148136,-1.06304,-3435,-61264.1,64.74
990638810,-0.0098967,-0.0596126,-0.0117182,0.000888,0,0.0934744,0.304545,-10.186,0.000888,0,0.0237246,-0.148136,-1.06304,-6504,-61264.1,64.74
990642859,-0.0155781,-0.0601579,-0.0117943,0.001036,0,0.108713,0.261039,-10.2625,0.001036,0,0.0417129,-0.140941,-1.05263,-10553,-61264.1,64.74
990645830,-0.00918652,-0.0617558,-0.0179577,0.001036,0,0.114556,0.261039,-10.2325,0.001036,0,0.0417129,-0.140941,-1.05263,-13524,-61264.1,64.74
990649853,-0.0132193,-0.0617558,-0.0111095,0.001036,0,0.125556,0.285736,-10.1382,0.001036,0,0.0417129,-0.140941,-1.05263,-17547,-61264.1,64.74
990653836,-0.0110127,-0.0622123,-0.0135444,0.001036,0,0.0863706,0.241144,-10.2082,0.001036,0,0.0363164,-0.139142,-1.07171,-1561,-61264.4,64.75
990656878,-0.0118497,-0.0607666,-0.0125838,0.001184,0,0.142699,0.29504,-10.2569,0.001184,0,0.0363164,-0.139142,-1.07171,-4603,-61264.4,64.75
990659800,-0.0143353,-0.0628084,-0.0173997,0.0009,0,0.0758296,0.279733,-10.29,0.0009,0,0.0363164,-0.139142,-1.07171,-7525,-61264.4,64.75
990663902,-0.0158825,-0.0629732,-0.0159032,0.001036,0,0.153054,0.242859,-10.2461,0.001036,0,0.0561035,-0.148136,-1.0561,-11627,-61264.4,64.75
990667903,-0.0136759,-0.061071,-0.0155228,0.001036,0,0.138617,0.277847,-10.2116,0.001036,0,0.0561035,-0.148136,-1.0561,-15628,-61264.4,64.75
990670884,-0.0158064,-0.0638863,-0.0177294,0.001036,0,0.131399,0.273388,-10.2557,0.001036,0,0.0561035,-0.148136,-1.0561,-18609,-61264.4,64.75
990673815,-0.0113171,-0.0628084,-0.0153579,0.000888,0,0.0890632,0.29374,-10.2932,0.000888,0,0.0399141,-0.146337,-1.06477,-1526,-61264.5,64.76
990677810,-0.0114058,-0.0597901,-0.0110081,0.000888,0,0.0818449,0.333758,-10.296,0.000888,0,0.0399141,-0.146337,-1.06477,-5521,-61264.5,64.76
990681786,-0.00643459,-0.0620094,-0.010653,0.000888,0,0.0950784,0.269329,-10.2279,0.000888,0,0.0417129,-0.148136,-1.05263,-9497,-61264.5,64.76
990684884,-0.0143797,-0.058969,-0.0150472,0.001184,-1086,0.140794,0.318551,-10.1864,0.0009,-1086,0.0417129,-0.148136,-1.05263,-12595,-61264.5,64.76
990687844,-0.0164658,-0.0615656,-0.0138488,0.000894,0,0.062596,0.253321,-10.2334,0.000894,0,0.0417129,-0.148136,-1.05263,-15555,-61264.5,64.76
990691847,-0.0132193,-0.0601579,-0.0141531,0.001043,-1086,0.102698,0.295741,-10.2721,0.0009,-1086,0.0417129,-0.148136,-1.05263,-19558,-61264.5,64.76
990695800,-0.0178862,-0.0635185,-0.0191751,0.000894,0,0.148815,0.279733,-10.2434,0.000894,0,0.0255235,-0.149935,-1.0509,-3426,-61264.5,64.76
990698834,-0.0107844,-0.0605003,-0.0153579,0.000894,0,0.0866571,0.277732,-10.2075,0.000894,-995,0.0255235,-0.149935,-1.0509,-6460,-61264.5,64.76
990702840,-0.0192178,-0.0671582,-0.00958772,0.000894,-1007,0.142398,0.281414,-10.2166,0.00074,-1007,0.0219258,-0.135544,-1.0509,-10466,-61264.5,64.76
990706007,-0.0150455,-0.0647233,-0.0108813,0.001029,0,0.0626533,0.277847,-10.2653,0.001029,0,0.0219258,-0.135544,-1.0509,-13633,-61264.5,64.76
990708919,-0.012116,-0.0642287,-0.0152469,0.001176,0,0.116834,0.221207,-10.2267,0.001176,0,0.0219258,-0.135544,-1.0509,-16545,-61264.5,64.76
990712848,-0.0134476,-0.0598535,-0.00951162,0.001036,0,0.0794961,0.308718,-10.2543,0.001036,0,0.0237246,-0.133745,-1.05957,-540,-61265.0,64.76
990716833,-0.0142085,-0.0621362,-0.0127835,0.001036,0,0.116619,0.262411,-10.2082,0.001036,0,0.0237246,-0.133745,-1.05957,-4525,-61265.0,64.76
990719930,-0.0176421,-0.0579037,-0.0156464,0.001184,0,0.125255,0.255122,-10.2915,0.001184,-1134,0.0237246,-0.133745,-1.05957,-7622,-61265.0,64.76
990723852,-0.0134476,-0.06323,-0.00892192,0.001184,0,0.0629971,0.283335,-10.2276,0.001184,0,0.0363164,-0.153532,-1.05436,-11544,-61265.0,64.76
990726819,-0.0167195,-0.0647233,-0.0170446,0.001043,0,0.107338,0.261725,-10.2642,0.001043,0,0.0363164,-0.153532,-1.05436,-14511,-61265.0,64.76
990729703,-0.0177086,-0.0608998,-0.00892192,0.000596,0,0.111119,0.280334,-10.2506,0.000596,0,0.0363164,-0.153532,-1.05436,-17395,-61265.0,64.76
990733809,-0.0126486,-0.0698214,-0.0134049,0.000888,0,0.124754,0.279333,-10.2609,0.000888,0,0.020127,-0.151734,-1.06304,-1402,-61264.5,64.76
990737799,-0.0110507,-0.0607666,-0.0124284,0.000894,0,0.0822459,0.252521,-10.196,0.000894,0,0.020127,-0.151734,-1.06304,-5392,-61264.5,64.76
990740808,-0.0135364,-0.0627196,-0.0128723,0.000888,-950,0.0667781,0.321752,-10.2677,0.001029,-950,0.020127,-0.151734,-1.06304,-8401,-61264.5,64.76
990744862,-0.0175565,-0.0641146,-0.0147619,0.001036,0,0.10287,0.301172,-10.2099,0.001036,0,0.0363164,-0.142739,-1.05783,-12455,-61264.5,64.76
990747841,-0.00898679,-0.0613658,-0.0127169,0.001184,0,0.197137,0.27223,-10.2784,0.001184,0,0.0363164,-0.142739,-1.05783,-15434,-61264.5,64.76
990751865,-0.0114502,-0.0585029,-0.0148475,0.001184,0,0.12706,0.290538,-10.183,0.001184,0,0.0255235,-0.142739,-1.04743,-19458,-61264.5,64.76
990754788,-0.00918652,-0.0597013,-0.0153579,0.000894,0,0.0750276,0.313749,-10.2581,0.000894,-955,0.0255235,-0.142739,-1.04743,-2477,-61265.0,64.77
990758818,-0.0111649,-0.0589404,-0.0130118,0.001043,0,0.0403109,0.287108,-10.2946,0.001043,0,0.0255235,-0.142739,-1.04743,-6507,-61265.0,64.77
990761825,-0.0126486,-0.0587248,-0.0166007,0.000894,0,0.108312,0.27333,-10.2554,0.000894,0,0.0273223,-0.162526,-1.04569,-9514,-61265.0,64.77
990765765,-0.0141578,-0.0679571,-0.0194414,0.000894,0,0.145206,0.311748,-10.1589,0.000894,0,0.0273223,-0.162526,-1.04569,-13454,-61265.0,64.77
990768825,-0.0145128,-0.0636581,-0.0148379,0.001036,0,0.117994,0.307003,-10.1713,0.001036,0,0.0273223,-0.162526,-1.04569,-16514,-61265.0,64.77
990772844,-0.0159586,-0.0654842,-0.0130879,0.001036,0,0.0994323,0.27819,-10.239,0.001036,0,0.0381152,-0.137343,-1.07344,-541,-61265.1,64.77
990775864,-0.012991,-0.063582,-0.01149,0.001036,0,0.160272,0.297741,-10.2239,0.001036,0,0.0381152,-0.137343,-1.07344,-3561,-61265.1,64.77
990779886,-0.0164912,-0.0667777,-0.0154467,0.001036,0,0.080871,0.294654,-10.2253,0.001036,-1066,0.0381152,-0.137343,-1.07344,-7583,-61265.1,64.77
990782820,-0.0177847,-0.0638102,-0.0175011,0.001036,0,0.0939327,0.315921,-10.1748,0.001036,0,0.0399141,-0.146337,-1.0613,-10517,-61265.1,64.77
990785885,-0.0129149,-0.0632776,-0.0121748,0.001036,0,0.0994324,0.275446,-10.2308,0.001036,0,0.0399141,-0.146337,-1.0613,-13582,-61265.1,64.77
990789828,-0.0111395,-0.0612992,-0.0158905,0.000894,0,0.0902662,0.329756,-10.298,0.000894,0,0.0399141,-0.146337,-1.0613,-17525,-61265.1,64.77
990793929,-0.0143607,-0.060234,-0.0108052,0.001036,0,0.0822459,0.268928,-10.2195,0.001036,0,0.0165293,-0.155331,-1.0665,-1597,-61264.2,64.77
990796798,-0.0110507,-0.0630747,-0.0128723,0.000894,0,0.175282,0.295741,-10.3259,0.000894,0,0.0165293,-0.155331,-1.0665,-4466,-61264.2,64.77
990799793,-0.0111395,-0.0632522,-0.0144702,0.000888,0,0.0746266,0.325354,-10.1992,0.000888,0,0.0165293,-0.155331,-1.0665,-7461,-61264.2,64.77
990803789,-0.0117609,-0.0605891,-0.0107418,0.000888,0,0.117134,0.24972,-10.3064,0.000888,0,0.0219258,-0.142739,-1.06824,-11457,-61264.2,64.77
990807949,-0.0124584,-0.0622884,-0.0181859,0.001029,0,0.118337,0.307689,-10.2554,0.001029,-1021,0.0219258,-0.142739,-1.06824,-15617,-61264.2,64.77
990810863,-0.0118497,-0.0620316,-0.0105864,0.001184,0,0.0735238,0.237714,-10.287,0.001184,0,0.0219258,-0.142739,-1.06824,-18531,-61264.2,64.77
990813819,-0.0141578,-0.0608554,-0.0126947,0.000894,0,0.101896,0.216105,-10.2888,0.000894,0,0.0237246,-0.137343,-1.06997,-1513,-61265.0,64.78
990817926,-0.0135142,-0.0634964,-0.0101203,0.001184,0,0.0548765,0.296241,-10.3091,0.001184,0,0.0237246,-0.137343,-1.06997,-5620,-61265.0,64.78
990821809,-0.00834953,-0.0604622,-0.0169685,0.001043,0,0.0887767,0.269614,-10.1823,0.001043,0,0.0237246,-0.137343,-1.06997,-9503,-61265.0,64.78
990824769,-0.0134476,-0.0640512,-0.0151804,0.000894,0,0.109515,0.279733,-10.2984,0.000894,0,0.0237246,-0.137343,-1.06997,-12463,-61265.0,64.78
990828814,-0.0111395,-0.0624533,-0.0191751,0.000894,0,0.0650021,0.302143,-10.198,0.000894,0,0.0237246,-0.137343,-1.06997,-16508,-61265.0,64.78
990831796,-0.0141324,-0.0582556,-0.0125552,0.001036,-945,0.148929,0.245947,-10.1905,0.001036,-945,0.0237246,-0.137343,-1.06997,-19490,-61265.0,64.78
990835742,-0.0129149,-0.060447,-0.00969424,0.000745,0,0.106307,0.255963,-10.2243,0.000745,-841,0.0147305,-0.146337,-1.05436,-3459,-61264.5,64.78
990838855,-0.00949088,-0.0639624,-0.0101203,0.001036,0,0.108369,0.371489,-10.2557,0.001036,0,0.0147305,-0.146337,-1.05436,-6572,-61264.5,64.78
990841956,-0.0129149,-0.0655603,-0.0135444,0.001036,0,0.116275,0.284021,-10.1543,0.001036,0,0.0255235,-0.128349,-1.05436,-9673,-61264.5,64.78
990845857,-0.0129815,-0.0616321,-0.0158461,0.001184,0,0.0996902,0.297741,-10.215,0.001184,0,0.0255235,-0.128349,-1.05436,-13574,-61264.5,64.78
990848766,-0.00954161,-0.0622757,-0.0109193,0.000894,0,0.145607,0.328155,-10.2538,0.000894,0,0.0255235,-0.128349,-1.05436,-16483,-61264.5,64.78
990852824,-0.0130037,-0.0628084,-0.0132274,0.000894,0,0.144404,0.267728,-10.2139,0.000894,-1052,0.0525059,-0.140941,-1.05263,-706,-61264.6,64.78
990856862,-0.0108732,-0.061388,-0.0172221,0.000894,0,0.123952,0.266127,-10.2052,0.000894,0,0.0525059,-0.140941,-1.05263,-4744,-61264.6,64.78
990859704,-0.0128084,-0.0626841,-0.018749,0.000745,0,0.0788773,0.303984,-10.295,0.000745,0,0.0525059,-0.140941,-1.05263,-7586,-61264.6,64.78
990863813,-0.00616827,-0.0600564,-0.0138488,0.000894,0,0.0710174,0.259724,-10.304,0.000894,-1042,0.0309199,-0.148136,-1.0665,-11695,-61264.6,64.78
990866764,-0.0102518,-0.0593463,-0.0103867,0.000888,0,0.141997,0.275331,-10.1131,0.000888,-832,0.0309199,-0.148136,-1.0665,-14646,-61264.6,64.78
990870843,-0.013828,-0.064495,-0.0143053,0.001036,0,0.0997761,0.274074,-10.2345,0.001036,0,0.0309199,-0.148136,-1.0665,-18725,-61264.6,64.78
990873951,-0.0111987,-0.0589912,-0.00970608,0.001323,0,0.0359952,0.282801,-10.2338,0.001323,-1155,0.0327187,-0.149935,-1.0613,-1659,-61264.5,64.78
990876817,-0.0165673,-0.062745,-0.014001,0.001043,-1066,0.134779,0.27213,-10.143,0.0009,-1066,0.0327187,-0.149935,-1.0613,-4525,-61264.5,64.78
990880714,-0.0176021,-0.0630037,-0.0109726,0.000745,0,0.100532,0.290058,-10.1937,0.000745,0,0.0327187,-0.149935,-1.0613,-8422,-61264.5,64.78
990884835,-0.012078,-0.0618319,-0.0136966,0.001043,0,0.131055,0.285393,-10.2028,0.001043,0,0.0345176,-0.166124,-1.06304,-12543,-61264.5,64.78
990887744,-0.0113171,-0.0601274,-0.00692456,0.000745,0,0.13903,0.286696,-10.1459,0.000745,0,0.0345176,-0.166124,-1.06304,-15452,-61264.5,64.78
990891791,-0.0119385,-0.0648501,-0.014914,0.000894,0,0.130368,0.284936,-10.2458,0.000894,0,0.0345176,-0.166124,-1.06304,-19499,-61264.5,64.78
990894731,-0.0165368,-0.0634298,-0.00841592,0.000745,0,0.0952388,0.27325,-10.2262,0.000745,-780,0.0345176,-0.166124,-1.06304,-2544,-61264.6,64.78
990898999,-0.00732231,-0.0615656,-0.0135159,0.001176,0,0.066907,0.280934,-10.175,0.001176,0,0.0345176,-0.166124,-1.06304,-6812,-61264.6,64.78
990901760,-0.0155781,-0.0622884,-0.0175011,0.001036,0,0.0877456,0.317636,-10.2748,0.001036,-822,0.0345176,-0.166124,-1.06304,-9573,-61264.6,64.78
990905825,-0.0142085,-0.0596253,-0.0152945,0.001036,0,0.137586,0.301858,-10.2967,0.001036,-956,0.0237246,-0.133745,-1.05263,-13638,-61264.6,64.78
990908854,-0.0124489,-0.0626308,-0.0107861,0.001184,0,0.106307,0.283935,-10.2691,0.001184,0,0.0237246,-0.133745,-1.05263,-16667,-61264.6,64.78
990912798,-0.0127152,-0.0623645,-0.0134493,0.001184,0,0.0924718,0.301943,-10.2557,0.001184,0,0.0327187,-0.146337,-1.04396,-535,-61263.8,64.79
990915900,-0.0159586,-0.0619841,-0.0165119,0.001036,0,0.115588,0.29534,-10.1635,0.001036,0,0.0327187,-0.146337,-1.04396,-3637,-61263.8,64.79
990919685,-0.00993221,-0.0572512,-0.016725,0.00075,0,0.0957201,0.209382,-10.2128,0.00075,0,0.0327187,-0.146337,-1.04396,-7422,-61263.8,64.79
990922853,-0.0157303,-0.0586361,-0.0146097,0.001036,0,0.0880893,0.27476,-10.1935,0.001036,0,0.0237246,-0.151734,-1.06304,-10590,-61263.8,64.79
990926829,-0.0138914,-0.0610329,-0.0113632,0.000894,0,0.131571,0.233712,-10.2916,0.000894,0,0.0237246,-0.151734,-1.06304,-14566,-61263.8,64.79
990929790,-0.0145128,-0.0617431,-0.0175772,0.000888,0,0.08385,0.269329,-10.2458,0.000888,0,0.0237246,-0.151734,-1.06304,-17527,-61263.8,64.79
990933817,-0.0126106,-0.0572665,-0.0117182,0.001036,0,0.0784649,0.284364,-10.1929,0.001036,0,0.0399141,-0.146337,-1.06824,-1585,-61264.0,64.79
990936816,-0.0139802,-0.0617558,-0.019099,0.001036,0,0.1094,0.25658,-10.2123,0.001036,0,0.0399141,-0.146337,-1.06824,-4584,-61264.0,64.79
990939783,-0.0102518,-0.0618319,-0.0132274,0.000894,0,0.129165,0.246118,-10.2247,0.000894,0,0.0399141,-0.146337,-1.06824,-7551,-61264.0,64.79
990943796,-0.0136251,-0.0608554,-0.0110081,0.000894,0,0.0890632,0.27253,-10.2147,0.000894,0,0.0129316,-0.151734,-1.06304,-11564,-61264.0,64.79
990947820,-0.0093387,-0.0603101,-0.0156749,0.001043,0,0.113869,0.284021,-10.2523,0.001043,-1061,0.0129316,-0.151734,-1.06304,-15588,-61264.0,64.79
990950860,-0.0156542,-0.0626689,-0.0162837,0.001036,0,0.140336,0.322095,-10.2058,0.001036,0,0.0435117,-0.124751,-1.0509,-18628,-61264.0,64.79
990953847,-0.0115834,-0.0636073,-0.0093214,0.000888,0,0.0766316,0.311348,-10.2633,0.000888,0,0.0435117,-0.124751,-1.0509,-1527,-61264.5,64.8
990957900,-0.0148172,-0.064419,-0.00646801,0.001036,0,0.126931,0.262411,-10.2851,0.001036,0,0.0435117,-0.124751,-1.0509,-5580,-61264.5,64.8
990961773,-0.014069,-0.0623645,-0.010653,0.000894,0,0.0970835,0.24972,-10.2079,0.000894,0,0.0435117,-0.124751,-1.0509,-9453,-61264.5,64.8
990964834,-0.010404,-0.0607666,-0.0126313,0.001036,0,0.093589,0.283335,-10.3705,0.001036,0,0.0435117,-0.124751,-1.0509,-12514,-61264.5,64.8
990968812,-0.0147411,-0.0633537,-0.0120226,0.001036,0,0.0887767,0.31352,-10.1741,0.001036,0,0.0435117,-0.124751,-1.0509,-16492,-61264.5,64.8
990971923,-0.0104801,-0.0632776,-0.0104247,0.001036,0,0.154773,0.296712,-10.1618,0.001036,0,0.0291211,-0.146337,-1.07171,-19603,-61264.5,64.8
990975881,-0.0134476,-0.0622979,-0.0158461,0.001184,0,0.104502,0.235913,-10.2539,0.001184,-1118,0.0291211,-0.146337,-1.07171,-3550,-61264.5,64.8
990978805,-0.0175311,-0.0685785,-0.0177547,0.000894,0,0.0898652,0.286536,-10.1984,0.000894,0,0.0291211,-0.146337,-1.07171,-6474,-61264.5,64.8
990982840,-0.0172648,-0.0620094,-0.0128723,0.000894,0,0.124353,0.325754,-10.204,0.000894,0,0.0345176,-0.148136,-1.0665,-10509,-61264.5,64.8
990985768,-0.0142465,-0.063341,-0.0150028,0.000894,-1011,0.08385,0.265727,-10.2207,0.000888,-1011,0.0345176,-0.148136,-1.0665,-13437,-61264.5,64.8
990988772,-0.0126486,-0.0624533,-0.0110081,0.000888,-875,0.104168,0.288137,-10.2848,0.001323,-875,0.0345176,-0.148136,-1.0665,-16441,-61264.5,64.8
990992813,-0.0148933,-0.0672343,-0.0146858,0.001036,-1021,0.0750276,0.317293,-10.2817,0.001036,-1021,0.0291211,-0.142739,-1.06824,-512,-61264.0,64.8
990996707,-0.0125954,-0.0615123,-0.0129966,0.000745,0,0.130368,0.311668,-10.1105,0.000745,0,0.0291211,-0.142739,-1.06824,-4406,-61264.0,64.8
990999787,-0.0133715,-0.0648755,-0.016588,0.001036,-902,0.0829334,0.335816,-10.1758,0.001036,-902,0.0291211,-0.142739,-1.06824,-7486,-61264.0,64.8
991003814,-0.00945284,-0.0607,-0.013649,0.001184,0,0.116232,0.246418,-10.227,0.001184,0,0.0273223,-0.148136,-1.05957,-11513,-61264.0,64.8
991006806,-0.0137139,-0.0622757,-0.0118958,0.000894,0,0.0994896,0.29454,-10.243,0.000894,-954,0.0273223,-0.148136,-1.05957,-14505,-61264.0,64.8
991008942,-0.0167956,-0.0613753,-0.0163598,0.001029,-1094,0.0903665,0.269829,-10.1295,0.001184,-1094,0.0273223,-0.148136,-1.05957,-16641,-61264.0,64.8
991013867,-0.0153498,-0.0624406,-0.0114139,0.001036,0,0.0984012,0.270986,-10.3165,0.001036,0,0.0399141,-0.149935,-1.04743,-1643,-61264.4,64.8
991016777,-0.00918652,-0.0612105,-0.0171333,0.000888,0,0.0966825,0.230511,-10.1812,0.000888,0,0.0399141,-0.149935,-1.04743,-4553,-61264.4,64.8
991020750,-0.0157557,-0.063341,-0.0143814,0.000894,0,0.0970835,0.311748,-10.2801,0.000894,0,0.0273223,-0.148136,-1.04916,-8526,-61264.4,64.8
991023863,-0.0113931,-0.0587883,-0.0159032,0.001036,0,0.148242,0.271673,-10.242,0.001036,0,0.0273223,-0.148136,-1.04916,-11639,-61264.4,64.8
991027812,-0.00576246,-0.0625167,-0.0108813,0.001036,-992,0.0918703,0.284707,-10.1802,0.001036,-992,0.0273223,-0.148136,-1.04916,-15588,-61264.4,64.8
991030828,-0.0154259,-0.0638102,-0.0142292,0.001036,0,0.0904954,0.214389,-10.2164,0.001036,0,0.0273223,-0.148136,-1.04916,-18604,-61264.4,64.8
991034892,-0.0127152,-0.0607,-0.0146477,0.001184,0,0.129766,0.229911,-10.2589,0.001184,0,0.0273223,-0.148136,-1.04916,-2524,-61264.9,64.81
991038861,-0.0147792,-0.064029,-0.0153801,0.001184,0,0.109615,0.267128,-10.2443,0.001184,0,0.0273223,-0.148136,-1.04916,-6493,-61264.9,64.81
991041829,-0.0151342,-0.0604115,-0.00798982,0.000894,0,0.0954795,0.259724,-10.2155,0.000894,0,0.0471094,-0.128349,-1.0613,-9461,-61264.9,64.81
991045838,-0.0128262,-0.0597901,-0.019619,0.000894,0,0.107109,0.245718,-10.2745,0.000894,0,0.0471094,-0.128349,-1.0613,-13470,-61264.9,64.81
991048886,-0.00979525,-0.0622884,-0.00806591,0.001036,0,0.10012,0.294997,-10.2711,0.001036,0,0.0471094,-0.128349,-1.0613,-16518,-61264.9,64.81
991051774,-0.0187739,-0.061388,-0.0189088,0.000888,0,0.137586,0.314149,-10.2434,0.000888,0,0.0453106,-0.148136,-1.06997,-19406,-61264.9,64.81
991055962,-0.0154259,-0.0662451,-0.017425,0.001029,0,0.0829333,0.266184,-10.3018,0.001029,0,0.0453106,-0.148136,-1.06997,-3757,-61265.0,64.82
991059725,-0.0113171,-0.0656668,-0.00809635,0.000745,0,0.102938,0.278533,-10.2286,0.000745,-770,0.0453106,-0.148136,-1.06997,-7520,-61265.0,64.82
991062853,-0.00858731,-0.0613658,-0.0145811,0.001184,0,0.102096,0.303744,-10.1469,0.001184,0,0.0435117,-0.160728,-1.06477,-10648,-61265.0,64.82
991066870,-0.0111839,-0.0607666,-0.0162456,0.001184,0,0.158038,0.277632,-10.2069,0.001184,0,0.0435117,-0.160728,-1.06477,-14665,-61265.0,64.82
991069819,-0.0145889,-0.0601579,-0.0107291,0.001043,0,0.060591,0.288137,-10.2574,0.001043,-1013,0.0435117,-0.160728,-1.06477,-17614,-61265.0,64.82
991072834,-0.0151342,-0.0645838,-0.0175772,0.000894,0,0.125155,0.304545,-10.2346,0.000894,0,0.020127,-0.148136,-1.0665,-537,-61264.4,64.82
991076802,-0.0151342,-0.0660042,-0.0141151,0.000894,0,0.0782357,0.306545,-10.2215,0.000894,0,0.020127,-0.148136,-1.0665,-4505,-61264.4,64.82
991080829,-0.012154,-0.0582556,-0.0143053,0.001043,0,0.105963,0.275103,-10.3503,0.001043,0,0.0417129,-0.137343,-1.0665,-8532,-61264.4,64.82
991083874,-0.014665,-0.0567338,-0.0116422,0.001036,0,0.0654032,0.344734,-10.3595,0.001036,0,0.0417129,-0.137343,-1.0665,-11577,-61264.4,64.82
991087807,-0.0138914,-0.0646726,-0.0165119,0.000894,0,0.0862561,0.301343,-10.1745,0.000894,0,0.0417129,-0.137343,-1.0665,-15510,-61264.4,64.82
991089828,-0.0133715,-0.0603101,-0.0109573,0.001036,0,0.103557,0.273045,-10.2629,0.001036,0,0.0417129,-0.137343,-1.0665,-17531,-61264.4,64.82
991093833,-0.00804517,-0.0597774,-0.0135444,0.001036,0,0.0654032,0.281963,-10.198,0.001036,0,0.0363164,-0.139142,-1.05436,-1470,-61264.4,64.82
991097815,-0.0161107,-0.0636581,-0.0142292,0.001036,0,0.153054,0.286422,-10.2765,0.001036,0,0.0363164,-0.139142,-1.05436,-5452,-61264.4,64.82
991098845,-0.0133715,-0.0643429,-0.0136966,0.001036,0,0.126243,0.314549,-10.2403,0.001036,0,0.0363164,-0.139142,-1.05436,-6482,-61264.4,64.82
991104775,-0.0215258,-0.0639624,-0.00958772,0.000894,0,0.117134,0.280534,-10.2737,0.000894,0,0.0363164,-0.139142,-1.05436,-12412,-61264.4,64.82
991106793,-0.00625704,-0.0649389,-0.0120733,0.000894,0,0.160845,0.251721,-10.2131,0.000894,0,0.0363164,-0.139142,-1.05436,-14430,-61264.4,64.82
991111796,-0.015223,-0.0639624,-0.0164232,0.000894,0,0.0734235,0.282935,-10.2303,0.000894,-966,0.0417129,-0.140941,-1.07691,-19433,-61264.4,64.82
991115785,-0.0147792,-0.0649389,-0.0163344,0.000894,0,0.0782357,0.261725,-10.2665,0.000894,0,0.0417129,-0.140941,-1.07691,-3452,-61264.6,64.81
991118812,-0.011241,-0.0598535,-0.0141531,0.001036,0,0.0272492,0.299114,-10.2697,0.001036,0,0.0417129,-0.140941,-1.07691,-6479,-61264.6,64.81
991121830,-0.00903434,-0.0658647,-0.0163598,0.001036,0,0.13793,0.288137,-10.2294,0.001036,0,0.0219258,-0.135544,-1.05783,-9497,-61264.6,64.81
991125947,-0.0162883,-0.064495,-0.0123101,0.001323,0,0.0964152,0.2796,-10.2187,0.001323,0,0.0219258,-0.135544,-1.05783,-13614,-61264.6,64.81
991129875,-0.0137805,-0.06323,-0.0190419,0.001184,0,0.101795,0.343362,-10.2607,0.001184,0,0.0219258,-0.135544,-1.05783,-17542,-61264.6,64.81
991132812,-0.0160346,-0.0617558,-0.0111095,0.001043,0,0.136211,0.289509,-10.2922,0.001043,0,0.0381152,-0.148136,-1.0665,-543,-61264.2,64.82
991136891,-0.00865389,-0.0578371,-0.0102091,0.000894,0,0.0581848,0.247719,-10.1876,0.000894,-971,0.0381152,-0.148136,-1.0665,-4622,-61264.2,64.82
991139861,-0.0127374,-0.060234,-0.014914,0.000888,0,0.158038,0.282134,-10.2135,0.000888,-840,0.0381152,-0.148136,-1.0665,-7592,-61264.2,64.82
991142876,-0.0120272,-0.0580147,-0.015713,0.000888,0,0.126358,0.281334,-10.1601,0.000888,0,0.0165293,-0.151734,-1.06997,-10607,-61264.2,64.82
991146823,-0.0169477,-0.0643429,-0.0130879,0.001036,-989,0.101838,0.309404,-10.3431,0.001043,-989,0.0165293,-0.151734,-1.06997,-14554,-61264.2,64.82
991149897,-0.0123823,-0.0635059,-0.0129357,0.001036,0,0.0870581,0.278876,-10.2697,0.001036,0,0.0165293,-0.151734,-1.06997,-17628,-61264.2,64.82
991153877,-0.0135998,-0.0551359,-0.0192512,0.001036,0,0.131743,0.303916,-10.2554,0.001036,0,0.0327187,-0.149935,-1.06477,-1544,-61264.3,64.82
991157819,-0.0115453,-0.0624406,-0.0144575,0.001036,0,0.0939327,0.270986,-10.323,0.001036,0,0.0327187,-0.149935,-1.06477,-5486,-61264.3,64.82
991160907,-0.0170238,-0.0597774,-0.0102725,0.001036,0,0.0715903,0.304259,-10.3315,0.001036,0,0.0273223,-0.137343,-1.04569,-8574,-61264.3,64.82
991163765,-0.0130215,-0.0659864,-0.01289,0.00075,0,0.152023,0.280934,-10.1932,0.00075,0,0.0273223,-0.137343,-1.04569,-11432,-61264.3,64.82
991167867,-0.0193953,-0.0666256,-0.0123396,0.000894,0,0.138789,0.286937,-10.2434,0.000894,0,0.0273223,-0.137343,-1.04569,-15534,-61264.3,64.82
991171916,-0.0133588,-0.0668031,-0.0112744,0.000894,0,0.0798398,0.286536,-10.2721,0.000894,0,0.0381152,-0.140941,-1.05263,-19583,-61264.3,64.82
991174834,-0.0130037,-0.0567719,-0.0116295,0.000894,0,0.150419,0.280934,-10.2135,0.000894,0,0.0381152,-0.140941,-1.05263,-2498,-61264.9,64.83
991178796,-0.0177974,-0.0638736,-0.0122509,0.000894,0,0.133175,0.33816,-10.2215,0.000894,0,0.0381152,-0.140941,-1.05263,-6460,-61264.9,64.83
991181806,-0.0106956,-0.059435,-0.0136712,0.000888,0,0.0714184,0.244918,-10.1793,0.000888,0,0.0489082,-0.158929,-1.0665,-9470,-61264.9,64.83
991184867,-0.00842562,-0.0616036,-0.00715283,0.001036,-997,0.158554,0.281277,-10.255,0.001043,-997,0.0489082,-0.158929,-1.0665,-12531,-61264.9,64.83
991188813,-0.0182413,-0.0676908,-0.0159032,0.001036,0,0.0798398,0.308375,-10.1905,0.001036,-902,0.0489082,-0.158929,-1.0665,-16477,-61264.9,64.83
991192848,-0.0147792,-0.0687561,-0.0170446,0.001184,-1045,0.172876,0.298142,-10.1976,0.000894,-1045,0.0489082,-0.158929,-1.0561,-561,-61264.5,64.83
991195793,-0.0113171,-0.0597013,-0.00996817,0.001043,-1014,0.112723,0.24932,-10.1665,0.0009,-1014,0.0489082,-0.158929,-1.0561,-3506,-61264.5,64.83
991199728,-0.00215578,-0.05821,-0.00958772,0.000745,0,0.116413,0.259804,-10.2381,0.000745,0,0.0489082,-0.158929,-1.0561,-7441,-61264.5,64.83
991202775,-0.0157912,-0.0666256,-0.0161924,0.000745,0,0.0836895,0.269409,-10.1836,0.000745,0,0.0273223,-0.144538,-1.04916,-10488,-61264.5,64.83
991206855,-0.0182413,-0.0660042,-0.011807,0.000894,0,0.118738,0.254522,-10.2052,0.000894,0,0.0273223,-0.144538,-1.04916,-14568,-61264.5,64.83
991209849,-0.0123823,-0.0618319,-0.0131386,0.000888,0,0.0561798,0.268928,-10.2685,0.000888,0,0.0255235,-0.15713,-1.07865,-17562,-61264.5,64.83
991216814,-0.012078,-0.0553642,-0.014914,0.001036,-827,0.0870581,0.290838,-10.2374,0.001184,0,0.0255235,-0.15713,-1.07865,-4590,-61265.0,64.83
991219845,-0.0115834,-0.0606335,-0.00878877,0.001184,0,0.118337,0.301043,-10.2808,0.001184,0,0.0255235,-0.15713,-1.07865,-7621,-61265.0,64.83
991220862,-0.00834953,-0.0577991,-0.00981599,0.001036,0,0.117994,0.279562,-10.2318,0.001036,0,0.0219258,-0.124751,-1.0613,-8638,-61265.0,64.83
991227875,-0.00852073,-0.0525108,-0.0089885,0.001184,0,0.115631,0.256923,-10.2936,0.001184,0,0.0219258,-0.124751,-1.0613,-15651,-61265.0,64.83
991230830,-0.0137139,-0.0643175,-0.0132274,0.000894,0,0.113124,0.282935,-10.2199,0.000894,-1042,0.0219258,-0.142739,-1.06824,-18606,-61265.0,64.83
991234729,-0.00918652,-0.0587426,-0.0170446,0.00075,0,0.118337,0.247799,-10.2539,0.00075,0,0.0219258,-0.142739,-1.06824,-2398,-61264.9,64.83
991237775,-0.00993221,-0.0589557,-0.0151271,0.000745,0,0.0865769,0.297741,-10.2998,0.000745,0,0.0219258,-0.142739,-1.06824,-5444,-61264.9,64.83
991241792,-0.0108909,-0.0628971,-0.0142749,0.000745,0,0.155873,0.260765,-10.2128,0.000745,0,0.0291211,-0.146337,-1.0613,-9461,-61264.9,64.83
991244771,-0.00945284,-0.0618319,-0.0101203,0.000888,0,0.108713,0.33976,-10.1641,0.000888,0,0.0291211,-0.146337,-1.0613,-12440,-61264.9,64.83
991248910,-0.0162883,-0.0649389,-0.0142039,0.000888,0,0.085053,0.27293,-10.2785,0.000888,0,0.0291211,-0.146337,-1.0613,-16579,-61264.9,64.83
991251886,-0.00991889,-0.0608998,-0.00852245,0.001176,0,0.133075,0.278233,-10.2918,0.001176,0,0.0309199,-0.151734,-1.05263,-19555,-61264.9,64.83
991254915,-0.0144368,-0.061908,-0.0120987,0.001036,0,0.11215,0.294311,-10.2745,0.001036,0,0.0309199,-0.151734,-1.05263,-2609,-61264.4,64.83
991258861,-0.0124711,-0.0624533,-0.00985403,0.000894,0,0.137586,0.266928,-10.3346,0.000894,0,0.0309199,-0.151734,-1.05263,-6555,-61264.4,64.83
991262862,-0.0153498,-0.0640385,-0.012327,0.001043,0,0.080871,0.292596,-10.2103,0.001043,-1039,0.0345176,-0.151734,-1.05263,-10556,-61264.4,64.83
991265802,-0.0104293,-0.0572157,-0.0120733,0.000894,0,0.0818449,0.288937,-10.3068,0.000894,-990,0.0345176,-0.151734,-1.05263,-13496,-61264.4,64.83
991268799,-0.00847634,-0.0637849,-0.00665824,0.000888,-932,0.0675085,0.311848,-10.2153,0.001184,-932,0.0345176,-0.151734,-1.05263,-16493,-61264.4,64.83
991272986,-0.0145128,-0.0608427,-0.0129357,0.001029,-1024,0.0500643,0.265627,-10.2482,0.001176,-1024,0.0435117,-0.135544,-1.0613,-537,-61264.5,64.84
991275838,-0.0113171,-0.0593209,-0.0138488,0.001036,0,0.115931,0.281963,-10.322,0.001036,0,0.0435117,-0.135544,-1.0613,-3389,-61264.5,64.84
991279824,-0.0126867,-0.0640385,-0.0121748,0.001036,0,0.124525,0.26001,-10.2284,0.001036,0,0.0417129,-0.140941,-1.04222,-7375,-61264.5,64.84
991283834,-0.0132193,-0.0605383,-0.0119465,0.001036,0,0.0925578,0.238057,-10.2072,0.001036,0,0.0417129,-0.140941,-1.04222,-11385,-61264.5,64.84
991286833,-0.0135998,-0.0626689,-0.020773,0.001036,0,0.118681,0.258295,-10.2325,0.001036,0,0.0417129,-0.140941,-1.04222,-14384,-61264.5,64.84
991289889,-0.0165673,-0.0633537,-0.0105769,0.001036,0,0.0409984,0.337188,-10.2567,0.001036,0,0.0363164,-0.135544,-1.05436,-17440,-61264.5,64.84
991293820,-0.0123823,-0.0636961,-0.0136712,0.000894,0,0.0978856,0.310147,-10.3514,0.000894,0,0.0363164,-0.135544,-1.05436,-1540,-61264.2,64.85
991295899,-0.0135237,-0.0638102,-0.0124791,0.001036,0,0.106994,0.245947,-10.2741,0.001036,0,0.0363164,-0.135544,-1.05436,-3619,-61264.2,64.85
991304802,-0.0146904,-0.0615656,-0.0122509,0.000894,0,0.11553,0.331357,-10.2354,0.000894,0,0.0453106,-0.140941,-1.0561,-12522,-61264.2,64.85
991307795,-0.00874266,-0.0608554,-0.0198853,0.000888,0,0.121145,0.274931,-10.2127,0.000888,-899,0.0453106,-0.140941,-1.0561,-15515,-61264.2,64.85
991310781,-0.0158825,-0.0609949,-0.00943553,0.001036,0,0.0994323,0.304945,-10.2417,0.001036,0,0.0471094,-0.153532,-1.0613,-18501,-61264.2,64.85
991314955,-0.00965997,-0.0572749,-0.0124284,0.001323,0,0.0964152,0.270529,-10.2152,0.001323,0,0.0471094,-0.153532,-1.0613,-2576,-61264.6,64.84
991317815,-0.0192304,-0.0609949,-0.00913117,0.001043,0,0.134149,0.301515,-10.239,0.001043,0,0.0471094,-0.153532,-1.0613,-5436,-61264.6,64.84
991319881,-0.0148172,-0.0641907,-0.0161315,0.001036,0,0.110088,0.264126,-10.253,0.001036,0,0.0327187,-0.15713,-1.06477,-7502,-61264.6,64.84
991324877,-0.013828,-0.0628971,-0.00913117,0.001036,0,0.0843083,0.244575,-10.2055,0.001036,0,0.0327187,-0.15713,-1.06477,-12498,-61264.6,64.84
991328793,-0.0161107,-0.061388,-0.0128723,0.000894,0,0.10751,0.306145,-10.2952,0.000894,-944,0.0327187,-0.15713,-1.06477,-16414,-61264.6,64.84
991331831,-0.0114058,-0.0610329,-0.0170446,0.000888,0,0.16285,0.25012,-10.1832,0.000888,-935,0.0327187,-0.15713,-1.06477,-19452,-61264.6,64.84
991335900,-0.0135237,-0.0616036,-0.0135444,0.001036,0,0.0877456,0.271673,-10.2478,0.001036,0,0.0327187,-0.15713,-1.06477,-3576,-61263.9,64.85
991338906,-0.00998547,-0.0597013,-0.0117848,0.001176,0,0.152324,0.266227,-10.2607,0.001176,0,0.0327187,-0.15713,-1.06477,-6582,-61263.9,64.85
991342820,-0.0186978,-0.0609949,-0.0146097,0.001036,0,0.0932452,0.268242,-10.2523,0.001036,0,0.0399141,-0.146337,-1.04743,-10496,-61263.9,64.85
991346813,-0.0141324,-0.0624406,-0.01149,0.001036,-969,0.105705,0.243717,-10.2404,0.001184,-969,0.0399141,-0.146337,-1.04743,-14489,-61263.9,64.85
991349854,-0.00572441,-0.061499,-0.0113853,0.001184,0,0.133075,0.323853,-10.1236,0.001184,-1055,0.0345176,-0.144538,-1.05957,-17530,-61263.9,64.85
991352896,-0.00774081,-0.0572665,-0.0104247,0.001036,0,0.106651,0.277847,-10.254,0.001036,-1090,0.0345176,-0.144538,-1.05957,-536,-61263.9,64.86
991356768,-0.0127374,-0.0561505,-0.0158905,0.000894,0,0.0561798,0.269329,-10.2793,0.000894,0,0.0345176,-0.144538,-1.05957,-4408,-61263.9,64.86
991360835,-0.015502,-0.0606144,-0.0124791,0.001043,0,0.125899,0.26687,-10.3691,0.001043,0,0.0291211,-0.153532,-1.07171,-8475,-61263.9,64.86
991363760,-0.0105714,-0.0600209,-0.0170446,0.000745,0,0.0678093,0.255482,-10.3099,0.000745,0,0.0291211,-0.153532,-1.07171,-11400,-61263.9,64.86
991367783,-0.0104648,-0.0619384,-0.00841593,0.000745,0,0.0995698,0.27181,-10.3371,0.000745,0,0.0291211,-0.153532,-1.07171,-15423,-61263.9,64.86
991370856,-0.0168209,-0.0668031,-0.0145589,0.000888,0,0.123952,0.281334,-10.1422,0.000888,0,0.0525059,-0.158929,-1.06304,-18496,-61263.9,64.86
991374735,-0.0102518,-0.0616188,-0.0134227,0.000745,0,0.0572224,0.314069,-10.1755,0.000745,0,0.0525059,-0.158929,-1.06304,-2438,-61264.4,64.86
991377844,-0.0164151,-0.0662451,-0.0169685,0.001036,0,0.0781211,0.289852,-10.1785,0.001036,0,0.0525059,-0.158929,-1.06304,-5547,-61264.4,64.86
991381849,-0.02177,-0.0642953,-0.0133161,0.001184,0,0.113826,0.311848,-10.2575,0.001184,0,0.0309199,-0.155331,-1.0561,-9552,-61264.4,64.86
991384792,-0.0098967,-0.0605891,-0.0113632,0.000894,0,0.181297,0.282134,-10.249,0.000894,0,0.0309199,-0.155331,-1.0561,-12495,-61264.4,64.86
991387832,-0.0131813,-0.0642287,-0.0159793,0.000888,0,0.158439,0.25052,-10.1577,0.000888,0,0.0309199,-0.155331,-1.0561,-15535,-61264.4,64.86
991389919,-0.0140468,-0.0696216,-0.0159127,0.001184,0,0.0804413,0.303444,-10.3546,0.001184,0,0.0237246,-0.148136,-1.05957,-17622,-61264.4,64.86
991392898,-0.0155781,-0.0597774,-0.0134683,0.001043,0,0.116275,0.292939,-10.2636,0.001043,0,0.0237246,-0.148136,-1.05957,-535,-61264.6,64.86
991396808,-0.0069799,-0.0600818,-0.0113378,0.001043,0,0.113869,0.250749,-10.2677,0.001043,0,0.0237246,-0.148136,-1.05957,-4445,-61264.6,64.86
991400797,-0.0139041,-0.0582556,-0.0159793,0.001043,-1006,0.157637,0.326154,-10.1721,0.000894,-1006,0.0237246,-0.148136,-1.05957,-8434,-61264.6,64.86
991403800,-0.00892021,-0.0642287,-0.0107418,0.000894,0,0.104703,0.253321,-10.2832,0.000894,0,0.0237246,-0.148136,-1.05957,-11437,-61264.6,64.86
991407812,-0.0161995,-0.0607666,-0.0147365,0.000894,0,0.136784,0.348164,-10.2665,0.000894,0,0.0237246,-0.148136,-1.05957,-15449,-61264.6,64.86
991410792,-0.0115834,-0.0597901,-0.0134937,0.000894,0,0.128363,0.304144,-10.2661,0.000894,0,0.0471094,-0.135544,-1.06824,-18429,-61264.6,64.86
991416840,-0.0145128,-0.0654842,-0.0101964,0.001036,0,0.0633408,0.292939,-10.1703,0.001036,0,0.0471094,-0.135544,-1.06824,-4514,-61264.5,64.86
991419776,-0.0134476,-0.0586361,-0.00926814,0.000745,0,0.084652,0.283335,-10.2415,0.000745,0,0.0327187,-0.15713,-1.05783,-7450,-61264.5,64.86
991423949,-0.0131147,-0.0634964,-0.00998719,0.001184,0,0.13909,0.304344,-10.2577,0.001184,0,0.0327187,-0.15713,-1.05783,-11623,-61264.5,64.86
991426876,-0.00895825,-0.0532337,-0.0116422,0.001036,0,0.178146,0.27819,-10.2052,0.001036,0,0.0327187,-0.15713,-1.05783,-14550,-61264.5,64.86
991429782,-0.0142465,-0.0687561,-0.0182874,0.000888,0,0.0485604,0.322152,-10.2235,0.000888,0,0.0417129,-0.158929,-1.0561,-17456,-61264.5,64.86
991433774,-0.0163771,-0.0591687,-0.015713,0.000888,0,0.138789,0.298542,-10.2271,0.000888,0,0.0417129,-0.158929,-1.0561,-1498,-61264.5,64.86
991436888,-0.0133884,-0.063489,-0.0110672,0.001323,0,0.118605,0.319885,-10.3284,0.001323,0,0.0417129,-0.158929,-1.0561,-4612,-61264.5,64.86
991440913,-0.00889062,-0.0629563,-0.0163344,0.001323,-1185,0.1116,0.246838,-10.2544,0.00075,-1185,0.0399141,-0.146337,-1.0613,-8637,-61264.5,64.86
991444818,-0.0132193,-0.0590165,-0.0145336,0.001036,0,0.1094,0.275446,-10.2837,0.001036,0,0.0399141,-0.146337,-1.0613,-12542,-61264.5,64.86
991447804,-0.00927529,-0.0619206,-0.0147365,0.000894,0,0.0589869,0.288937,-10.2486,0.000894,0,0.0399141,-0.146337,-1.0613,-15528,-61264.5,64.86
991450754,-0.014939,-0.0615123,-0.0148075,0.00075,0,0.143842,0.238195,-10.1832,0.00075,0,0.0273223,-0.151734,-1.04569,-18478,-61264.5,64.86
991454794,-0.0195728,-0.0648501,-0.0177547,0.000894,0,0.0918703,0.298542,-10.1992,0.000894,0,0.0273223,-0.151734,-1.04569,-2454,-61264.5,64.87
991458817,-0.0137672,-0.0658799,-0.0125705,0.000745,0,0.0817647,0.286696,-10.1535,0.000745,0,0.020127,-0.133745,-1.0561,-6477,-61264.5,64.87
991461811,-0.0125599,-0.0612105,-0.00949894,0.000888,0,0.0577838,0.255322,-10.1669,0.000888,0,0.020127,-0.133745,-1.0561,-9471,-61264.5,64.87
991465830,-0.0177086,-0.0619841,-0.0147619,0.001036,0,0.147554,0.28162,-10.2584,0.001036,0,0.020127,-0.133745,-1.0561,-13490,-61264.5,64.87
991468859,-0.00979525,-0.0624406,-0.0143053,0.001036,0,0.182959,0.297742,-10.2567,0.001036,0,0.020127,-0.133745,-1.0561,-16519,-61264.5,64.87
991472828,-0.0142085,-0.0616797,-0.0118704,0.001036,0,0.0990886,0.274417,-10.2677,0.001036,0,0.020127,-0.133745,-1.0561,-539,-61264.2,64.87
991475855,-0.0102518,-0.0618319,-0.0170446,0.001036,0,0.105619,0.237371,-10.2537,0.001036,-912,0.020127,-0.133745,-1.0561,-3566,-61264.2,64.87
991478793,-0.0153118,-0.0597013,-0.0101203,0.0009,0,0.0409411,0.306545,-10.1984,0.0009,0,0.0327187,-0.146337,-1.05436,-6504,-61264.2,64.87
991482796,-0.00954161,-0.0645838,-0.012606,0.000894,0,0.178089,0.232112,-10.2836,0.000894,0,0.0327187,-0.146337,-1.05436,-10507,-61264.2,64.87
991486800,-0.0131813,-0.0634298,-0.0099428,0.000894,0,0.179693,0.234913,-10.2275,0.000894,0,0.0327187,-0.146337,-1.05436,-14511,-61264.2,64.87
991489828,-0.0138027,-0.0588136,-0.0170446,0.000888,0,0.0950784,0.247319,-10.2502,0.000888,0,0.0309199,-0.137343,-1.0665,-17539,-61264.2,64.87
991493787,-0.0118497,-0.0627906,-0.0102269,0.000745,0,0.0923515,0.266527,-10.2726,0.000745,0,0.0309199,-0.137343,-1.0665,-1445,-61265.2,64.87
991496830,-0.00687845,-0.0604115,-0.0146477,0.000888,0,0.13518,0.219706,-10.1709,0.000888,0,0.0309199,-0.137343,-1.0665,-4488,-61265.2,64.87
991499862,-0.0137805,-0.0626974,-0.0101869,0.001176,0,0.128563,0.311248,-10.2368,0.001176,0,0.0363164,-0.149935,-1.05436,-7520,-61265.2,64.87
991503929,-0.00563564,-0.0597605,-0.0124876,0.001323,0,0.106842,0.270262,-10.2354,0.001323,0,0.0363164,-0.149935,-1.05436,-11587,-61265.2,64.87
991507849,-0.0135142,-0.0663593,-0.0101869,0.001184,0,0.117736,0.256023,-10.2539,0.001184,0,0.0363164,-0.149935,-1.05436,-15507,-61265.2,64.87
991509861,-0.0155781,-0.0690605,-0.0129357,0.001043,0,0.121775,0.24972,-10.1672,0.001043,0,0.0471094,-0.135544,-1.07171,-17519,-61265.2,64.87
991514824,-0.0110507,-0.066448,-0.0182874,0.000894,0,0.101896,0.264927,-10.3107,0.000894,-868,0.0471094,-0.135544,-1.07171,-2535,-61264.3,64.87
991517836,-0.0129149,-0.0589024,-0.0113632,0.000894,0,0.139992,0.257723,-10.2506,0.000894,-1033,0.0471094,-0.135544,-1.07171,-5547,-61264.3,64.87
991520757,-0.0161995,-0.0631635,-0.0160681,0.000888,0,0.0870581,0.320152,-10.2211,0.000888,0,0.0453106,-0.130148,-1.05957,-8468,-61264.3,64.87
991524773,-0.0161995,-0.0620982,-0.0103867,0.000888,0,0.0794388,0.277332,-10.2338,0.000888,0,0.0453106,-0.130148,-1.05957,-12484,-61264.3,64.87
991528839,-0.0122935,-0.0630747,-0.0141151,0.000888,0,0.168866,0.312548,-10.2171,0.000888,0,0.0381152,-0.133745,-1.07691,-16550,-61264.3,64.87
991530812,-0.0117736,-0.0552881,-0.010653,0.001043,0,0.0468418,0.341304,-10.2817,0.001043,0,0.0381152,-0.133745,-1.07691,-18523,-61264.3,64.87
991534861,-0.0142846,-0.0619841,-0.0142292,0.001043,0,0.131055,0.289509,-10.2496,0.001043,0,0.0381152,-0.133745,-1.07691,-2543,-61264.4,64.87
991538824,-0.013828,-0.0615275,-0.0132401,0.001036,0,0.181584,0.291567,-10.1949,0.001036,0,0.0381152,-0.133745,-1.07691,-6506,-61264.4,64.87
991542897,-0.0137139,-0.0628971,-0.0142482,0.001184,0,0.101495,0.263226,-10.2192,0.001184,0,0.0381152,-0.133745,-1.0561,-10579,-61264.4,64.87
991545813,-0.0118497,-0.0634298,-0.00990729,0.00075,0,0.120262,0.254522,-10.2907,0.00075,-915,0.0381152,-0.133745,-1.0561,-13495,-61264.4,64.87
991549807,-0.0114946,-0.0634298,-0.0115407,0.000894,0,0.128764,0.266527,-10.1665,0.000894,0,0.0363164,-0.146337,-1.05436,-17489,-61264.4,64.87
991552788,-0.0143353,-0.0606778,-0.0100316,0.000888,0,0.0814439,0.264927,-10.1916,0.000888,0,0.0363164,-0.146337,-1.05436,-501,-61264.2,64.88
991555801,-0.0166434,-0.0636073,-0.020773,0.000894,0,0.0894642,0.236114,-10.2996,0.000894,0,0.0363164,-0.146337,-1.05436,-3514,-61264.2,64.88
991559803,-0.0154893,-0.0649389,-0.0165119,0.000888,-959,0.0798398,0.238014,-10.195,0.001184,-959,0.0147305,-0.131946,-1.05783,-7516,-61264.2,64.88
991563804,-0.0145128,-0.0634298,-0.0136712,0.000888,0,0.0898652,0.248919,-10.2311,0.000888,-963,0.0147305,-0.131946,-1.05783,-11517,-61264.2,64.88
991566903,-0.0208452,-0.0649685,-0.0126651,0.001323,0,0.131437,0.257723,-10.2668,0.001323,0,0.0147305,-0.131946,-1.05783,-14616,-61264.2,64.88
991569870,-0.00758863,-0.0571904,-0.0109573,0.001043,0,0.0997761,0.293968,-10.2557,0.001043,0,0.0237246,-0.144538,-1.06304,-17583,-61264.2,64.88
991573828,-0.0147792,-0.0644063,-0.0147365,0.0009,0,0.152424,0.288537,-10.2546,0.0009,0,0.0237246,-0.144538,-1.06304,-1530,-61264.9,64.88
991576925,-0.0135237,-0.0595492,-0.0161315,0.001043,0,0.0942764,0.303573,-10.1778,0.001043,0,0.0237246,-0.144538,-1.06304,-4627,-61264.9,64.88
991580837,-0.0142846,-0.0641907,-0.0139249,0.001036,0,0.103557,0.271673,-10.2571,0.001036,0,0.0381152,-0.137343,-1.05957,-8539,-61264.9,64.88
991584801,-0.0177086,-0.0675133,-0.0120733,0.000894,0,0.12716,0.244517,-10.2717,0.000894,0,0.0381152,-0.137343,-1.05957,-12503,-61264.9,64.88
991587838,-0.0206381,-0.0682235,-0.0150916,0.000888,0,0.129566,0.268928,-10.1342,0.000888,0,0.0381152,-0.137343,-1.05957,-15540,-61264.9,64.88
991590808,-0.0102518,-0.0562773,-0.010653,0.001043,0,0.0984012,0.253836,-10.2916,0.001043,0,0.0183281,-0.149935,-1.0613,-18510,-61264.9,64.88
991595856,-0.0126867,-0.0617558,-0.0178816,0.001036,0,0.0977137,0.257952,-10.2192,0.001036,-1044,0.0183281,-0.149935,-1.0613,-3587,-61264.3,64.89
991600861,-0.0147411,-0.0577991,-0.0155228,0.001043,0,0.126931,0.24629,-10.2123,0.001043,0,0.0381152,-0.140941,-1.04569,-8592,-61264.3,64.89
991604774,-0.0130037,-0.0576596,-0.0142039,0.0009,0,0.121947,0.246518,-10.2342,0.0009,0,0.0381152,-0.140941,-1.04569,-12505,-61264.3,64.89
991607937,-0.0172521,-0.0651799,-0.0138488,0.001036,0,0.101838,0.333758,-10.2113,0.001036,0,0.0381152,-0.140941,-1.04569,-15668,-61264.3,64.89
991610839,-0.0117736,-0.0625167,-0.00837027,0.001036,0,0.0966825,0.332386,-10.114,0.001036,-1004,0.0345176,-0.151734,-1.04222,-18570,-61264.3,64.89
991615830,-0.0154259,-0.0618319,-0.0169685,0.001036,0,0.12315,0.299114,-10.2239,0.001036,0,0.0345176,-0.151734,-1.04222,-3519,-61264.2,64.89
991618780,-0.0190402,-0.0660042,-0.0152691,0.000894,0,0.113926,0.304945,-10.3243,0.000894,0,0.0291211,-0.139142,-1.06477,-6469,-61264.2,64.89
991622931,-0.0152737,-0.0622884,-0.0133922,0.001029,0,0.122118,0.264469,-10.253,0.001029,0,0.0291211,-0.139142,-1.06477,-10620,-61264.2,64.89
991625879,-0.0152737,-0.0588644,-0.0105008,0.001036,0,0.147554,0.283335,-10.2379,0.001036,0,0.0291211,-0.139142,-1.06477,-13568,-61264.2,64.89
991629882,-0.0102518,-0.0566387,-0.0135825,0.001176,0,0.0569818,0.253021,-10.3109,0.001176,0,0.0291211,-0.139142,-1.06477,-17571,-61264.2,64.89
991633945,-0.0166434,-0.0612401,-0.011304,0.001323,0,0.076899,0.261992,-10.3048,0.001323,0,0.0291211,-0.139142,-1.06477,-1720,-61264.1,64.9
991636794,-0.00758862,-0.0628971,-0.0185537,0.0009,0,0.0954795,0.239315,-10.1872,0.0009,0,0.0291211,-0.139142,-1.06477,-4569,-61264.1,64.9
991640742,-0.00927529,-0.0598789,-0.0100316,0.000894,0,0.166058,0.235713,-10.1279,0.000894,0,0.0309199,-0.148136,-1.04916,-8517,-61264.1,64.9
991643824,-0.011241,-0.0608427,-0.0138488,0.001036,0,0.141711,0.275446,-10.1816,0.001036,0,0.0309199,-0.148136,-1.04916,-11599,-61264.1,64.9
991647763,-0.0160042,-0.0594883,-0.00884203,0.000745,0,0.128924,0.325114,-10.3036,0.000745,0,0.0309199,-0.137343,-1.06304,-15538,-61264.1,64.9
991650809,-0.0133588,-0.063341,-0.0135825,0.000888,0,0.0329208,0.335358,-10.2406,0.000888,0,0.0309199,-0.137343,-1.06304,-18584,-61264.1,64.9
991653854,-0.00845415,-0.0599011,-0.0114519,0.001176,0,0.124954,0.27163,-10.2147,0.001176,0,0.0309199,-0.137343,-1.06304,-1600,-61264.6,64.9
991657887,-0.0167956,-0.056886,-0.0122509,0.001029,0,0.152023,0.273388,-10.2642,0.001029,0,0.0309199,-0.137343,-1.06304,-5633,-61264.6,64.9
991661854,-0.0165673,-0.0618319,-0.014077,0.001036,-1083,0.142398,0.315349,-10.284,0.000894,-1083,0.0291211,-0.153532,-1.07171,-9600,-61264.6,64.9
991664844,-0.0123823,-0.0587122,-0.0168163,0.001043,0,0.143086,0.312148,-10.2704,0.001043,0,0.0291211,-0.153532,-1.07171,-12590,-61264.6,64.9
991668877,-0.0140468,-0.0611661,-0.0113188,0.001184,0,0.0981863,0.265027,-10.2509,0.001184,0,0.0417129,-0.148136,-1.05957,-16623,-61264.6,64.9
991671779,-0.00684294,-0.0598079,-0.0101203,0.00075,-880,0.0887767,0.28162,-10.2318,0.001036,-880,0.0417129,-0.148136,-1.05957,-19525,-61264.6,64.9
991674805,-0.0122048,-0.0634298,-0.00798982,0.000894,0,0.168064,0.29534,-10.2848,0.000894,0,0.0417129,-0.148136,-1.05957,-2572,-61263.6,64.9
991678831,-0.0135237,-0.0620601,-0.0133161,0.001036,-1021,0.122749,0.27253,-10.1996,0.000894,-1021,0.0417129,-0.148136,-1.05957,-6598,-61263.6,64.9
991681846,-0.0134476,-0.0621362,-0.00966381,0.001036,0,0.0843083,0.267213,-10.2058,0.001036,0,0.0381152,-0.158929,-1.05957,-9613,-61263.6,64.9
991685797,-0.0107844,-0.0666256,-0.0128723,0.000894,0,0.0818449,0.248119,-10.2928,0.000894,0,0.0381152,-0.158929,-1.05957,-13564,-61263.6,64.9
991687818,-0.0169477,-0.0580274,-0.0175011,0.001043,0,0.123493,0.272702,-10.3127,0.001043,0,0.0363164,-0.153532,-1.06477,-15585,-61263.6,64.9
991691847,-0.0161107,-0.0600057,-0.0141531,0.001043,0,0.142742,0.332043,-10.2574,0.001043,0,0.0363164,-0.153532,-1.06477,-19614,-61263.6,64.9
991694811,-0.0169985,-0.0601452,-0.01376,0.000894,0,0.110718,0.232912,-10.2012,0.000894,0,0.0363164,-0.153532,-1.06477,-2538,-61263.7,64.9
991698850,-0.0176199,-0.0607666,-0.0123396,0.000894,0,0.0758296,0.300943,-10.237,0.000894,0,0.0363164,-0.153532,-1.06477,-6577,-61263.7,64.9
991701871,-0.0132193,-0.0606144,-0.0156749,0.001036,0,0.124525,0.297398,-10.296,0.001036,0,0.0363164,-0.153532,-1.06477,-9598,-61263.7,64.9
991705917,-0.0145128,-0.0625167,-0.0153706,0.001036,-1076,0.125857,0.278233,-10.2763,0.001184,-1076,0.0363164,-0.153532,-1.06477,-13644,-61263.7,64.9
