timestamp,rollspeed,pitchspeed,yawspeed,q[0],q[1],q[2],q[3]
990238826,-0.000133642,-0.0134831,-0.00105624,0.99646,-0.01145,-0.0607686,0.0569482
990239891,-0.000327096,-0.010645,-0.00329839,0.99646,-0.0114497,-0.0607675,0.0569493
990240911,0.00155991,-0.0102392,-0.00298388,0.99646,-0.0114487,-0.060766,0.0569494
990243864,-0.000266112,-0.0170772,-0.00365392,0.99646,-0.0114459,-0.060769,0.0569495
990246886,-0.0048936,-0.00976624,-0.00419223,0.99646,-0.0114511,-0.0607671,0.0569516
990250796,0.00108446,-0.0128533,-0.00318027,0.99646,-0.011447,-0.0607636,0.0569544
990254829,-0.000993182,-0.0107634,-0.00570683,0.996461,-0.011441,-0.0607533,0.0569535
990257836,0.00281558,-0.0136296,-0.00352829,0.996461,-0.0114401,-0.0607568,0.0569535
990260805,0.00117946,-0.00734953,-0.00416519,0.996461,-0.0114366,-0.0607505,0.0569536
990264817,-0.000122374,-0.00604212,-0.00150556,0.996462,-0.0114317,-0.0607391,0.0569566
990267901,-0.00362753,-0.0102196,0.00251155,0.996462,-0.011435,-0.0607326,0.0569566
990271884,-0.00162785,-0.012162,-0.00747324,0.996462,-0.0114388,-0.0607333,0.0569575
990274862,0.00403398,-0.0156292,-0.000708948,0.996462,-0.0114358,-0.0607358,0.0569588
990278870,-0.00786148,-0.0111134,-0.00185367,0.996462,-0.0114399,-0.0607321,0.0569586
990285944,-0.0029874,-0.0127181,-0.00524519,0.996462,-0.0114429,-0.0607331,0.0569566
990288853,-0.00182799,-0.014056,-0.0041691,0.996462,-0.0114438,-0.0607356,0.0569565
990292844,0.00426591,-0.0116482,-0.00186472,0.996462,-0.0114429,-0.0607337,0.0569552
990295993,-0.00288779,-0.0157503,-0.00129272,0.996462,-0.0114423,-0.0607346,0.0569564
990299782,0.00261284,-0.014678,-0.00164046,0.996462,-0.0114427,-0.0607353,0.0569562
990302876,-0.00379431,-0.00838253,-0.00759398,0.996462,-0.0114415,-0.0607339,0.0569615
990306872,-0.00449238,-0.0149679,-0.00250073,0.996461,-0.0114437,-0.0607349,0.0569663
990309834,-0.000628814,-0.00931999,-0.00141865,0.996461,-0.0114453,-0.0607326,0.0569688
990313866,0.00242096,-0.0156147,-0.0033643,0.996461,-0.0114411,-0.060735,0.0569691
990316812,0.000628715,-0.0107266,-0.00341942,0.996463,-0.0114394,-0.0607325,0.056935
990320841,0.00201904,-0.00853205,0.00111831,0.996464,-0.011437,-0.0607267,0.0569364
990323896,-0.00194473,-0.0143734,0.000338214,0.996463,-0.011441,-0.0607299,0.056936
990327866,-0.00297194,-0.0121916,-0.00178742,0.996463,-0.0114416,-0.0607248,0.0569411
990330854,-0.00340123,-0.0125608,0.00165289,0.996463,-0.0114467,-0.0607217,0.0569446
990334964,-0.00350046,-0.0103159,0.00041627,0.996463,-0.01145,-0.0607226,0.0569467
990337828,-0.00136075,-0.0151902,-0.00208265,0.996463,-0.0114518,-0.0607227,0.0569466
990341853,0.00201411,-0.00948366,-0.00203209,0.996463,-0.0114475,-0.0607192,0.056948
990344828,-0.00376197,-0.0128694,-0.00231264,0.996463,-0.0114499,-0.0607197,0.0569478
990348841,0.00210072,-0.0109113,-0.00292772,0.996463,-0.0114478,-0.0607187,0.0569478
990351869,-0.00566177,-0.0125046,-0.000864225,0.996464,-0.0114504,-0.0607117,0.056949
990355808,0.000842574,-0.0138108,-0.00441874,0.996463,-0.011451,-0.0607184,0.0569487
990358848,0.00100113,-0.0133625,-0.00141829,0.996463,-0.0114495,-0.0607167,0.0569487
990362921,0.000312913,-0.0101491,-0.00277671,0.996464,-0.011449,-0.0607166,0.0569473
990365885,0.000280668,-0.0129572,-0.00448584,0.996464,-0.0114477,-0.060716,0.0569472
990369843,0.00323762,-0.0117934,-0.00365646,0.996464,-0.0114391,-0.0607132,0.0569475
990372878,-0.00144324,-0.0111803,-0.000525472,0.996464,-0.0114409,-0.0607119,0.0569476
990376991,0.00101874,-0.0129895,-0.00201127,0.996464,-0.0114449,-0.0607103,0.0569444
990379884,-0.000494686,-0.0091957,0.00209426,0.996465,-0.0114436,-0.060706,0.0569417
990383857,0.000754999,-0.00897522,-0.00393835,0.996465,-0.0114424,-0.0607,0.0569419
990386785,0.000247362,-0.011989,0.00236901,0.996465,-0.0114432,-0.0606973,0.0569418
990388974,-0.00176599,-0.0101799,0.000310368,0.996465,-0.0114445,-0.0606943,0.0569417
990393884,0.000160388,-0.0132861,0.00288488,0.996466,-0.0114387,-0.06069,0.0569406
990397848,-0.00140719,-0.0112592,-0.00286754,0.996466,-0.011439,-0.0606858,0.0569377
990398914,-0.00398173,-0.0130126,-0.00114264,0.996466,-0.011441,-0.060686,0.0569376
990404874,0.00308863,-0.0116567,-0.00352638,0.996466,-0.0114378,-0.0606875,0.0569413
990407784,-0.000665016,-0.0137885,0.00372472,0.996466,-0.0114398,-0.0606881,0.0569411
990410790,-0.00178869,-0.00942817,-0.00215757,0.996466,-0.0114399,-0.0606847,0.056943
990414741,0.000742381,-0.0123532,-0.00654457,0.996466,-0.0114406,-0.0606836,0.0569441
990418808,-0.00347212,-0.014529,-0.00161508,0.996466,-0.0114482,-0.060683,0.0569436
990421852,-0.00095377,-0.0110813,0.000388143,0.996466,-0.0114487,-0.0606808,0.0569422
990425933,-0.00246767,-0.0105902,0.00205812,0.996466,-0.0114526,-0.060675,0.0569419
990429815,-0.00263285,-0.00950293,-0.0022362,0.996466,-0.0114611,-0.0606697,0.0569426
990432929,-0.00337519,-0.0114941,-0.000478834,0.996467,-0.0114671,-0.0606676,0.0569422
990435852,-0.000373554,-0.0126307,-0.00207422,0.996467,-0.0114613,-0.0606624,0.0569451
990439827,-0.00138373,-0.0133442,-0.00496311,0.996466,-0.0114648,-0.060667,0.0569472
990442845,-0.00119599,-0.00994638,-0.00228102,0.996467,-0.011469,-0.060662,0.056947
990446845,-0.00192216,-0.00974592,-0.00246624,0.996467,-0.0114689,-0.0606578,0.0569482
990449807,-0.00170265,-0.0115954,-0.00429501,0.996467,-0.0114704,-0.0606554,0.0569492
990453817,-0.000428534,-0.00944266,-0.000717022,0.996467,-0.0114727,-0.060652,0.0569492
990456920,-0.00369189,-0.0105505,-0.00498017,0.996467,-0.0114751,-0.0606458,0.056949
990460821,0.00436109,-0.00705171,-0.00234361,0.996468,-0.0114701,-0.0606409,0.0569507
990463816,-0.00189174,-0.0107492,0.00215511,0.996468,-0.0114693,-0.0606358,0.0569507
990467873,-0.00141076,-0.00901411,-0.00132276,0.996468,-0.0114745,-0.0606326,0.056953
990470882,0.000290192,-0.0115716,-0.00471899,0.996468,-0.0114744,-0.0606279,0.0569555
990474881,0.00269899,-0.00981839,-0.0016482,0.996468,-0.0114725,-0.0606225,0.0569582
990477836,-6.90743e-05,-0.00799055,-0.0018382,0.996469,-0.0114694,-0.0606159,0.0569585
990481849,-0.00202882,-0.010694,-0.00436552,0.996469,-0.0114731,-0.0606181,0.0569581
990484812,-0.00137766,-0.0146093,-0.00372341,0.996469,-0.0114761,-0.0606154,0.0569578
990487901,0.00111325,-0.00936183,-0.000807768,0.996469,-0.011473,-0.0606133,0.0569581
990491879,-0.00125071,-0.0116303,0.000612287,0.996469,-0.0114821,-0.0606131,0.0569599
990495938,-0.00164441,-0.0113619,-0.00103344,0.996469,-0.0114831,-0.0606135,0.0569609
990498862,0.00232923,-0.0131747,-0.00190343,0.996469,-0.0114815,-0.0606127,0.0569611
990502796,-0.00188208,-0.014673,4.6324e-06,0.996469,-0.0114803,-0.0606145,0.0569594
990505825,-0.000952376,-0.0072893,-0.00543914,0.996469,-0.0114776,-0.0606082,0.0569597
990509842,0.00077834,-0.00890424,-0.00132959,0.996467,-0.0114813,-0.0606031,0.0569943
990512925,0.00481692,-0.0118972,0.0019453,0.996468,-0.011475,-0.0605993,0.0569948
990516787,-0.0031262,-0.010008,-0.001256,0.996468,-0.0114755,-0.0605946,0.056996
990519852,0.00117982,-0.0126755,-0.00180241,0.996468,-0.0114751,-0.0605938,0.0569971
990523869,0.00227499,-0.0155518,-0.00248766,0.996468,-0.0114724,-0.060594,0.0569972
990526914,-0.00111427,-0.0123751,-0.00490136,0.996468,-0.0114722,-0.0605983,0.0569971
990530840,-0.00167273,-0.014859,-0.00455333,0.996467,-0.0114756,-0.0606016,0.0569953
990533841,-0.00152618,-0.00939224,0.00201641,0.996468,-0.0114792,-0.0605986,0.0569951
990537738,-0.00127689,-0.013297,-0.00668755,0.996468,-0.011477,-0.0605999,0.0569924
990540827,0.00119001,-0.0102453,-0.00529484,0.996468,-0.0114731,-0.0605964,0.0569912
990544838,-0.00325622,-0.0149236,-0.00164215,0.996468,-0.0114739,-0.0605939,0.056991
990547820,-0.000708316,-0.0157643,0.000549345,0.996468,-0.0114762,-0.0605998,0.0569907
990551817,-0.00350954,-0.0112465,-0.00410954,0.996468,-0.0114806,-0.0605988,0.056989
990554889,-0.00217633,-0.0151361,-0.00158178,0.996468,-0.0114814,-0.060598,0.0569887
990558829,-0.00204133,-0.0119694,-0.0031397,0.996468,-0.0114865,-0.0605951,0.0569885
990561805,-0.000391413,-0.00918321,0.00239383,0.996468,-0.0114885,-0.0605942,0.0569895
990565833,-0.000462625,-0.0117896,-0.000188674,0.996469,-0.011488,-0.060586,0.0569909
990568772,0.000948418,-0.0118094,-0.00438272,0.996469,-0.0114874,-0.0605856,0.056991
990572830,-0.00238011,-0.0125434,-0.00475955,0.996468,-0.0114865,-0.0605878,0.0569895
990575792,0.00304049,-0.0149663,-9.29013e-05,0.996468,-0.0114814,-0.0605892,0.0569883
990579831,-0.00143815,-0.0118609,-0.000264259,0.996469,-0.0114836,-0.0605868,0.0569906
990582885,0.00127382,-0.0118326,-0.0020848,0.996469,-0.0114791,-0.0605852,0.0569909
990586910,0.00268002,-0.0109575,0.00111579,0.996469,-0.0114809,-0.0605834,0.0569934
990589843,-0.00368335,-0.0172891,-0.00551422,0.996469,-0.0114803,-0.0605849,0.0569932
990593911,0.00192846,-0.0121463,-0.00629195,0.996468,-0.0114802,-0.0605864,0.0569931
990597034,-0.00328961,-0.0132479,-0.00269238,0.996468,-0.01148,-0.0605868,0.0569929
990600768,0.00124346,-0.0109992,-0.00773187,0.996468,-0.0114823,-0.0605866,0.0569927
990603786,-0.00309049,-0.0152399,0.00119808,0.996468,-0.0114835,-0.0605922,0.0569925
990607766,-0.00143306,-0.0128566,-0.00189963,0.996468,-0.0114887,-0.06059,0.0569908
990611854,-0.00419763,-0.0142381,-0.00758181,0.996473,-0.0114968,-0.0605883,0.0569178
990614794,-0.00118655,-0.0124192,0.00183071,0.996472,-0.0115,-0.0605886,0.0569173
990617814,-0.00152948,-0.0115963,-0.00529303,0.996472,-0.0115005,-0.0605868,0.0569174
990621876,-0.0027374,-0.0152885,0.00187689,0.996472,-0.0115003,-0.0605872,0.0569171
990624806,-0.00141459,-0.0131608,-0.00238092,0.996472,-0.011504,-0.0605879,0.0569166
990628849,0.00246635,-0.0145596,-0.00293181,0.996472,-0.0115042,-0.0605957,0.0569164
990630856,0.000860667,-0.010621,-0.000892991,0.996472,-0.0115017,-0.060594,0.0569164
990635741,-0.00071147,-0.0142871,-0.00537329,0.996472,-0.0115053,-0.060595,0.0569145
990638810,0.00277089,-0.00847242,8.50148e-05,0.996473,-0.0115009,-0.060589,0.0569149
990642859,-0.00542274,-0.0143631,-0.00213408,0.996473,-0.011502,-0.0605915,0.0569118
990645830,0.00363493,-0.0106517,-0.00497642,0.996473,-0.0114999,-0.0605869,0.0569118
990649853,-0.00170864,-0.0131578,3.65619e-05,0.996473,-0.0114984,-0.0605866,0.0569143
990652805,-0.00239754,-0.0129257,-0.00458696,0.996473,-0.0115016,-0.0605856,0.0569141
990656878,0.00089182,-0.0129438,-0.00110147,0.996473,-0.0114982,-0.0605861,0.0569167
990659800,-0.00303785,-0.0149542,-0.00578864,0.996472,-0.0114997,-0.0605878,0.0569166
990663902,-0.00463192,-0.016,-0.00467391,0.996472,-0.011505,-0.0605894,0.0569146
990666836,0.0006332,-0.00719791,-0.00293278,0.996473,-0.0115061,-0.0605841,0.0569103
990670884,-0.00260221,-0.0159824,-0.0079099,0.996473,-0.0115075,-0.0605839,0.0569085
990673815,0.00067304,-0.0107653,-0.00194022,0.996473,-0.0115085,-0.0605822,0.0569085
990677810,0.00153879,-0.0060744,-0.00173073,0.996474,-0.0115047,-0.0605733,0.0569101
990680882,0.000850494,-0.00945995,-0.000305524,0.996474,-0.0115036,-0.0605675,0.0569126
990684884,0.000376225,-0.00968811,-0.00286674,0.996474,-0.0114973,-0.0605634,0.0569156
990687844,-0.00282557,-0.0101873,-0.00324532,0.996474,-0.0115002,-0.0605581,0.0569155
990691847,-0.000735759,-0.00912655,-0.00372998,0.996474,-0.011504,-0.0605576,0.0569176
990694900,-0.00401636,-0.0132179,-0.00493679,0.996474,-0.0115084,-0.0605566,0.0569211
990698834,-0.00128024,-0.0116562,-0.00362526,0.996474,-0.0115137,-0.0605565,0.0569208
990701833,0.00274127,-0.0123578,-0.0013575,0.996474,-0.0115068,-0.0605518,0.0569251
990706007,-0.00332931,-0.01639,0.00170591,0.996475,-0.0115195,-0.0605602,0.0569013
990708919,-0.0032806,-0.0115685,-0.00366702,0.996475,-0.0115232,-0.0605599,0.0569011
990712848,-0.00219695,-0.0142058,0.000508365,0.996475,-0.0115254,-0.0605654,0.0568993
990716833,0.000327715,-0.0135465,-0.00160957,0.996475,-0.0115254,-0.060562,0.056899
990719930,-0.00414936,-0.00877871,-0.00380057,0.996475,-0.0115294,-0.0605584,0.0568973
990722792,0.00394204,-0.0119074,0.00185604,0.996475,-0.0115285,-0.0605545,0.0568974
990726819,-0.0055393,-0.0130422,-0.00653283,0.996475,-0.0115325,-0.0605549,0.0568955
990729703,-0.00501761,-0.0127064,-0.00195452,0.996475,-0.0115368,-0.0605571,0.0568952
990733809,-0.000913028,-0.0178525,-0.00217823,0.996475,-0.011544,-0.0605585,0.0568944
990736787,0.000676337,-0.0147554,-0.00533794,0.996475,-0.0115431,-0.0605661,0.056894
990740808,-0.00216344,-0.0119619,-0.00123063,0.996475,-0.0115423,-0.0605627,0.0568924
990743805,0.00109863,-0.0113858,0.000911026,0.996475,-0.0115407,-0.0605609,0.0568925
990747841,0.00360809,-0.0145682,-0.00294169,0.996475,-0.0115421,-0.060563,0.0568908
990750814,-0.000675681,-0.0121679,-0.00319369,0.996475,-0.011541,-0.0605625,0.0568894
990754788,-0.000660876,-0.0129511,-0.0026919,0.996475,-0.0115398,-0.0605582,0.0568895
990758818,0.00131215,-0.0106147,-0.000658704,0.996476,-0.0115354,-0.0605545,0.0568883
990761825,-0.000173297,-0.0100839,-0.00686459,0.996476,-0.0115333,-0.0605503,0.0568895
990764824,0.000291696,-0.0156151,-0.00275978,0.996476,-0.0115325,-0.0605489,0.0568896
990768825,-0.0030456,-0.0141072,-0.000771004,0.996476,-0.0115354,-0.0605564,0.0568916
990771832,-0.0018562,-0.00933075,-0.00915996,0.996476,-0.0115372,-0.0605524,0.0568914
990775864,-0.00297199,-0.0126443,-0.00190203,0.996476,-0.0115436,-0.060554,0.056892
990778820,-0.0058981,-0.0144086,-0.00126817,0.996475,-0.0115477,-0.0605554,0.0568917
990782820,-0.00200101,-0.0145432,-0.00477861,0.996475,-0.0115533,-0.0605619,0.056895
990785885,0.00152748,-0.0128588,-0.00118319,0.996475,-0.011554,-0.0605631,0.0568974
990789828,0.00318333,-0.00936906,-0.00434751,0.996475,-0.0115489,-0.0605607,0.0568977
990792866,0.000114673,-0.0140454,0.00156669,0.996475,-0.0115489,-0.0605626,0.0568988
990796798,-0.00141595,-0.0134641,-0.00340044,0.996475,-0.0115516,-0.0605595,0.0568984
990799793,0.00321065,-0.00914328,-0.00444267,0.996475,-0.011546,-0.0605543,0.056899
990803789,0.00035066,-0.0132408,-0.00317551,0.996475,-0.0115431,-0.0605558,0.0568974
990806928,-0.00220839,-0.00930149,-0.00365328,0.996475,-0.0115447,-0.0605501,0.0568985
990810863,0.00201186,-0.00989187,-0.00433297,0.996476,-0.0115419,-0.0605455,0.0568935
990813819,0.000389958,-0.0113167,-5.0189e-05,0.996476,-0.0115414,-0.0605434,0.0568935
990816780,0.00388589,-0.00848288,0.00192102,0.996477,-0.011539,-0.0605376,0.0568922
990820700,-0.00119095,-0.00831598,0.00414396,0.996476,-0.0115416,-0.0605358,0.0568944
990824769,0.00349622,-0.0144519,-0.00303234,0.996477,-0.0115316,-0.0605312,0.0568951
990827817,-0.00078919,-0.0131211,-0.0058684,0.996477,-0.0115324,-0.0605319,0.0568987
990831796,-0.000350234,-0.0125299,0.000494742,0.996477,-0.0115303,-0.0605328,0.0568986
990835742,-0.000205649,-0.013777,0.00122022,0.996477,-0.0115368,-0.0605293,0.0568967
990838855,-0.000186624,-0.0103594,0.000140718,0.996477,-0.0115388,-0.0605241,0.0568966
990841956,-0.000734313,-0.0140201,-0.00577354,0.996477,-0.0115374,-0.0605255,0.0568964
990845857,0.00208369,-0.0101752,0.00190749,0.996477,-0.0115363,-0.0605237,0.0568975
990848766,0.002381,-0.0102061,-0.000911164,0.996477,-0.0115345,-0.0605193,0.0568977
990852824,0.000968067,-0.0128244,-0.00139116,0.996477,-0.0115311,-0.0605214,0.0569015
990855804,0.00122178,-0.014458,-0.00498804,0.996477,-0.0115305,-0.0605228,0.0569065
990859704,-0.00114579,-0.0114345,-0.00119112,0.996477,-0.0115287,-0.0605198,0.0569067
990862771,-0.00121234,-0.013659,-0.0021613,0.996477,-0.0115303,-0.0605223,0.0569089
990866764,-0.00115704,-0.0112782,-0.00165053,0.996477,-0.0115242,-0.0605173,0.0569105
990870843,-0.0047518,-0.0111617,-0.00413033,0.996477,-0.0115267,-0.0605126,0.0569128
990872796,-0.00205973,-0.015639,-0.00515061,0.996477,-0.0115281,-0.0605148,0.0569126
990876817,-0.00263754,-0.0108861,-0.00169153,0.996477,-0.0115297,-0.0605106,0.0569151
990880714,-0.00311164,-0.0122606,0.000517302,0.996477,-0.0115332,-0.06051,0.0569133
990883778,-0.00288763,-0.0148588,-0.00392442,0.996477,-0.0115376,-0.0605118,0.056913
990887744,0.00254782,-0.00651155,0.00296894,0.996477,-0.0115363,-0.0605055,0.056913
990890759,-0.000439742,-0.0124529,0.00245209,0.996477,-0.0115365,-0.0605041,0.0569167
990894731,0.000345841,-0.0128281,-0.000321751,0.996477,-0.011533,-0.0605053,0.0569168
990897778,0.00105193,-0.0115875,-0.00185084,0.996477,-0.0115368,-0.0605039,0.056919
990901760,-0.00425956,-0.0110452,-0.00489763,0.996477,-0.0115329,-0.0605012,0.0569189
990904869,0.000274033,-0.0137178,-0.00155622,0.996477,-0.0115343,-0.0605026,0.0569189
990908854,4.17149e-05,-0.0129635,-0.000848394,0.996477,-0.0115347,-0.0604994,0.0569172
990912798,-0.00372052,-0.0129066,-0.00284251,0.996477,-0.0115406,-0.0605006,0.0569166
990915900,-0.00303063,-0.0120684,-0.00506388,0.996477,-0.0115431,-0.0605,0.0569176
990918816,0.00091124,-0.0137487,0.000680715,0.996477,-0.0115446,-0.0605013,0.0569174
990922853,-0.00388049,-0.00801302,-0.00410143,0.996478,-0.0115433,-0.0604913,0.0569174
990925766,-0.00199664,-0.0119543,0.00114147,0.996478,-0.0115479,-0.0604881,0.056917
990929790,-0.00535596,-0.0117825,-0.0030243,0.996478,-0.0115533,-0.0604851,0.0569168
990932798,0.000938137,-0.0112766,-0.00188313,0.996478,-0.0115526,-0.0604827,0.0569179
990936816,-0.0026278,-0.0122161,-0.00438825,0.996479,-0.0115559,-0.0604784,0.05691
990939783,0.00343017,-0.0114965,-0.00315399,0.996479,-0.0115515,-0.0604761,0.0569103
990943796,-0.00161348,-0.0104301,-0.00194367,0.996479,-0.0115516,-0.060472,0.0569128
990947820,-0.00379396,-0.0138903,-0.00481625,0.996479,-0.0115561,-0.0604746,0.0569148
990950860,-0.000801355,-0.00780617,-0.00522003,0.996479,-0.0115526,-0.0604665,0.0569137
990953847,0.00246673,-0.0141353,0.00182495,0.996479,-0.0115517,-0.0604676,0.0569137
990957900,-0.00133335,-0.0136653,-0.00028188,0.996479,-0.011552,-0.0604683,0.0569133
990960801,-0.000106583,-0.010439,0.000361091,0.996479,-0.0115539,-0.0604668,0.0569141
990964834,0.00110024,-0.00935915,-0.000787963,0.99648,-0.0115549,-0.0604624,0.0569142
990967864,-0.00311913,-0.0177281,-0.00568144,0.996479,-0.0115553,-0.0604659,0.0569139
990971923,0.00302538,-0.00885894,0.00262844,0.99648,-0.0115556,-0.0604627,0.056915
990974763,0.000228601,-0.0130852,-0.00478176,0.99648,-0.0115536,-0.0604648,0.0569151
990978805,-0.00644144,-0.0169599,-0.00616419,0.996479,-0.0115579,-0.0604656,0.0569158
990981836,-0.000426427,-0.00870962,-0.00577245,0.996479,-0.0115592,-0.0604657,0.0569181
990985768,-0.00206388,-0.0121487,-0.00171078,0.996479,-0.0115654,-0.0604635,0.0569215
990988772,-0.000981797,-0.0161285,-0.00236985,0.996479,-0.0115658,-0.0604675,0.0569213
990992813,-0.00036249,-0.0183307,-0.00231255,0.996479,-0.0115653,-0.0604721,0.0569196
990996707,-0.00282429,-0.0122993,-0.00405086,0.996478,-0.0115691,-0.0604758,0.0569162
990999787,-0.00073438,-0.0121358,-0.00146465,0.996479,-0.0115701,-0.0604732,0.0569162
991002776,-0.00175219,-0.0115656,-0.00294819,0.996478,-0.0115723,-0.0604752,0.0569171
991006806,-0.00164324,-0.0139474,0.000627394,0.996479,-0.0115713,-0.0604726,0.0569169
991008942,-0.00504844,-0.0121672,-0.00489389,0.996479,-0.0115749,-0.0604726,0.0569167
991013867,-0.00200786,-0.0119912,-0.00332005,0.996479,-0.0115757,-0.0604686,0.0569152
991016777,0.00243144,-0.00925518,-0.00281451,0.996479,-0.0115763,-0.0604644,0.0569149
991020750,-0.00227374,-0.0170129,-0.00313422,0.996479,-0.0115728,-0.0604687,0.0569151
991023863,-0.00107155,-0.0092271,-0.00224926,0.996479,-0.0115766,-0.0604656,0.0569133
991026820,0.00239391,-0.0117759,-0.0048607,0.99648,-0.0115729,-0.0604602,0.0569133
991030828,-0.00201609,-0.0111136,0.000330621,0.99648,-0.0115671,-0.0604583,0.0569134
991034892,-0.00217473,-0.0136002,-0.00220489,0.996479,-0.0115722,-0.0604634,0.0569129
991037814,-0.00243199,-0.0141355,-0.00150704,0.996481,-0.0115751,-0.0604621,0.0568912
991041829,-0.000820253,-0.0122432,0.00162236,0.996481,-0.0115763,-0.0604639,0.0568895
991044817,-0.00140577,-0.0086302,-0.00700712,0.996481,-0.0115794,-0.0604591,0.0568894
991047792,-0.00014556,-0.012471,-0.00470573,0.996481,-0.0115785,-0.0604559,0.0568893
991051774,-0.00189467,-0.00844523,-0.00801506,0.996481,-0.011576,-0.060451,0.0568893
991055962,0.00202575,-0.0144533,-0.00453997,0.996482,-0.0115752,-0.0604489,0.0568878
991058955,-0.00126903,-0.0112173,-0.00366882,0.996482,-0.0115773,-0.0604507,0.0568876
991062853,0.000735331,-0.0114752,-0.0051776,0.996482,-0.0115762,-0.0604516,0.0568873
991065811,-0.00116353,-0.0155798,-0.00266955,0.996481,-0.011574,-0.0604528,0.0568884
991069819,-0.0026133,-0.00955168,0.00308619,0.996482,-0.0115757,-0.0604484,0.0568884
991072834,-0.00447697,-0.0155423,-0.00650463,0.996482,-0.0115799,-0.0604499,0.0568878
991076802,-0.000102913,-0.0112914,-0.00410278,0.996482,-0.0115776,-0.0604443,0.0568878
991079750,-0.00359797,-0.0125377,0.000303174,0.996482,-0.0115824,-0.0604482,0.0568875
991083874,0.00448368,-0.0071094,0.00132477,0.996482,-0.0115768,-0.060438,0.056889
991086819,-0.00441645,-0.0124265,-0.0036106,0.996483,-0.0115827,-0.0604338,0.0568871
991089828,0.000449605,-0.0121283,-0.00255255,0.996482,-0.0115833,-0.0604356,0.056887
991093833,0.00155998,-0.0153874,-0.00172905,0.996482,-0.0115835,-0.0604388,0.0568839
991096861,0.00142266,-0.0110093,-0.00226635,0.996483,-0.0115789,-0.0604342,0.056884
991098845,-0.00280995,-0.0137782,-0.00334962,0.996483,-0.0115807,-0.0604344,0.0568839
991103849,-0.00446083,-0.0145822,-0.00125415,0.996482,-0.0115887,-0.0604384,0.0568844
991106793,-0.00066064,-0.0143868,0.00195834,0.996482,-0.011596,-0.0604402,0.056885
991111796,-0.00594487,-0.0141218,-0.00614868,0.996482,-0.0115909,-0.0604395,0.0568851
991114820,0.00329535,-0.0120968,-0.0018523,0.996482,-0.011589,-0.0604396,0.0568852
991118812,-7.70539e-05,-0.0111694,-0.0038967,0.996485,-0.0115942,-0.0604407,0.0568318
991121830,0.0016257,-0.0115657,-0.00246054,0.996486,-0.0115916,-0.0604359,0.0568304
991125947,-0.00544673,-0.0157422,-0.00162491,0.996486,-0.0115941,-0.0604397,0.0568271
991128802,-0.000224827,-0.0125608,-0.00305824,0.996485,-0.0115949,-0.0604413,0.056827
991132812,-0.00222108,-0.00939007,-0.00086266,0.996486,-0.011597,-0.0604376,0.0568266
991135920,0.00266074,-0.013793,-0.00311991,0.996485,-0.0115952,-0.0604386,0.0568303
991139861,-0.00231145,-0.0112148,-0.000588696,0.996486,-0.0115947,-0.0604326,0.0568305
991142876,0.00221561,-0.00568248,-0.00438133,0.996486,-0.0115913,-0.0604238,0.0568318
991146823,-0.00358783,-0.0150083,-0.00378555,0.996486,-0.0115899,-0.0604233,0.0568314
991149897,-0.00147046,-0.0118119,-0.00178063,0.996486,-0.0115937,-0.0604232,0.0568312
991153877,0.000485184,-0.0100013,-0.00634078,0.996486,-0.0115926,-0.0604224,0.0568322
991156846,-0.00256988,-0.0127103,-0.00443198,0.996486,-0.0115942,-0.0604186,0.0568332
991160907,-0.0036907,-0.013728,0.00110132,0.996486,-0.0115965,-0.0604193,0.056834
991163765,8.53566e-05,-0.0136029,-0.0035343,0.996486,-0.0115986,-0.0604166,0.0568339
991167867,-0.00519983,-0.0155223,-0.00151821,0.996486,-0.0116001,-0.0604209,0.0568334
991170841,-0.00230466,-0.0155244,-0.0043632,0.996486,-0.0116056,-0.0604255,0.0568326
991173830,0.000816053,-0.0112662,0.00104417,0.996486,-0.0116055,-0.0604277,0.0568325
991177816,-0.00286472,-0.0128024,-0.00142585,0.996486,-0.0116085,-0.0604189,0.0568335
991181806,-0.00295467,-0.0120621,-0.000321629,0.996486,-0.0116166,-0.0604216,0.0568339
991184867,0.00352241,-0.0110821,0.000659499,0.996486,-0.011611,-0.0604166,0.0568343
991188813,-0.00452684,-0.0137415,-0.00631784,0.996486,-0.0116105,-0.0604125,0.0568354
991191803,0.000553173,-0.0124984,-0.00535452,0.996486,-0.0116129,-0.0604142,0.0568376
991195793,0.000239299,-0.0105676,0.000547267,0.996486,-0.0116123,-0.0604182,0.0568412
991199043,0.00114997,-0.0108149,-0.000165794,0.996486,-0.0116113,-0.0604126,0.0568414
991202775,-0.000139547,-0.0171208,-0.00646177,0.996486,-0.0115999,-0.0604111,0.0568404
991205871,-0.00364568,-0.00627972,-0.00179699,0.996487,-0.0116054,-0.0604088,0.056837
991209849,0.000107585,-0.012382,-0.00100703,0.996487,-0.0116095,-0.0604101,0.0568368
991216814,-0.00500548,-0.0114419,-0.00194798,0.996486,-0.0116153,-0.0604152,0.0568369
991219845,0.000902295,-0.00741913,-0.000423634,0.996487,-0.0116145,-0.0604047,0.0568372
991220862,0.00133395,-0.00983797,0.00199589,0.996487,-0.0116143,-0.0604031,0.0568342
991226875,0.00130453,-0.0064975,-0.00460724,0.996489,-0.0116067,-0.0603915,0.0568103
991230830,-0.000471123,-0.0141687,-0.00424071,0.99649,-0.0116029,-0.0603818,0.0568107
991233874,0.000875633,-0.0115885,-0.00149818,0.99649,-0.0116043,-0.0603817,0.0568102
991237775,0.00155087,-0.0108343,-0.00492976,0.99649,-0.0115976,-0.0603762,0.0568117
991240918,0.0024892,-0.0103742,-0.000786882,0.996491,-0.0115926,-0.0603706,0.0568131
991243942,0.00397557,-0.0124525,0.000265744,0.996491,-0.011588,-0.0603702,0.0568133
991247931,0.000253783,-0.0100181,-0.00570482,0.996491,-0.0115839,-0.0603663,0.0568146
991251886,-0.000400876,-0.0129109,0.00287302,0.996491,-0.0115873,-0.0603688,0.0568152
991254915,-0.0031212,-0.0107924,-0.000717258,0.996491,-0.0115884,-0.0603647,0.0568152
991258861,-0.00224039,-0.0108712,0.000204215,0.996491,-0.0115907,-0.0603601,0.0568161
991262862,0.000919804,-0.010441,-0.000907811,0.996491,-0.0115888,-0.0603562,0.0568172
991265802,-0.000337171,-0.00835431,0.000905169,0.996491,-0.0115922,-0.0603543,0.0568179
991268799,-0.000343329,-0.0145908,0.00217993,0.996491,-0.0115927,-0.0603512,0.0568179
991272986,-0.00631399,-0.0120133,-0.00390851,0.996491,-0.0115931,-0.0603518,0.0568201
991275838,0.00124882,-0.0124794,-0.00320403,0.996491,-0.0115913,-0.0603523,0.0568252
991279824,0.00206497,-0.0130962,-0.000380171,0.996491,-0.0115861,-0.0603507,0.0568255
991282857,0.00221803,-0.00938474,-0.00216155,0.996491,-0.0115843,-0.0603483,0.0568293
991286833,-0.00458181,-0.0145857,-0.00780348,0.996491,-0.011586,-0.0603467,0.0568303
991289889,-0.00106076,-0.00995088,0.00247077,0.996491,-0.011586,-0.0603427,0.0568304
991292824,0.00566057,-0.0107911,0.00233268,0.996491,-0.0115846,-0.0603421,0.0568327
991295899,-0.00305692,-0.0174384,-0.00455727,0.996491,-0.0115829,-0.0603435,0.056835
991303799,0.00331499,-0.0164897,-0.00311402,0.996491,-0.0115865,-0.060344,0.0568344
991307795,-0.000165132,-0.00584556,-0.00539804,0.996492,-0.0115895,-0.0603367,0.0568326
991310781,-0.00361472,-0.0127946,0.000192028,0.996492,-0.0115891,-0.0603358,0.0568327
991314955,0.00292572,-0.00613094,-0.00201764,0.996492,-0.0115892,-0.060327,0.0568324
991317815,-0.00409073,-0.0133289,0.00124894,0.996492,-0.0115909,-0.0603253,0.0568307
991319881,-0.00489962,-0.0123328,-0.00122023,0.996492,-0.0115963,-0.0603246,0.0568304
991324877,0.000114755,-0.0121667,-0.00016826,0.996493,-0.0115927,-0.0603245,0.0568263
991328793,-0.00110637,-0.0127035,-0.00287783,0.996497,-0.0115993,-0.0603253,0.0567478
991331831,-0.00068158,-0.0088075,-0.00302416,0.996497,-0.0116029,-0.0603199,0.0567447
991335900,-0.00288174,-0.0134013,0.00244746,0.996497,-0.0116045,-0.060321,0.0567445
991338906,0.000548243,-0.01341,-0.00216056,0.996497,-0.0116042,-0.0603216,0.0567426
991342820,-0.00565522,-0.0104087,-0.00274054,0.996498,-0.0116094,-0.0603159,0.056738
991345844,-0.00016035,-0.0127363,-0.0033609,0.996498,-0.0116134,-0.0603146,0.0567319
991349854,0.00396237,-0.0129437,-0.00186056,0.996498,-0.0116106,-0.0603142,0.0567322
991352896,0.00306048,-0.00496798,0.00223651,0.996499,-0.0116053,-0.0603048,0.0567295
991356768,-0.00203372,-0.00826469,-0.00589734,0.996499,-0.0116046,-0.0602999,0.056728
991360835,-1.05565e-05,-0.0119231,-0.00108262,0.9965,-0.011603,-0.0602935,0.0567277
991363760,-0.00202563,-0.00805044,-0.00390101,0.9965,-0.0116082,-0.060288,0.0567276
991366928,-0.0020463,-0.0137065,0.0027616,0.9965,-0.0116072,-0.0602873,0.0567284
991369900,-0.0021955,-0.0154938,-0.00181227,0.9965,-0.0116071,-0.060288,0.0567284
991374735,0.0013926,-0.0159548,-0.00734272,0.9965,-0.01161,-0.0602978,0.0567262
991377844,-0.00312993,-0.0142391,-0.00351593,0.9965,-0.0116097,-0.0602968,0.0567231
991380945,0.00120105,-0.0093662,0.00297005,0.9965,-0.0116099,-0.0602964,0.0567239
991384792,0.00322081,-0.0133109,-0.00185604,0.9965,-0.0116136,-0.060297,0.0567237
991387832,-0.00124931,-0.0122377,-0.00290253,0.9965,-0.0116123,-0.0602938,0.0567274
991389919,7.5968e-05,-0.0182299,-0.00451091,0.9965,-0.0116113,-0.0602977,0.0567274
991391857,-0.00264726,-0.0151738,-0.0048831,0.996499,-0.0116124,-0.0603019,0.0567293
991395791,-0.00580551,-0.0146485,-0.00642414,0.996499,-0.0116207,-0.0603012,0.0567271
991400797,-0.00375933,-0.012802,-0.00712241,0.9965,-0.0116189,-0.0602982,0.0567273
991403800,0.00319971,-0.0111506,-0.00124987,0.9965,-0.0116166,-0.0602921,0.0567244
991407812,5.93858e-05,-0.0107775,-0.00387893,0.9965,-0.0116086,-0.0602909,0.0567245
991410792,-2.1073e-05,-0.0106294,-0.00276196,0.9965,-0.0116127,-0.0602883,0.0567243
991415865,-0.00229972,-0.0134285,-0.00385938,0.9965,-0.0116143,-0.0602839,0.0567344
991419776,-0.00431338,-0.00919576,0.00349518,0.9965,-0.0116207,-0.0602847,0.0567336
991422783,0.000478487,-0.0118731,-0.0057469,0.9965,-0.0116194,-0.0602805,0.0567333
991426876,0.00253008,-0.00743565,8.11042e-05,0.9965,-0.0116181,-0.0602768,0.0567356
991429782,-0.0026617,-0.0152686,-0.00832849,0.996501,-0.0116168,-0.0602709,0.0567358
991433774,-0.00172483,-0.0123992,-0.00400024,0.9965,-0.0116153,-0.0602756,0.0567352
991436888,-0.00295912,-0.0100273,0.00237995,0.996501,-0.011622,-0.0602698,0.0567319
991440913,0.00196493,-0.0121704,-0.00444336,0.996501,-0.0116202,-0.0602697,0.0567315
991443924,-0.00417925,-0.0136018,-0.00406325,0.996501,-0.0116206,-0.0602707,0.0567315
991447804,0.00103575,-0.0131388,-0.00344666,0.996501,-0.0116208,-0.0602681,0.056731
991450754,-0.00101014,-0.0110486,-0.00476768,0.996501,-0.0116178,-0.0602659,0.0567313
991454794,-0.00199802,-0.0141307,-0.00706639,0.996502,-0.0116165,-0.060263,0.0567257
991457939,-0.00115097,-0.0114116,0.00183228,0.996502,-0.0116243,-0.060263,0.0567181
991461811,-0.000812405,-0.0113613,-0.00185065,0.996502,-0.0116251,-0.060265,0.0567136
991464836,0.00178448,-0.0122766,-0.00699232,0.996502,-0.0116224,-0.0602621,0.0567137
991468859,0.000328627,-0.0125819,0.00137241,0.996503,-0.0116269,-0.0602619,0.0567105
991472828,-0.00097914,-0.0116129,0.00192481,0.996503,-0.0116236,-0.0602578,0.0567102
991475855,0.000746514,-0.0121099,-0.00596509,0.996503,-0.011623,-0.0602566,0.0567103
991478793,-0.0025089,-0.0107188,-0.000249898,0.996503,-0.0116229,-0.0602552,0.0567099
991482796,0.00557261,-0.0116496,-0.004042,0.996503,-0.0116189,-0.0602487,0.0567112
991485833,-0.000987814,-0.00949873,-0.000515022,0.996504,-0.0116182,-0.0602467,0.0567112
991489828,-9.98983e-05,-0.00891226,-0.00779613,0.996504,-0.0116163,-0.0602431,0.0567111
991492885,0.000149706,-0.0107487,-0.00110907,0.996504,-0.0116157,-0.0602384,0.0567081
991496830,0.00219745,-0.0123086,-0.00368648,0.996504,-0.011613,-0.0602373,0.0567066
991499862,0.00122836,-0.0119304,0.00170882,0.996505,-0.0116074,-0.0602341,0.056707
991503929,0.00295787,-0.0121452,0.000698811,0.996505,-0.0116065,-0.0602318,0.0567053
991506854,0.00211184,-0.0122938,-0.000543029,0.996505,-0.0115982,-0.0602285,0.0567067
991509861,-0.000613495,-0.0185891,-0.0025977,0.996505,-0.0115996,-0.0602342,0.0567065
991514824,0.00355493,-0.0116467,-0.00525191,0.996505,-0.0115989,-0.060234,0.0567101
991517836,-0.00209588,-0.0122355,0.00244079,0.996504,-0.0115998,-0.060237,0.056711
991520757,-0.00365659,-0.0105637,-0.00709315,0.996505,-0.0116019,-0.0602312,0.0567109
991524773,-0.00193083,-0.0144439,-0.00151293,0.996505,-0.0116001,-0.0602336,0.0567106
991527891,-0.0037554,-0.0112662,0.00176186,0.996505,-0.0116062,-0.060232,0.0567112
991529843,-0.000243172,-0.0124684,-0.00254595,0.996505,-0.0116081,-0.0602321,0.056711
991534861,8.67639e-05,-0.0127103,-0.000598597,0.996505,-0.0116066,-0.0602226,0.0567122
991538824,-0.00195822,-0.0114728,-0.000973443,0.996507,-0.0116123,-0.0602229,0.056683
991541757,-0.00204577,-0.0111466,-0.00500667,0.996507,-0.0116142,-0.0602208,0.0566813
991545813,0.00329854,-0.0113639,-4.95827e-05,0.996507,-0.0116106,-0.0602167,0.0566816
991548873,-0.00810896,-0.0154415,-0.0042727,0.996507,-0.0116189,-0.0602201,0.0566818
991552788,-0.0016422,-0.00944147,0.000915979,0.996507,-0.0116195,-0.0602175,0.0566827
991555801,-0.00759911,-0.014032,-0.00785771,0.996507,-0.0116275,-0.0602172,0.0566822
991559803,0.00022963,-0.0129613,-0.00419393,0.996507,-0.0116234,-0.0602168,0.0566807
991562841,0.000290133,-0.00945347,0.000983416,0.996507,-0.0116251,-0.0602155,0.0566761
991566903,-0.0051881,-0.016164,0.00139021,0.996507,-0.0116301,-0.0602188,0.0566753
991569870,0.00375123,-0.00689776,-0.00176146,0.996507,-0.0116322,-0.0602148,0.0566753
991573828,-0.00469361,-0.013183,-0.00643002,0.996508,-0.0116359,-0.0602102,0.056676
991576925,-0.00319079,-0.0114283,3.44198e-05,0.996508,-0.0116405,-0.0602111,0.0566739
991579841,-0.000215482,-0.0154173,-0.00289958,0.996508,-0.0116399,-0.0602111,0.0566739
991583846,0.00435366,-0.0149447,-0.00601728,0.996508,-0.0116358,-0.0602133,0.0566723
991587838,-0.00933025,-0.0151348,-0.00132776,0.996507,-0.0116467,-0.060221,0.0566697
991590808,0.00144562,-0.0109808,-0.000855999,0.996507,-0.0116492,-0.0602246,0.0566695
991595856,0.00123154,-0.0101006,-0.00704076,0.996508,-0.011648,-0.0602132,0.0566668
991600861,-0.00150194,-0.0100077,-0.00141549,0.996508,-0.0116488,-0.0602155,0.0566622
991604774,0.00195969,-0.0111246,-0.0013341,0.996508,-0.0116458,-0.0602112,0.056662
991607937,-0.00723277,-0.0142387,-0.00113437,0.996508,-0.0116533,-0.0602084,0.0566625
991610839,0.00148981,-0.0116673,-8.41236e-05,0.996508,-0.0116551,-0.06021,0.0566623
991614785,-0.00460222,-0.0147345,-0.00397554,0.996508,-0.0116651,-0.0602121,0.0566586
991618780,-0.00136601,-0.0140727,-0.00254092,0.996504,-0.0116619,-0.060213,0.0567368
991622931,-3.71747e-05,-0.00901661,-0.00264942,0.996504,-0.0116665,-0.0602114,0.0567361
991625879,-0.00885954,-0.00942047,0.00195627,0.996504,-0.0116771,-0.0602087,0.0567356
991629882,0.000598013,-0.0114411,-0.00436788,0.996504,-0.0116777,-0.0602087,0.0567351
991632757,-0.00197467,-0.0143854,0.00207887,0.996504,-0.0116768,-0.0602063,0.0567349
991636794,0.00375959,-0.011321,-0.00933657,0.996504,-0.0116768,-0.0602041,0.0567345
991639841,-0.000842301,-0.00608914,0.00183452,0.996504,-0.0116739,-0.0601987,0.0567348
991643824,0.000447562,-0.0132123,-0.00254325,0.996505,-0.0116706,-0.0601946,0.0567373
991646931,-0.00520488,-0.0133175,-0.00147535,0.996504,-0.0116729,-0.0601934,0.0567407
991650809,0.00171668,-0.0101768,0.000416287,0.996505,-0.011676,-0.0601871,0.0567407
991653854,0.00309393,-0.011087,0.000975671,0.996505,-0.0116746,-0.0601877,0.0567431
991657887,-0.00294651,-0.0109219,-0.00157433,0.996505,-0.0116736,-0.0601847,0.0567454
991660771,-0.00177363,-0.00870879,-0.00388888,0.996505,-0.0116779,-0.0601767,0.0567454
991664844,0.00100608,-0.00689529,-0.00455425,0.996505,-0.0116796,-0.0601698,0.0567478
991668877,-0.00137485,-0.0140211,-0.000292175,0.996505,-0.0116802,-0.0601708,0.0567473
991671779,0.00208964,-0.0112831,0.000408746,0.996505,-0.0116805,-0.0601692,0.0567456
991674805,0.00165449,-0.0137493,0.00179351,0.996506,-0.0116747,-0.0601676,0.056746
991678831,-0.00261768,-0.0128923,-0.00209301,0.996506,-0.0116791,-0.0601655,0.056744
991681846,0.00205683,-0.0103397,0.00130794,0.996506,-0.0116773,-0.0601633,0.0567439
991685797,0.00382131,-0.0185865,-0.00241822,0.996506,-0.0116756,-0.0601708,0.0567439
991687818,-0.00232035,-0.0112227,-0.00302278,0.996506,-0.0116751,-0.0601715,0.0567448
991690801,-0.000261744,-0.0120526,-0.0025829,0.996506,-0.0116761,-0.0601674,0.0567448
991694811,-0.00500746,-0.00821039,-0.00424911,0.996506,-0.0116848,-0.0601609,0.0567454
991698850,-0.00307469,-0.0116273,-0.00228756,0.996506,-0.0116888,-0.060159,0.0567461
991700827,-0.00391054,-0.0115104,0.00150215,0.996506,-0.0116934,-0.0601577,0.0567459
991704841,-0.00312228,-0.0145293,-0.00227359,0.996506,-0.0116952,-0.0601567,0.056748
991708832,0.00148975,-0.00902038,-0.00502849,0.996506,-0.0116955,-0.0601542,0.0567503
991720968,-0.00060908,-0.014534,-0.000586355,0.996506,-0.0116943,-0.0601379,0.0567627
991723830,-0.000771101,-0.011199,-0.00154152,0.996506,-0.0116975,-0.0601394,0.0567622
991727913,-0.00238026,-0.0123467,0.000617115,0.996507,-0.0116958,-0.0601336,0.0567621
991730828,-0.00167794,-0.00991929,0.00297338,0.996507,-0.0116997,-0.0601327,0.0567619
991734895,-0.00643043,-0.0129454,-0.00345182,0.996507,-0.0117075,-0.0601286,0.0567597
991737809,0.00020609,-0.0149373,-0.00635242,0.996507,-0.0117087,-0.0601294,0.0567579
991741846,-0.00211113,-0.0113406,-0.003377,0.996507,-0.0117129,-0.0601331,0.0567598
991744764,-0.000194952,-0.00986952,-0.00344554,0.996507,-0.0117093,-0.060125,0.0567602
991748807,0.00699751,-0.0126584,-0.000379525,0.996507,-0.0117034,-0.0601251,0.0567589
991751873,0.00233927,-0.0112531,-0.00385257,0.996508,-0.0116957,-0.0601255,0.0567538
991754899,-0.0033199,-0.0135745,0.000614652,0.996508,-0.0116984,-0.0601255,0.0567536
991758840,-0.00557316,-0.0139836,-0.00323154,0.996507,-0.0117087,-0.0601279,0.05675
991762851,7.81678e-05,-0.0148032,0.00240836,0.996507,-0.0117088,-0.0601301,0.0567496
991765855,-0.00451141,-0.0139448,-0.00778817,0.996507,-0.0117114,-0.060132,0.0567495
991769798,-0.000217465,-0.0130792,-0.00343462,0.996507,-0.0117147,-0.0601329,0.0567501
991772950,-0.00383377,-0.00886184,2.91886e-05,0.996507,-0.0117188,-0.0601265,0.0567521
991776944,0.00182816,-0.0149673,-0.00710367,0.996507,-0.0117129,-0.0601295,0.056756
991779874,-0.00240149,-0.0113879,-0.00505524,0.996507,-0.0117147,-0.0601295,0.056756
991783882,-0.00304365,-0.00783318,-0.00366299,0.996507,-0.0117172,-0.0601255,0.0567582
991786762,-0.000942734,-0.00997635,-0.000473834,0.996508,-0.0117197,-0.0601166,0.0567578
991788841,-0.00404125,-0.0155277,-0.00157762,0.996507,-0.0117229,-0.0601191,0.0567575
991791892,0.00224328,-0.0117565,0.00266278,0.996508,-0.0117236,-0.0601159,0.0567575
991795811,-0.00421508,-0.00757889,0.00170923,0.996508,-0.0117289,-0.0601134,0.056757
991797780,0.00495934,-0.0135236,-0.00106172,0.996508,-0.0117254,-0.0601117,0.0567581
991801875,-0.00891474,-0.017667,-0.00320186,0.996507,-0.0117323,-0.0601191,0.0567585
991804833,0.00363093,-0.0122081,-0.00484248,0.996507,-0.0117326,-0.0601193,0.0567586
991811944,-0.00091639,-0.0116634,-0.00316638,0.99651,-0.0117321,-0.0601132,0.056715
991814802,-0.00392932,-0.0115775,-0.00514175,0.99651,-0.0117343,-0.0601104,0.056715
991818872,-0.00507701,-0.0112889,0.00150489,0.99651,-0.0117412,-0.0601095,0.0567194
991821863,-0.00454997,-0.0141997,-0.00203098,0.99651,-0.0117476,-0.0601111,0.0567199
991825859,-0.000575557,-0.00939194,-0.00599637,0.99651,-0.0117499,-0.0601104,0.0567198
991828815,-0.00224617,-0.011223,-0.00470868,0.99651,-0.0117515,-0.0601064,0.0567168
991832783,0.000221633,-0.00734328,-0.00485967,0.996511,-0.0117507,-0.0601017,0.0567152
991835818,-0.00289687,-0.0151139,0.00108112,0.99651,-0.0117563,-0.0601027,0.0567149
991839789,0.00234164,-0.00939545,-0.00213463,0.99651,-0.011755,-0.0600996,0.0567185
991843757,-0.000181783,-0.0121714,-0.000509672,0.99651,-0.0117571,-0.0600977,0.0567233
991847007,-0.00178536,-0.00789136,-0.00408707,0.996511,-0.0117572,-0.060091,0.0567231
991849957,-0.00319676,-0.01599,0.00255144,0.996511,-0.0117626,-0.0600928,0.0567227
991853858,-0.00415906,-0.0139089,-0.000151976,0.99651,-0.0117653,-0.0600957,0.0567194
991856803,-0.00302735,-0.0162271,-0.000667537,0.99651,-0.011772,-0.0600989,0.0567211
991859770,0.000734219,-0.0132887,-0.00306988,0.99651,-0.0117716,-0.0600995,0.0567211
991863752,-0.00242633,-0.010929,0.00246518,0.99651,-0.0117766,-0.0601007,0.0567256
991867817,-0.00331561,-0.015188,-0.00385314,0.99651,-0.0117771,-0.060101,0.0567277
991870829,-0.00093604,-0.0133553,-0.00102808,0.996509,-0.0117783,-0.0601004,0.0567277
991874899,-0.000986572,-0.00974256,0.00281931,0.996509,-0.0117808,-0.0601045,0.0567269
991877948,0.00130547,-0.0116727,0.000801168,0.99651,-0.011779,-0.0600981,0.0567267
991881860,-0.000184293,-0.0123954,-0.00181418,0.996509,-0.0117838,-0.0601,0.0567287
991884711,-0.00345945,-0.0138926,-0.00153251,0.996509,-0.0117848,-0.0600986,0.0567285
991888789,-0.00142814,-0.0125754,-0.00127941,0.996509,-0.0117843,-0.0600996,0.0567281
991891952,0.00236338,-0.0112464,0.00145775,0.99651,-0.0117846,-0.0600974,0.0567237
991894869,0.00234165,-0.0102265,-0.00283596,0.99651,-0.0117789,-0.0600933,0.0567243
991899782,-0.000438255,-0.013021,-0.00684169,0.99651,-0.0117788,-0.0600914,0.0567212
991902805,-0.00175377,-0.0156681,0.000970394,0.99651,-0.0117782,-0.0600917,0.0567234
991905931,-0.00142426,-0.012436,-0.00433149,0.99651,-0.0117816,-0.060095,0.0567231
991909868,-0.00536823,-0.0113906,-0.000238305,0.99651,-0.0117857,-0.0600912,0.0567292
991912880,0.00382037,-0.0112731,-0.00223235,0.99651,-0.0117835,-0.0600893,0.0567328
991916910,0.000639781,-0.00993878,-0.000784222,0.99651,-0.0117802,-0.0600858,0.0567327
991919916,-0.00119781,-0.0112659,0.00045501,0.99651,-0.0117825,-0.0600844,0.0567326
991923815,0.00307195,-0.0101229,0.00118121,0.996511,-0.011782,-0.0600769,0.0567311
991926799,-0.00108093,-0.0146468,-0.00305842,0.996511,-0.0117798,-0.060077,0.0567308
991928884,0.00244571,-0.0101269,0.00101664,0.996511,-0.0117796,-0.060075,0.0567308
991937873,-0.00700311,-0.0191522,0.000111762,0.996512,-0.0117794,-0.0600763,0.0567147
991940852,5.18933e-06,-0.00881279,-0.00255604,0.996512,-0.0117778,-0.0600717,0.0567149
991944861,0.00137227,-0.00947265,-0.00288945,0.996512,-0.0117769,-0.0600696,0.0567132
991947833,8.00751e-06,-0.0051116,0.00253364,0.996513,-0.0117759,-0.0600576,0.0567172
991951809,0.00435958,-0.00956592,-0.00600125,0.996513,-0.0117675,-0.0600523,0.05672
991955786,-0.00360577,-0.0140221,-0.00303727,0.996513,-0.0117707,-0.0600512,0.0567198
991958811,-0.000397725,-0.0129061,-0.000874619,0.996513,-0.0117711,-0.0600506,0.0567166
991961847,-0.00149444,-0.00639154,-0.000490723,0.996514,-0.0117739,-0.0600454,0.0567148
991964844,-0.00173345,-0.0124468,0.00141692,0.996514,-0.0117756,-0.0600407,0.0567148
991968850,0.00483119,-0.0105377,-0.00181016,0.996514,-0.0117693,-0.0600383,0.0567135
991972851,0.000845238,-0.0137219,-0.00781235,0.996515,-0.0117659,-0.0600343,0.0567107
991976864,0.000540562,-0.0069497,-0.00228168,0.996515,-0.0117643,-0.0600316,0.0567091
991979852,-0.000577503,-0.0122558,0.00547614,0.996515,-0.0117638,-0.060024,0.0567093
991982803,-0.00407801,-0.0107779,0.000499938,0.996516,-0.011767,-0.0600227,0.0567073
991986798,0.00190596,-0.0116411,-0.000900771,0.996516,-0.0117722,-0.0600198,0.0567092
991989789,0.000629879,-0.012752,-0.00329358,0.996516,-0.0117684,-0.0600178,0.0567095
991992804,0.00416218,-0.00953329,0.00101999,0.996516,-0.0117655,-0.0600148,0.0567119
991995882,-0.0041245,-0.0096457,-0.00246506,0.996516,-0.0117666,-0.0600095,0.0567119
991999946,-0.000964127,-0.0145629,-0.00444944,0.996516,-0.011771,-0.0600107,0.0567099
992002822,-0.00079277,-0.0118919,0.000701431,0.996516,-0.0117715,-0.0600108,0.0567094
992006784,0.00193212,-0.0140663,8.3237e-05,0.996516,-0.0117681,-0.060014,0.0567096
992010819,0.00277159,-0.0113338,-0.000240826,0.996516,-0.0117669,-0.060016,0.0567105
992014825,0.0011779,-0.0109258,-0.00304277,0.996512,-0.0117581,-0.0600147,0.0567812
992017795,-0.00188044,-0.0168255,-0.00531851,0.996512,-0.0117588,-0.0600144,0.0567848
992021779,-0.00421552,-0.0127291,-0.00168703,0.996512,-0.011765,-0.0600162,0.0567844
992024888,0.000300917,-0.00976433,-0.000869745,0.996511,-0.0117649,-0.0600131,0.0567893
992028734,-0.00240805,-0.00934669,0.00324269,0.996511,-0.0117689,-0.0600111,0.0567912
992031868,-0.00227818,-0.0154422,-0.00235441,0.996511,-0.0117717,-0.0600095,0.0567934
992035872,-0.00325709,-0.0118388,-0.00365288,0.996511,-0.0117787,-0.0600102,0.056793
992038793,0.00414915,-0.00579084,-0.00027868,0.996512,-0.0117737,-0.0600013,0.0567945
992042810,-0.000736862,-0.0188221,-0.00227215,0.996512,-0.0117768,-0.0600038,0.0567912
992045780,0.00039415,-0.00773184,-7.28108e-06,0.996512,-0.011778,-0.0600024,0.0567912
992049781,4.1713e-05,-0.0103871,-0.00370304,0.996512,-0.0117737,-0.0599976,0.0567912
992052773,-0.00213583,-0.0115387,0.00100078,0.996512,-0.011775,-0.0599938,0.0567947
992056799,-0.00137316,-0.0139526,-0.00309078,0.996512,-0.011777,-0.0599962,0.0567942
992059872,-0.000440515,-0.0126406,-0.00235431,0.996512,-0.0117773,-0.059996,0.0567942
992063746,-0.00206724,-0.0161273,-0.00251853,0.996512,-0.0117833,-0.0599982,0.0567908
992066827,-0.00255392,-0.0133645,0.00225287,0.996512,-0.0117862,-0.0600026,0.05679
992070806,-0.00250143,-0.0106356,-0.0033819,0.996512,-0.0117885,-0.0600021,0.0567899
992073835,2.08095e-05,-0.0148565,-0.00289671,0.996512,-0.0117882,-0.0600021,0.0567909
992077821,-0.00533736,-0.0117122,-0.000236366,0.996512,-0.0117908,-0.0599963,0.0567906
992081816,-0.00031063,-0.0134209,-0.00357966,0.996512,-0.0117884,-0.0599991,0.0567902
992084763,-0.00348427,-0.0106649,0.000830158,0.996512,-0.0117932,-0.0599968,0.05679
992086830,-0.000361772,-0.00661094,0.00227255,0.996512,-0.0117957,-0.0599922,0.0567895
992091777,0.000941821,-0.0113419,0.000418419,0.996512,-0.0117935,-0.059991,0.0567896
992094828,0.00259644,-0.00973913,-0.00320789,0.996513,-0.0117925,-0.0599869,0.0567894
992098890,-0.00328391,-0.0169697,-0.00541236,0.996513,-0.0117934,-0.0599873,0.0567903
992099798,-0.00271314,-0.0143644,-0.00428864,0.996513,-0.0117944,-0.0599881,0.0567902
992105724,-0.00216034,-0.0140943,-0.000415316,0.996513,-0.0117896,-0.0599871,0.0567915
992107805,0.00153316,-0.0106748,-0.00432642,0.996513,-0.0117889,-0.0599855,0.0567913
992112821,-0.000632822,-0.00758849,0.000914541,0.996513,-0.0117861,-0.0599771,0.0567915
992115868,0.00239465,-0.00675076,0.000399753,0.996511,-0.0117797,-0.0599681,0.056842
992119788,0.00234661,-0.0124085,0.00294635,0.996511,-0.0117803,-0.0599638,0.0568402
992123846,-0.00280923,-0.0140976,-0.000825937,0.996511,-0.0117806,-0.0599628,0.0568412
992126813,-0.00158015,-0.0126658,-0.000254698,0.996511,-0.0117837,-0.0599635,0.0568407
992129822,-0.00199424,-0.00976918,-0.00193026,0.996512,-0.0117856,-0.0599594,0.0568406
992133830,-3.23625e-05,-0.0120091,-0.00300059,0.996512,-0.0117865,-0.0599531,0.0568392
992136897,0.00231519,-0.00896992,-0.00131555,0.996512,-0.0117838,-0.0599506,0.0568391
992140718,0.00219302,-0.013609,-0.0012794,0.996512,-0.011784,-0.0599521,0.056839
992143766,-0.0047226,-0.00955772,-0.00438269,0.996512,-0.0117857,-0.0599488,0.05684
992147877,-0.00116531,-0.0165832,-0.00351057,0.996512,-0.0117913,-0.0599514,0.0568393
992150828,0.00176617,-0.0127854,0.00138992,0.996512,-0.0117876,-0.0599529,0.0568394
992154782,-0.000904452,-0.00910157,0.00055011,0.996512,-0.0117901,-0.059951,0.0568364
992157820,-0.00261185,-0.0136472,-1.01998e-05,0.996512,-0.0117947,-0.0599492,0.0568345
992161893,-0.000868842,-0.0119007,0.00319929,0.996512,-0.0117935,-0.0599487,0.0568345
992164799,-0.000795424,-0.0196857,-0.00099974,0.996512,-0.0117951,-0.0599576,0.0568351
992168831,-0.00796693,-0.0132149,-0.00545281,0.996512,-0.0118064,-0.0599595,0.0568354
992171772,-0.000394025,-0.0138611,-0.00120681,0.996511,-0.0118048,-0.0599627,0.0568354
992175782,2.69525e-06,-0.0130949,-0.00217803,0.996512,-0.0118066,-0.0599527,0.0568366
992179790,-0.000742747,-0.00733499,0.000743677,0.996512,-0.0118075,-0.0599453,0.0568377
992182763,-0.00170226,-0.0141281,0.000343727,0.996512,-0.011806,-0.0599453,0.0568387
992185817,-0.00122833,-0.018292,-0.00350536,0.996512,-0.011809,-0.0599471,0.0568385
992189814,-0.000192132,-0.00991669,0.00105722,0.996512,-0.0118097,-0.0599472,0.0568381
992192819,0.00302745,-0.013104,-0.00206034,0.996512,-0.0118101,-0.0599495,0.0568377
992196833,-0.000229125,-0.00955625,-0.00292974,0.996513,-0.0118051,-0.0599419,0.0568381
992199801,0.000245132,-0.0101411,-0.00453827,0.996512,-0.0118049,-0.0599398,0.0568418
992203819,0.000222905,-0.0100427,-0.00111108,0.996512,-0.0118082,-0.0599348,0.0568466
992206906,-0.00124437,-0.00948839,0.00301025,0.996513,-0.0118092,-0.05993,0.0568467
992210814,-0.00364101,-0.0138866,-0.00207168,0.996513,-0.011813,-0.0599282,0.0568475
992213797,0.00222818,-0.0110863,-0.00591231,0.996513,-0.0118101,-0.0599271,0.0568486
992217781,-0.00253296,-0.0105323,-0.000821507,0.996513,-0.0118077,-0.0599255,0.0568511
992220813,-0.00549616,-0.0171088,-0.00467344,0.996513,-0.0118141,-0.0599261,0.0568507
992224984,-0.000608814,-0.0129042,-0.000591101,0.996513,-0.0118131,-0.0599235,0.0568491
992225734,-0.00180881,-0.0152113,-0.00114519,0.996513,-0.0118136,-0.0599244,0.0568491
992234826,-0.00232932,-0.0142889,-0.00420208,0.996517,-0.0118179,-0.0599229,0.0567848
992238826,-0.00581108,-0.0146289,-0.00267387,0.996517,-0.0118216,-0.05992,0.0567855
992241805,-0.000727191,-0.01248,-0.0045853,0.996516,-0.0118209,-0.0599225,0.0567855
992245901,-0.00370623,-0.0139637,4.57466e-06,0.996517,-0.0118254,-0.0599221,0.0567848
992248878,0.00480137,-0.00771654,0.00146622,0.996517,-0.011823,-0.0599182,0.0567846
992253015,-0.00336642,-0.0127834,-0.00499186,0.996516,-0.0118295,-0.0599193,0.0567865
992255849,-0.00262479,-0.0091852,-0.000887868,0.996517,-0.0118305,-0.0599156,0.0567865
992259839,-0.00551276,-0.0148777,-0.00147285,0.996517,-0.0118327,-0.0599134,0.05679
992262798,0.00317271,-0.0136181,-0.00381525,0.996517,-0.01183,-0.0599117,0.056791
992266778,0.00202531,-0.0131459,-0.00388304,0.996517,-0.0118279,-0.0599098,0.0567911
992269799,-1.28476e-05,-0.0110023,-0.00513591,0.996517,-0.0118241,-0.0599099,0.0567882
992273734,-0.00376754,-0.0139196,-0.00129743,0.996517,-0.0118286,-0.0599105,0.0567836
992276849,-0.006236,-0.0106699,-0.00041989,0.996517,-0.0118358,-0.0599085,0.0567831
992280911,0.0029655,-0.00825215,-0.0003815,0.996518,-0.0118366,-0.0599008,0.056779
992283869,0.00124578,-0.0104469,0.00187337,0.996518,-0.0118365,-0.0598975,0.0567759
992287939,-0.00209522,-0.0114828,6.68801e-05,0.996519,-0.0118363,-0.0598936,0.0567729
992290845,-0.00144565,-0.00993704,-0.000219654,0.996519,-0.0118375,-0.0598905,0.056773
992294853,-0.000177366,-0.0100785,-0.00233421,0.99652,-0.0118386,-0.0598846,0.05677
992298810,0.000432042,-0.0147526,0.00180686,0.996519,-0.011836,-0.0598876,0.0567684
992301810,-0.00496192,-0.0111052,-0.00351216,0.996519,-0.0118419,-0.0598861,0.056768
992304738,0.000129231,-0.0109242,-0.00192482,0.99652,-0.0118429,-0.0598852,0.0567676
992308723,0.00474555,-0.00683974,0.00384961,0.99652,-0.0118409,-0.05988,0.0567689
992311835,0.00167766,-0.0128485,-0.000771778,0.99652,-0.0118366,-0.0598761,0.0567691
992315924,-0.00218086,-0.01285,-0.00167365,0.99652,-0.0118352,-0.0598767,0.0567675
992318863,-0.000338753,-0.0114627,-1.59703e-05,0.99652,-0.011835,-0.0598717,0.0567672
992322867,0.00357444,-0.0100001,-0.00560568,0.99652,-0.011836,-0.059871,0.0567707
992325805,-0.000889685,-0.00610941,-0.00219769,0.996521,-0.0118329,-0.0598623,0.0567711
992329798,-0.00283927,-0.0120784,0.00156526,0.996521,-0.0118367,-0.0598595,0.0567732
992331849,-0.000135357,-0.0130321,-0.00268071,0.996521,-0.011837,-0.0598595,0.0567731
992339787,-0.00427008,-0.0114473,-0.000172754,0.99652,-0.0118376,-0.0598572,0.0567973
992342742,-0.00292205,-0.015233,0.00240804,0.99652,-0.0118409,-0.0598603,0.0567941
992346842,0.00189679,-0.00909956,-0.003516,0.99652,-0.0118397,-0.0598605,0.0567941
992350851,-0.00367472,-0.0141529,-0.00342618,0.99652,-0.0118452,-0.0598573,0.0567908
992353804,-0.00640058,-0.0123908,-0.000843606,0.99652,-0.0118511,-0.0598576,0.0567887
992357850,0.00117711,-0.0111968,0.00470854,0.99652,-0.0118542,-0.0598554,0.0567882
992360821,-0.00332858,-0.00881018,-0.00312427,0.99652,-0.0118575,-0.0598503,0.056788
992364818,0.00143505,-0.00970718,-0.00454999,0.99652,-0.0118491,-0.059847,0.0567909
992368802,-0.00391037,-0.00938969,0.0038858,0.99652,-0.0118574,-0.0598434,0.0567942
992370957,0.000743872,-0.0119704,0.00637431,0.99652,-0.0118582,-0.059841,0.0567941
992375799,-0.00329599,-0.0159821,-0.000781673,0.99652,-0.0118587,-0.0598416,0.056795
992378829,-0.00291475,-0.0172355,-0.00286952,0.99652,-0.0118624,-0.059848,0.0567942
992382815,-0.000175805,-0.0106789,-0.000657586,0.99652,-0.011865,-0.0598533,0.0567963
992385865,0.00189964,-0.00921853,-0.000373355,0.99652,-0.0118617,-0.0598492,0.0567966
992388787,0.00253461,-0.0138641,-0.00466248,0.99652,-0.0118584,-0.0598492,0.0567991
992392974,-0.000939411,-0.0142569,0.00346069,0.99652,-0.0118589,-0.0598497,0.0568
992395807,-0.00040413,-0.0134494,-0.00335054,0.99652,-0.0118582,-0.0598497,0.0568001
992399803,0.00490942,-0.0101241,-0.00277065,0.996519,-0.0118581,-0.0598533,0.0568023
992402903,-0.00436853,-0.010524,-0.00112074,0.99652,-0.0118577,-0.0598467,0.0568036
992405852,0.00649638,-0.0109912,-0.000930043,0.99652,-0.0118527,-0.0598444,0.0568039
992409872,0.00120096,-0.00761704,-0.00449351,0.99652,-0.0118526,-0.0598362,0.0568038
992412818,-0.000619556,-0.0120448,-0.000187565,0.99652,-0.0118524,-0.0598327,0.0568049
992416796,-0.00197033,-0.00906362,-0.00235195,0.996521,-0.0118568,-0.0598263,0.0568048
992420762,-0.000424364,-0.0112598,-0.00188754,0.996521,-0.0118595,-0.0598264,0.0568029
992423895,0.00485248,-0.0102069,-0.00289624,0.996521,-0.0118554,-0.0598246,0.0567988
992427817,-0.00318628,-0.0135288,0.00092687,0.996522,-0.0118545,-0.0598206,0.0567946
992430817,0.00398098,-0.0105188,-0.00452642,0.996522,-0.0118515,-0.0598211,0.0567948
992434853,-0.000253959,-0.0101977,0.00379076,0.99652,-0.011846,-0.0598131,0.056825
992437902,-0.00267794,-0.0145934,-0.00183181,0.996521,-0.0118469,-0.0598109,0.0568259
992441823,-0.00125685,-0.0105081,-0.00327016,0.99652,-0.0118563,-0.0598177,0.0568252
992444831,-0.00355335,-0.0136485,-0.000715234,0.99652,-0.0118593,-0.0598182,0.0568247
992448817,0.000414253,-0.00988438,0.00160505,0.99652,-0.0118553,-0.0598145,0.0568233
992451786,-0.00257464,-0.0127111,0.00218426,0.99652,-0.0118588,-0.0598149,0.0568231
992455937,-0.00210189,-0.0148948,-0.00581064,0.99652,-0.0118652,-0.0598169,0.0568224
992458857,-0.00117764,-0.0110286,-0.00192164,0.99652,-0.011864,-0.0598145,0.0568249
992462848,0.000332386,-0.013852,0.00182448,0.99652,-0.011862,-0.0598191,0.0568272
992465792,0.000526076,-0.0145532,-0.0051005,0.99652,-0.0118584,-0.0598186,0.0568274
992469855,0.00177547,-0.011004,-0.00213592,0.99652,-0.0118604,-0.0598201,0.0568282
992472803,-0.00576841,-0.0186542,-0.00599721,0.996519,-0.0118641,-0.0598294,0.0568288
992475786,-0.00315795,-0.00736301,-0.00395273,0.996519,-0.0118712,-0.0598265,0.0568285
992479912,6.0753e-05,-0.0121621,-0.00499857,0.996519,-0.0118695,-0.0598215,0.0568296
992483812,-0.00177768,-0.0159114,-0.000646907,0.996519,-0.0118733,-0.0598234,0.056829
992486799,0.000417125,-0.0134871,-0.000366937,0.996519,-0.0118703,-0.0598267,0.0568291
992490808,0.00135286,-0.0125924,-0.00342758,0.996519,-0.0118701,-0.059825,0.0568289
992494797,-0.00107179,-0.0114898,-0.00192883,0.996519,-0.0118747,-0.0598253,0.0568283
992497927,-0.00156563,-0.0133642,-0.000157967,0.996519,-0.0118742,-0.059827,0.0568279
992500818,0.000674598,-0.0117184,-0.00483277,0.996519,-0.0118745,-0.0598262,0.0568279
992504892,-0.00196404,-0.01172,-0.000734553,0.996519,-0.0118741,-0.0598203,0.0568317
992507850,0.00222786,-0.00994935,-0.00261701,0.99652,-0.01187,-0.0598163,0.056833
992511868,-0.000504077,-0.0080706,-0.00108586,0.99652,-0.0118699,-0.0598082,0.0568332
992514812,-0.00476002,-0.0233807,-0.0044729,0.99652,-0.0118744,-0.059817,0.0568298
992518827,0.00117207,-0.00930749,-0.0008483,0.99652,-0.0118724,-0.0598128,0.0568283
992521862,0.00125408,-0.0155715,-0.00138533,0.99652,-0.0118695,-0.059811,0.0568285
992524797,-0.00187469,-0.0112701,-0.0009171,0.99652,-0.0118724,-0.0598137,0.0568278
992528913,-0.00540763,-0.0101098,-0.00533269,0.99652,-0.011877,-0.0598067,0.05683
992530813,-0.00123277,-0.0120902,0.00198414,0.99652,-0.0118788,-0.0598049,0.0568299
992539876,-0.000508125,-0.0126844,0.00220224,0.996525,-0.0118814,-0.0598008,0.0567488
992542778,0.00120974,-0.013706,-0.00632759,0.996525,-0.0118817,-0.0598046,0.0567471
992546987,-0.00147513,-0.0160701,0.001643,0.996525,-0.0118817,-0.0598054,0.056747
992549873,0.000722932,-0.0113312,-0.00140735,0.996525,-0.0118837,-0.0598056,0.0567465
992553798,0.00100323,-0.0115946,-0.00425592,0.996525,-0.0118872,-0.0598086,0.0567445
992556942,-0.00244089,-0.00950701,0.00192719,0.996525,-0.0118856,-0.0598007,0.0567447
992560803,0.00255931,-0.0112057,-0.00341468,0.996526,-0.0118812,-0.0597978,0.0567433
992563864,-0.00222663,-0.0142208,0.000194576,0.996525,-0.011882,-0.0598002,0.0567442
992567938,0.000724117,-0.0106021,-0.00549789,0.996526,-0.0118804,-0.0597947,0.056744
992569786,-0.00315413,-0.0151518,-0.00169246,0.996526,-0.0118816,-0.0597954,0.0567439
992574931,-0.00205345,-0.0144737,-0.00390393,0.996526,-0.0118834,-0.0597961,0.0567447
992578052,-0.000917275,-0.0119843,-0.00183424,0.996526,-0.0118835,-0.0597941,0.056747
992580769,-0.000444643,-0.00986419,-0.00353628,0.996526,-0.011883,-0.0597922,0.0567471
992584824,0.000793645,-0.0138793,-0.004395,0.996526,-0.0118823,-0.0597897,0.0567467
992586888,-0.000165798,-0.0166807,0.00178218,0.996526,-0.0118817,-0.0597938,0.0567467
992590894,-0.00171233,-0.0121333,-0.00162238,0.996526,-0.0118838,-0.059793,0.0567462
992594875,-0.00187316,-0.0126014,-0.00256353,0.996526,-0.0118867,-0.0597917,0.0567468
992597782,-5.89667e-05,-0.0125241,-0.00101177,0.996526,-0.0118899,-0.0597921,0.0567488
992601933,-0.00368147,-0.0118756,-0.00303652,0.996526,-0.0118902,-0.0597878,0.0567489
992605878,-0.00403834,-0.0183993,1.85659e-05,0.996526,-0.0118937,-0.0597882,0.0567509
992608801,0.00052754,-0.00761752,-0.00260711,0.996526,-0.0118928,-0.0597865,0.0567506
992612880,-0.00255194,-0.00911701,-0.000490924,0.996525,-0.0118895,-0.0597797,0.0567725
992616793,-0.000419054,-0.0141435,3.21865e-05,0.996525,-0.0118844,-0.0597761,0.0567729
992620790,-0.00324144,-0.00977533,-0.00125198,0.996526,-0.01189,-0.0597696,0.0567709
992623936,0.00190957,-0.0108831,0.00299138,0.996526,-0.0118917,-0.0597672,0.0567719
992627805,-0.00502838,-0.0107931,-0.000647816,0.996526,-0.0118922,-0.0597625,0.0567716
992630872,0.00494357,-0.00888404,0.00101205,0.996526,-0.0118916,-0.0597589,0.0567716
992633812,-0.00315389,-0.0146182,-0.00396438,0.996527,-0.0118924,-0.0597546,0.0567699
992637899,-0.000278681,-0.0102882,0.00030226,0.996527,-0.0118928,-0.059754,0.0567708
992640915,0.00158993,-0.00809192,0.000371015,0.996527,-0.0118922,-0.0597493,0.056771
992644790,-0.00349464,-0.0119278,-0.00055225,0.996527,-0.0118957,-0.0597452,0.0567704
992647766,0.00225087,-0.0103401,-0.000856067,0.996527,-0.0118933,-0.059741,0.0567717
992650832,-0.000254326,-0.0111006,-0.00442601,0.996527,-0.0118914,-0.0597383,0.0567718
992654785,-0.000419222,-0.0135976,-0.00246863,0.996527,-0.0118923,-0.0597427,0.0567739
992658821,-0.00281203,-0.011375,-0.000612959,0.996527,-0.0118922,-0.0597418,0.0567736
992660899,0.000942341,-0.00915046,-0.00282715,0.996527,-0.011892,-0.0597382,0.0567737
992665866,-0.00344198,-0.00849821,-0.00576732,0.996527,-0.0118958,-0.059736,0.056773
992668813,-0.000230747,-0.0168459,-0.00496597,0.996527,-0.0118941,-0.0597371,0.0567726
992672823,-0.00553417,-0.0119681,-0.00133223,0.996527,-0.0118959,-0.059737,0.0567707
992675736,-0.00323926,-0.0117372,-0.00371234,0.996527,-0.0119021,-0.0597401,0.0567704
992679737,-0.00100286,-0.0163665,-0.00443264,0.996527,-0.0119021,-0.0597373,0.0567688
992682878,-0.00105349,-0.0104922,-0.00141933,0.996528,-0.0119027,-0.0597358,0.056767
992686793,-0.00331942,-0.014088,-0.00155907,0.996528,-0.0119055,-0.0597362,0.0567668
992689932,0.000494373,-0.0118721,0.000139209,0.996528,-0.0119068,-0.0597358,0.056765
992693763,-0.00826647,-0.0150069,9.24561e-05,0.996528,-0.0119115,-0.0597352,0.0567656
992697833,0.00747258,-0.00955482,-4.09018e-05,0.996528,-0.0119102,-0.0597294,0.0567706
992700937,-0.00136658,-0.0126713,-0.0015354,0.996528,-0.0119079,-0.0597275,0.0567708
992703905,0.00012341,-0.0153791,-0.00107069,0.996528,-0.0119068,-0.0597308,0.0567757
992707851,-0.000953464,-0.0125642,-0.00255438,0.996527,-0.0119084,-0.0597305,0.0567765
992710809,-0.00273689,-0.0107189,-0.00150049,0.996527,-0.0119117,-0.0597285,0.0567763
992714802,-0.0011445,-0.0106754,0.00229202,0.996528,-0.0119063,-0.0597231,0.0567751
992717846,0.00190917,-0.0113957,-0.00312943,0.996528,-0.0119068,-0.0597208,0.0567735
992721787,-9.18424e-05,-0.00966468,-0.00177587,0.996529,-0.0119092,-0.0597151,0.0567735
992725794,-0.00183254,-0.00732733,0.000270396,0.996529,-0.0119133,-0.0597057,0.0567744
