timestamp,ref_timestamp,ref_lat,ref_lon,surface_bottom_timestamp,x,y,z,delta_xy[0],delta_xy[1],delta_z,vx,vy,vz,delta_vxy[0],delta_vxy[1],delta_vz,ax,ay,az,yaw,ref_alt,dist_bottom,dist_bottom_rate,eph,epv,estimator_type,xy_valid,z_valid,v_xy_valid,v_z_valid,xy_reset_counter,z_reset_counter,vxy_reset_counter,vz_reset_counter,xy_global,z_global,dist_bottom_valid
990234407,0,0.0,0.0,0,-5.35942,1.04766,1.43364,0.0,0.0,0.0,-0.0188204,0.00735679,-0.00723121,0.0,0.0,0.0,0.0,0.0,0.0,0.115978,0.0,0.0,0.0,0.0,0.0,0,1,1,1,1,0,0,0,0,0,0,0
990239374,0,0.0,0.0,0,-5.35951,1.0477,1.4336,0.0,0.0,0.0,-0.0192779,0.00749914,-0.00729312,0.0,0.0,0.0,0.0,0.0,0.0,0.11598,0.0,0.0,0.0,0.0,0.0,0,1,1,1,1,0,0,0,0,0,0,0
990239374,0,0.0,0.0,0,-5.35951,1.0477,1.4336,0.0,0.0,0.0,-0.0192779,0.00749914,-0.00729312,0.0,0.0,0.0,0.0,0.0,0.0,0.11598,0.0,0.0,0.0,0.0,0.0,0,1,1,1,1,0,0,0,0,0,0,0
990244370,0,0.0,0.0,0,-5.35961,1.04773,1.43356,0.0,0.0,0.0,-0.0197956,0.00767449,-0.0073584,0.0,0.0,0.0,0.0,0.0,0.0,0.115985,0.0,0.0,0.0,0.0,0.0,0,1,1,1,1,0,0,0,0,0,0,0
990249429,0,0.0,0.0,0,-5.35971,1.04777,1.43352,0.0,0.0,0.0,-0.0203009,0.00783439,-0.00749869,0.0,0.0,0.0,0.0,0.0,0.0,0.11599,0.0,0.0,0.0,0.0,0.0,0,1,1,1,1,0,0,0,0,0,0,0
990254482,0,0.0,0.0,0,-5.35982,1.04781,1.43349,0.0,0.0,0.0,-0.0209221,0.00805625,-0.00764962,0.0,0.0,0.0,0.0,0.0,0.0,0.115987,0.0,0.0,0.0,0.0,0.0,0,1,1,1,1,0,0,0,0,0,0,0
990259444,0,0.0,0.0,0,-5.35993,1.04786,1.43345,0.0,0.0,0.0,-0.0215633,0.00824301,-0.00783074,0.0,0.0,0.0,0.0,0.0,0.0,0.115987,0.0,0.0,0.0,0.0,0.0,0,1,1,1,1,0,0,0,0,0,0,0
990264475,0,0.0,0.0,0,-5.36004,1.0479,1.43341,0.0,0.0,0.0,-0.0221959,0.00832186,-0.00806472,0.0,0.0,0.0,0.0,0.0,0.0,0.115992,0.0,0.0,0.0,0.0,0.0,0,1,1,1,1,0,0,0,0,0,0,0
990269966,0,0.0,0.0,0,-5.36015,1.04794,1.43336,0.0,0.0,0.0,-0.0227395,0.00842206,-0.00836846,0.0,0.0,0.0,0.0,0.0,0.0,0.115994,0.0,0.0,0.0,0.0,0.0,0,1,1,1,1,0,0,0,0,0,0,0
990274462,0,0.0,0.0,0,-5.36027,1.04798,1.43332,0.0,0.0,0.0,-0.0232588,0.00870934,-0.00846809,0.0,0.0,0.0,0.0,0.0,0.0,0.115996,0.0,0.0,0.0,0.0,0.0,0,1,1,1,1,0,0,0,0,0,0,0
990284619,0,0.0,0.0,0,-5.36051,1.04807,1.43324,0.0,0.0,0.0,-0.0243296,0.00913672,-0.00861943,0.0,0.0,0.0,0.0,0.0,0.0,0.115993,0.0,0.0,0.0,0.0,0.0,0,1,1,1,1,0,0,0,0,0,0,0
990289640,0,0.0,0.0,0,-5.36063,1.04812,1.43319,0.0,0.0,0.0,-0.0248863,0.00937669,-0.00868541,0.0,0.0,0.0,0.0,0.0,0.0,0.11599,0.0,0.0,0.0,0.0,0.0,0,1,1,1,1,0,0,0,0,0,0,0
990294505,0,0.0,0.0,0,-5.36076,1.04817,1.43315,0.0,0.0,0.0,-0.0253009,0.00956986,-0.00873769,0.0,0.0,0.0,0.0,0.0,0.0,0.115992,0.0,0.0,0.0,0.0,0.0,0,1,1,1,1,0,0,0,0,0,0,0
990300064,0,0.0,0.0,0,-5.36089,1.04822,1.4331,0.0,0.0,0.0,-0.0256062,0.00958766,-0.00879601,0.0,0.0,0.0,0.0,0.0,0.0,0.116002,0.0,0.0,0.0,0.0,0.0,0,1,1,1,1,0,0,0,0,0,0,0
990304528,0,0.0,0.0,0,-5.36102,1.04826,1.43306,0.0,0.0,0.0,-0.0260408,0.00960522,-0.00890663,0.0,0.0,0.0,0.0,0.0,0.0,0.116013,0.0,0.0,0.0,0.0,0.0,0,1,1,1,1,0,0,0,0,0,0,0
990309509,0,0.0,0.0,0,-5.36115,1.04831,1.43301,0.0,0.0,0.0,-0.0265643,0.00968774,-0.00905631,0.0,0.0,0.0,0.0,0.0,0.0,0.116017,0.0,0.0,0.0,0.0,0.0,0,1,1,1,1,0,0,0,0,0,0,0
990314575,0,0.0,0.0,0,-5.35939,1.04769,1.43381,0.0,0.0,0.0,-0.0165024,0.00669263,-0.00522342,0.0,0.0,0.0,0.0,0.0,0.0,0.115949,0.0,0.0,0.0,0.0,0.0,0,1,1,1,1,0,0,0,0,0,0,0
990319518,0,0.0,0.0,0,-5.35947,1.04773,1.43378,0.0,0.0,0.0,-0.01703,0.00682047,-0.00549842,0.0,0.0,0.0,0.0,0.0,0.0,0.115951,0.0,0.0,0.0,0.0,0.0,0,1,1,1,1,0,0,0,0,0,0,0
990324508,0,0.0,0.0,0,-5.35956,1.04776,1.43375,0.0,0.0,0.0,-0.017513,0.00701505,-0.00572477,0.0,0.0,0.0,0.0,0.0,0.0,0.115961,0.0,0.0,0.0,0.0,0.0,0,1,1,1,1,0,0,0,0,0,0,0
990329569,0,0.0,0.0,0,-5.35965,1.0478,1.43372,0.0,0.0,0.0,-0.0180389,0.00723854,-0.00587581,0.0,0.0,0.0,0.0,0.0,0.0,0.115968,0.0,0.0,0.0,0.0,0.0,0,1,1,1,1,0,0,0,0,0,0,0
990334566,0,0.0,0.0,0,-5.35974,1.04784,1.43369,0.0,0.0,0.0,-0.0186306,0.00739331,-0.00588136,0.0,0.0,0.0,0.0,0.0,0.0,0.115973,0.0,0.0,0.0,0.0,0.0,0,1,1,1,1,0,0,0,0,0,0,0
990339877,0,0.0,0.0,0,-5.35984,1.04787,1.43366,0.0,0.0,0.0,-0.0191633,0.00748198,-0.0059656,0.0,0.0,0.0,0.0,0.0,0.0,0.115975,0.0,0.0,0.0,0.0,0.0,0,1,1,1,1,0,0,0,0,0,0,0
990344532,0,0.0,0.0,0,-5.35994,1.04791,1.43363,0.0,0.0,0.0,-0.0196211,0.00768878,-0.00621651,0.0,0.0,0.0,0.0,0.0,0.0,0.115975,0.0,0.0,0.0,0.0,0.0,0,1,1,1,1,0,0,0,0,0,0,0
990349577,0,0.0,0.0,0,-5.36004,1.04795,1.4336,0.0,0.0,0.0,-0.0201388,0.00789672,-0.00643446,0.0,0.0,0.0,0.0,0.0,0.0,0.115977,0.0,0.0,0.0,0.0,0.0,0,1,1,1,1,0,0,0,0,0,0,0
990354529,0,0.0,0.0,0,-5.36014,1.04799,1.43357,0.0,0.0,0.0,-0.0207344,0.00809152,-0.00662262,0.0,0.0,0.0,0.0,0.0,0.0,0.115977,0.0,0.0,0.0,0.0,0.0,0,1,1,1,1,0,0,0,0,0,0,0
990359581,0,0.0,0.0,0,-5.36025,1.04803,1.43353,0.0,0.0,0.0,-0.0212655,0.00827628,-0.00689499,0.0,0.0,0.0,0.0,0.0,0.0,0.115974,0.0,0.0,0.0,0.0,0.0,0,1,1,1,1,0,0,0,0,0,0,0
990364528,0,0.0,0.0,0,-5.36036,1.04808,1.43349,0.0,0.0,0.0,-0.0217333,0.00856418,-0.00719115,0.0,0.0,0.0,0.0,0.0,0.0,0.115974,0.0,0.0,0.0,0.0,0.0,0,1,1,1,1,0,0,0,0,0,0,0
990369768,0,0.0,0.0,0,-5.36047,1.04812,1.43346,0.0,0.0,0.0,-0.0222681,0.00882678,-0.00733902,0.0,0.0,0.0,0.0,0.0,0.0,0.115973,0.0,0.0,0.0,0.0,0.0,0,1,1,1,1,0,0,0,0,0,0,0
990374781,0,0.0,0.0,0,-5.36058,1.04817,1.43342,0.0,0.0,0.0,-0.0228624,0.00894913,-0.00753725,0.0,0.0,0.0,0.0,0.0,0.0,0.115967,0.0,0.0,0.0,0.0,0.0,0,1,1,1,1,0,0,0,0,0,0,0
990379666,0,0.0,0.0,0,-5.3607,1.04821,1.43338,0.0,0.0,0.0,-0.0234938,0.0090526,-0.00767482,0.0,0.0,0.0,0.0,0.0,0.0,0.115962,0.0,0.0,0.0,0.0,0.0,0,1,1,1,1,0,0,0,0,0,0,0
990384624,0,0.0,0.0,0,-5.36082,1.04826,1.43334,0.0,0.0,0.0,-0.0241227,0.00922895,-0.00779459,0.0,0.0,0.0,0.0,0.0,0.0,0.115961,0.0,0.0,0.0,0.0,0.0,0,1,1,1,1,0,0,0,0,0,0,0
990394753,0,0.0,0.0,0,-5.36107,1.04835,1.43326,0.0,0.0,0.0,-0.0252702,0.00990046,-0.00797748,0.0,0.0,0.0,0.0,0.0,0.0,0.115952,0.0,0.0,0.0,0.0,0.0,0,1,1,1,1,0,0,0,0,0,0,0
990404669,0,0.0,0.0,0,-5.36133,1.04846,1.43318,0.0,0.0,0.0,-0.0262193,0.0105792,-0.00825994,0.0,0.0,0.0,0.0,0.0,0.0,0.115959,0.0,0.0,0.0,0.0,0.0,0,1,1,1,1,0,0,0,0,0,0,0
990409956,0,0.0,0.0,0,-5.35984,1.0479,1.43486,0.0,0.0,0.0,-0.0168684,0.00789503,-0.0025699,0.0,0.0,0.0,0.0,0.0,0.0,0.115963,0.0,0.0,0.0,0.0,0.0,0,1,1,1,1,0,0,0,0,0,0,0
990414644,0,0.0,0.0,0,-5.35993,1.04795,1.43484,0.0,0.0,0.0,-0.017478,0.0080847,-0.00263238,0.0,0.0,0.0,0.0,0.0,0.0,0.115965,0.0,0.0,0.0,0.0,0.0,0,1,1,1,1,0,0,0,0,0,0,0
990419688,0,0.0,0.0,0,-5.36002,1.04799,1.43483,0.0,0.0,0.0,-0.0180448,0.00834654,-0.00273712,0.0,0.0,0.0,0.0,0.0,0.0,0.115962,0.0,0.0,0.0,0.0,0.0,0,1,1,1,1,0,0,0,0,0,0,0
990424624,0,0.0,0.0,0,-5.36011,1.04803,1.43482,0.0,0.0,0.0,-0.0186613,0.00861253,-0.00291985,0.0,0.0,0.0,0.0,0.0,0.0,0.115962,0.0,0.0,0.0,0.0,0.0,0,1,1,1,1,0,0,0,0,0,0,0
990429681,0,0.0,0.0,0,-5.36021,1.04807,1.4348,0.0,0.0,0.0,-0.019221,0.00877674,-0.00311718,0.0,0.0,0.0,0.0,0.0,0.0,0.115964,0.0,0.0,0.0,0.0,0.0,0,1,1,1,1,0,0,0,0,0,0,0
990434659,0,0.0,0.0,0,-5.36031,1.04812,1.43478,0.0,0.0,0.0,-0.0197353,0.00896195,-0.00334768,0.0,0.0,0.0,0.0,0.0,0.0,0.115969,0.0,0.0,0.0,0.0,0.0,0,1,1,1,1,0,0,0,0,0,0,0
990439650,0,0.0,0.0,0,-5.36041,1.04816,1.43477,0.0,0.0,0.0,-0.0203315,0.00915187,-0.00367513,0.0,0.0,0.0,0.0,0.0,0.0,0.115973,0.0,0.0,0.0,0.0,0.0,0,1,1,1,1,0,0,0,0,0,0,0
990444714,0,0.0,0.0,0,-5.36051,1.04821,1.43475,0.0,0.0,0.0,-0.0209002,0.00935527,-0.00391665,0.0,0.0,0.0,0.0,0.0,0.0,0.115976,0.0,0.0,0.0,0.0,0.0,0,1,1,1,1,0,0,0,0,0,0,0
990449671,0,0.0,0.0,0,-5.36062,1.04826,1.43473,0.0,0.0,0.0,-0.0214868,0.00954597,-0.00409428,0.0,0.0,0.0,0.0,0.0,0.0,0.115978,0.0,0.0,0.0,0.0,0.0,0,1,1,1,1,0,0,0,0,0,0,0
990454690,0,0.0,0.0,0,-5.36073,1.04831,1.4347,0.0,0.0,0.0,-0.0220966,0.00976253,-0.00424825,0.0,0.0,0.0,0.0,0.0,0.0,0.115977,0.0,0.0,0.0,0.0,0.0,0,1,1,1,1,0,0,0,0,0,0,0
990459680,0,0.0,0.0,0,-5.36085,1.04836,1.43468,0.0,0.0,0.0,-0.0226957,0.00989196,-0.00440814,0.0,0.0,0.0,0.0,0.0,0.0,0.11598,0.0,0.0,0.0,0.0,0.0,0,1,1,1,1,0,0,0,0,0,0,0
990464677,0,0.0,0.0,0,-5.36096,1.04841,1.43466,0.0,0.0,0.0,-0.0233477,0.0100222,-0.00459059,0.0,0.0,0.0,0.0,0.0,0.0,0.115985,0.0,0.0,0.0,0.0,0.0,0,1,1,1,1,0,0,0,0,0,0,0
990469876,0,0.0,0.0,0,-5.36108,1.04846,1.43464,0.0,0.0,0.0,-0.0240029,0.0101485,-0.00474522,0.0,0.0,0.0,0.0,0.0,0.0,0.11599,0.0,0.0,0.0,0.0,0.0,0,1,1,1,1,0,0,0,0,0,0,0
990474695,0,0.0,0.0,0,-5.36121,1.04851,1.43461,0.0,0.0,0.0,-0.0245182,0.0101966,-0.00505524,0.0,0.0,0.0,0.0,0.0,0.0,0.115995,0.0,0.0,0.0,0.0,0.0,0,1,1,1,1,0,0,0,0,0,0,0
990479774,0,0.0,0.0,0,-5.36133,1.04856,1.43458,0.0,0.0,0.0,-0.0250687,0.0102823,-0.00526266,0.0,0.0,0.0,0.0,0.0,0.0,0.115994,0.0,0.0,0.0,0.0,0.0,0,1,1,1,1,0,0,0,0,0,0,0
990484771,0,0.0,0.0,0,-5.36146,1.04861,1.43456,0.0,0.0,0.0,-0.0255865,0.0104275,-0.00547629,0.0,0.0,0.0,0.0,0.0,0.0,0.115994,0.0,0.0,0.0,0.0,0.0,0,1,1,1,1,0,0,0,0,0,0,0
990489860,0,0.0,0.0,0,-5.36159,1.04867,1.43453,0.0,0.0,0.0,-0.0260046,0.0106773,-0.00566728,0.0,0.0,0.0,0.0,0.0,0.0,0.115999,0.0,0.0,0.0,0.0,0.0,0,1,1,1,1,0,0,0,0,0,0,0
990494883,0,0.0,0.0,0,-5.36172,1.04872,1.4345,0.0,0.0,0.0,-0.0264412,0.0109077,-0.00591258,0.0,0.0,0.0,0.0,0.0,0.0,0.116001,0.0,0.0,0.0,0.0,0.0,0,1,1,1,1,0,0,0,0,0,0,0
990499846,0,0.0,0.0,0,-5.36186,1.04878,1.43447,0.0,0.0,0.0,-0.0269521,0.0110945,-0.00611151,0.0,0.0,0.0,0.0,0.0,0.0,0.115998,0.0,0.0,0.0,0.0,0.0,0,1,1,1,1,0,0,0,0,0,0,0
990509859,0,0.0,0.0,0,-5.35959,1.04732,1.43469,0.0,0.0,0.0,-0.0160028,0.00616498,-0.00359129,0.0,0.0,0.0,0.0,0.0,0.0,0.116067,0.0,0.0,0.0,0.0,0.0,0,1,1,1,1,0,0,0,0,0,0,0
990514860,0,0.0,0.0,0,-5.35968,1.04735,1.43467,0.0,0.0,0.0,-0.0165999,0.00636468,-0.00378482,0.0,0.0,0.0,0.0,0.0,0.0,0.11607,0.0,0.0,0.0,0.0,0.0,0,1,1,1,1,0,0,0,0,0,0,0
990519886,0,0.0,0.0,0,-5.35976,1.04738,1.43465,0.0,0.0,0.0,-0.0172305,0.00653506,-0.00404793,0.0,0.0,0.0,0.0,0.0,0.0,0.116072,0.0,0.0,0.0,0.0,0.0,0,1,1,1,1,0,0,0,0,0,0,0
990524866,0,0.0,0.0,0,-5.35985,1.04742,1.43463,0.0,0.0,0.0,-0.0178069,0.00676099,-0.00427025,0.0,0.0,0.0,0.0,0.0,0.0,0.116072,0.0,0.0,0.0,0.0,0.0,0,1,1,1,1,0,0,0,0,0,0,0
990529782,0,0.0,0.0,0,-5.35994,1.04745,1.43461,0.0,0.0,0.0,-0.0183346,0.00697092,-0.00458035,0.0,0.0,0.0,0.0,0.0,0.0,0.116069,0.0,0.0,0.0,0.0,0.0,0,1,1,1,1,0,0,0,0,0,0,0
990534801,0,0.0,0.0,0,-5.36004,1.04749,1.43458,0.0,0.0,0.0,-0.0188618,0.00713966,-0.00494066,0.0,0.0,0.0,0.0,0.0,0.0,0.116063,0.0,0.0,0.0,0.0,0.0,0,1,1,1,1,0,0,0,0,0,0,0
990539773,0,0.0,0.0,0,-5.36014,1.04753,1.43456,0.0,0.0,0.0,-0.0194153,0.0072707,-0.00522422,0.0,0.0,0.0,0.0,0.0,0.0,0.11606,0.0,0.0,0.0,0.0,0.0,0,1,1,1,1,0,0,0,0,0,0,0
990544795,0,0.0,0.0,0,-5.36023,1.04756,1.43453,0.0,0.0,0.0,-0.019925,0.00750859,-0.00545234,0.0,0.0,0.0,0.0,0.0,0.0,0.116059,0.0,0.0,0.0,0.0,0.0,0,1,1,1,1,0,0,0,0,0,0,0
990549964,0,0.0,0.0,0,-5.36034,1.0476,1.4345,0.0,0.0,0.0,-0.0204123,0.00773419,-0.00563722,0.0,0.0,0.0,0.0,0.0,0.0,0.116056,0.0,0.0,0.0,0.0,0.0,0,1,1,1,1,0,0,0,0,0,0,0
990554961,0,0.0,0.0,0,-5.36044,1.04764,1.43447,0.0,0.0,0.0,-0.020948,0.00793006,-0.00581232,0.0,0.0,0.0,0.0,0.0,0.0,0.116056,0.0,0.0,0.0,0.0,0.0,0,1,1,1,1,0,0,0,0,0,0,0
990559935,0,0.0,0.0,0,-5.36055,1.04768,1.43444,0.0,0.0,0.0,-0.0215489,0.00809238,-0.00607591,0.0,0.0,0.0,0.0,0.0,0.0,0.116058,0.0,0.0,0.0,0.0,0.0,0,1,1,1,1,0,0,0,0,0,0,0
990564896,0,0.0,0.0,0,-5.36066,1.04772,1.43441,0.0,0.0,0.0,-0.0222404,0.00829788,-0.00643723,0.0,0.0,0.0,0.0,0.0,0.0,0.116061,0.0,0.0,0.0,0.0,0.0,0,1,1,1,1,0,0,0,0,0,0,0
990570147,0,0.0,0.0,0,-5.36078,1.04777,1.43438,0.0,0.0,0.0,-0.0228343,0.00840533,-0.0066839,0.0,0.0,0.0,0.0,0.0,0.0,0.116058,0.0,0.0,0.0,0.0,0.0,0,1,1,1,1,0,0,0,0,0,0,0
990574931,0,0.0,0.0,0,-5.36089,1.04781,1.43434,0.0,0.0,0.0,-0.0232754,0.00844233,-0.00696784,0.0,0.0,0.0,0.0,0.0,0.0,0.116055,0.0,0.0,0.0,0.0,0.0,0,1,1,1,1,0,0,0,0,0,0,0
990580053,0,0.0,0.0,0,-5.36101,1.04785,1.43431,0.0,0.0,0.0,-0.0236697,0.00859939,-0.00713727,0.0,0.0,0.0,0.0,0.0,0.0,0.11606,0.0,0.0,0.0,0.0,0.0,0,1,1,1,1,0,0,0,0,0,0,0
990584986,0,0.0,0.0,0,-5.36113,1.04789,1.43427,0.0,0.0,0.0,-0.0241132,0.00876826,-0.00722694,0.0,0.0,0.0,0.0,0.0,0.0,0.116065,0.0,0.0,0.0,0.0,0.0,0,1,1,1,1,0,0,0,0,0,0,0
990589966,0,0.0,0.0,0,-5.36125,1.04794,1.43423,0.0,0.0,0.0,-0.0245469,0.00897667,-0.00740079,0.0,0.0,0.0,0.0,0.0,0.0,0.116064,0.0,0.0,0.0,0.0,0.0,0,1,1,1,1,0,0,0,0,0,0,0
990595124,0,0.0,0.0,0,-5.36138,1.04799,1.43419,0.0,0.0,0.0,-0.0249699,0.00919537,-0.00752776,0.0,0.0,0.0,0.0,0.0,0.0,0.116064,0.0,0.0,0.0,0.0,0.0,0,1,1,1,1,0,0,0,0,0,0,0
990600107,0,0.0,0.0,0,-5.36151,1.04803,1.43416,0.0,0.0,0.0,-0.0255754,0.00935479,-0.00771614,0.0,0.0,0.0,0.0,0.0,0.0,0.116064,0.0,0.0,0.0,0.0,0.0,0,1,1,1,1,0,0,0,0,0,0,0
990604975,0,0.0,0.0,0,-5.36164,1.04808,1.43412,0.0,0.0,0.0,-0.0261418,0.00944896,-0.00798676,0.0,0.0,0.0,0.0,0.0,0.0,0.116061,0.0,0.0,0.0,0.0,0.0,0,1,1,1,1,0,0,0,0,0,0,0
990610130,0,0.0,0.0,0,-5.35944,1.04933,1.4358,0.0,0.0,0.0,-0.0155184,0.0107696,-0.00216286,0.0,0.0,0.0,0.0,0.0,0.0,0.115915,0.0,0.0,0.0,0.0,0.0,0,1,1,1,1,0,0,0,0,0,0,0
990614882,0,0.0,0.0,0,-5.35952,1.04939,1.43579,0.0,0.0,0.0,-0.0161286,0.0110034,-0.00214319,0.0,0.0,0.0,0.0,0.0,0.0,0.115914,0.0,0.0,0.0,0.0,0.0,0,1,1,1,1,0,0,0,0,0,0,0
990620208,0,0.0,0.0,0,-5.3596,1.04944,1.43578,0.0,0.0,0.0,-0.0167703,0.0111596,-0.00220773,0.0,0.0,0.0,0.0,0.0,0.0,0.115914,0.0,0.0,0.0,0.0,0.0,0,1,1,1,1,0,0,0,0,0,0,0
990624970,0,0.0,0.0,0,-5.35969,1.0495,1.43576,0.0,0.0,0.0,-0.017305,0.0112831,-0.00234113,0.0,0.0,0.0,0.0,0.0,0.0,0.115913,0.0,0.0,0.0,0.0,0.0,0,1,1,1,1,0,0,0,0,0,0,0
990629950,0,0.0,0.0,0,-5.35978,1.04956,1.43575,0.0,0.0,0.0,-0.0177609,0.0114648,-0.00263586,0.0,0.0,0.0,0.0,0.0,0.0,0.115913,0.0,0.0,0.0,0.0,0.0,0,1,1,1,1,0,0,0,0,0,0,0
990635137,0,0.0,0.0,0,-5.35987,1.04961,1.43574,0.0,0.0,0.0,-0.0182826,0.0117266,-0.00293894,0.0,0.0,0.0,0.0,0.0,0.0,0.115909,0.0,0.0,0.0,0.0,0.0,0,1,1,1,1,0,0,0,0,0,0,0
990639939,0,0.0,0.0,0,-5.35996,1.04967,1.43572,0.0,0.0,0.0,-0.0188671,0.0118957,-0.00311181,0.0,0.0,0.0,0.0,0.0,0.0,0.115903,0.0,0.0,0.0,0.0,0.0,0,1,1,1,1,0,0,0,0,0,0,0
990644934,0,0.0,0.0,0,-5.36006,1.04973,1.4357,0.0,0.0,0.0,-0.0195116,0.01207,-0.00326366,0.0,0.0,0.0,0.0,0.0,0.0,0.115903,0.0,0.0,0.0,0.0,0.0,0,1,1,1,1,0,0,0,0,0,0,0
990649955,0,0.0,0.0,0,-5.36016,1.0498,1.43569,0.0,0.0,0.0,-0.0201499,0.0122204,-0.00346253,0.0,0.0,0.0,0.0,0.0,0.0,0.115908,0.0,0.0,0.0,0.0,0.0,0,1,1,1,1,0,0,0,0,0,0,0
990655089,0,0.0,0.0,0,-5.36026,1.04986,1.43567,0.0,0.0,0.0,-0.0207157,0.0123079,-0.00363775,0.0,0.0,0.0,0.0,0.0,0.0,0.115912,0.0,0.0,0.0,0.0,0.0,0,1,1,1,1,0,0,0,0,0,0,0
990660161,0,0.0,0.0,0,-5.36037,1.04992,1.43565,0.0,0.0,0.0,-0.0212473,0.0124258,-0.00369991,0.0,0.0,0.0,0.0,0.0,0.0,0.115909,0.0,0.0,0.0,0.0,0.0,0,1,1,1,1,0,0,0,0,0,0,0
990664933,0,0.0,0.0,0,-5.36048,1.04998,1.43563,0.0,0.0,0.0,-0.0217209,0.0125533,-0.00384665,0.0,0.0,0.0,0.0,0.0,0.0,0.1159,0.0,0.0,0.0,0.0,0.0,0,1,1,1,1,0,0,0,0,0,0,0
990670564,0,0.0,0.0,0,-5.36059,1.05005,1.43561,0.0,0.0,0.0,-0.0222686,0.0126951,-0.00405915,0.0,0.0,0.0,0.0,0.0,0.0,0.115897,0.0,0.0,0.0,0.0,0.0,0,1,1,1,1,0,0,0,0,0,0,0
990674996,0,0.0,0.0,0,-5.36071,1.05011,1.43559,0.0,0.0,0.0,-0.0228874,0.0128286,-0.00428556,0.0,0.0,0.0,0.0,0.0,0.0,0.115899,0.0,0.0,0.0,0.0,0.0,0,1,1,1,1,0,0,0,0,0,0,0
990680237,0,0.0,0.0,0,-5.36082,1.05017,1.43557,0.0,0.0,0.0,-0.0234951,0.013009,-0.0044423,0.0,0.0,0.0,0.0,0.0,0.0,0.115904,0.0,0.0,0.0,0.0,0.0,0,1,1,1,1,0,0,0,0,0,0,0
990684987,0,0.0,0.0,0,-5.36094,1.05024,1.43554,0.0,0.0,0.0,-0.0239306,0.0132489,-0.00464407,0.0,0.0,0.0,0.0,0.0,0.0,0.115909,0.0,0.0,0.0,0.0,0.0,0,1,1,1,1,0,0,0,0,0,0,0
990689996,0,0.0,0.0,0,-5.36106,1.05031,1.43552,0.0,0.0,0.0,-0.0243137,0.0133868,-0.0048525,0.0,0.0,0.0,0.0,0.0,0.0,0.115914,0.0,0.0,0.0,0.0,0.0,0,1,1,1,1,0,0,0,0,0,0,0
990695001,0,0.0,0.0,0,-5.36119,1.05038,1.43549,0.0,0.0,0.0,-0.0248297,0.0135015,-0.0050295,0.0,0.0,0.0,0.0,0.0,0.0,0.115921,0.0,0.0,0.0,0.0,0.0,0,1,1,1,1,0,0,0,0,0,0,0
990700060,0,0.0,0.0,0,-5.36132,1.05044,1.43547,0.0,0.0,0.0,-0.0253941,0.0136544,-0.00519835,0.0,0.0,0.0,0.0,0.0,0.0,0.115929,0.0,0.0,0.0,0.0,0.0,0,1,1,1,1,0,0,0,0,0,0,0
990705050,0,0.0,0.0,0,-5.35969,1.04975,1.43576,0.0,0.0,0.0,-0.0151639,0.0103548,-0.00245577,0.0,0.0,0.0,0.0,0.0,0.0,0.115883,0.0,0.0,0.0,0.0,0.0,0,1,1,1,1,0,0,0,0,0,0,0
990710131,0,0.0,0.0,0,-5.35977,1.04981,1.43574,0.0,0.0,0.0,-0.0157102,0.0105303,-0.00257839,0.0,0.0,0.0,0.0,0.0,0.0,0.11588,0.0,0.0,0.0,0.0,0.0,0,1,1,1,1,0,0,0,0,0,0,0
990715012,0,0.0,0.0,0,-5.35985,1.04986,1.43573,0.0,0.0,0.0,-0.0162552,0.0107669,-0.00266306,0.0,0.0,0.0,0.0,0.0,0.0,0.115879,0.0,0.0,0.0,0.0,0.0,0,1,1,1,1,0,0,0,0,0,0,0
990720050,0,0.0,0.0,0,-5.35993,1.04992,1.43572,0.0,0.0,0.0,-0.0168385,0.0110135,-0.00282609,0.0,0.0,0.0,0.0,0.0,0.0,0.115876,0.0,0.0,0.0,0.0,0.0,0,1,1,1,1,0,0,0,0,0,0,0
990725040,0,0.0,0.0,0,-5.36002,1.04997,1.4357,0.0,0.0,0.0,-0.0174907,0.0111901,-0.00308057,0.0,0.0,0.0,0.0,0.0,0.0,0.115873,0.0,0.0,0.0,0.0,0.0,0,1,1,1,1,0,0,0,0,0,0,0
990730071,0,0.0,0.0,0,-5.36011,1.05003,1.43568,0.0,0.0,0.0,-0.0181149,0.0113446,-0.00321668,0.0,0.0,0.0,0.0,0.0,0.0,0.115872,0.0,0.0,0.0,0.0,0.0,0,1,1,1,1,0,0,0,0,0,0,0
990735085,0,0.0,0.0,0,-5.3602,1.05009,1.43567,0.0,0.0,0.0,-0.018703,0.011458,-0.00343155,0.0,0.0,0.0,0.0,0.0,0.0,0.115871,0.0,0.0,0.0,0.0,0.0,0,1,1,1,1,0,0,0,0,0,0,0
990740128,0,0.0,0.0,0,-5.3603,1.05014,1.43565,0.0,0.0,0.0,-0.0193582,0.0115732,-0.00357372,0.0,0.0,0.0,0.0,0.0,0.0,0.115868,0.0,0.0,0.0,0.0,0.0,0,1,1,1,1,0,0,0,0,0,0,0
990745130,0,0.0,0.0,0,-5.3604,1.0502,1.43563,0.0,0.0,0.0,-0.0199637,0.0117388,-0.00372232,0.0,0.0,0.0,0.0,0.0,0.0,0.115865,0.0,0.0,0.0,0.0,0.0,0,1,1,1,1,0,0,0,0,0,0,0
990750209,0,0.0,0.0,0,-5.3605,1.05026,1.43561,0.0,0.0,0.0,-0.0205109,0.0120245,-0.00381604,0.0,0.0,0.0,0.0,0.0,0.0,0.115861,0.0,0.0,0.0,0.0,0.0,0,1,1,1,1,0,0,0,0,0,0,0
990755066,0,0.0,0.0,0,-5.36061,1.05032,1.43559,0.0,0.0,0.0,-0.0210832,0.012341,-0.00401265,0.0,0.0,0.0,0.0,0.0,0.0,0.115858,0.0,0.0,0.0,0.0,0.0,0,1,1,1,1,0,0,0,0,0,0,0
990760150,0,0.0,0.0,0,-5.36072,1.05039,1.43557,0.0,0.0,0.0,-0.0216541,0.0125502,-0.00417895,0.0,0.0,0.0,0.0,0.0,0.0,0.11586,0.0,0.0,0.0,0.0,0.0,0,1,1,1,1,0,0,0,0,0,0,0
990765165,0,0.0,0.0,0,-5.36083,1.05045,1.43555,0.0,0.0,0.0,-0.022195,0.0128163,-0.00428813,0.0,0.0,0.0,0.0,0.0,0.0,0.115865,0.0,0.0,0.0,0.0,0.0,0,1,1,1,1,0,0,0,0,0,0,0
990770400,0,0.0,0.0,0,-5.36094,1.05052,1.43553,0.0,0.0,0.0,-0.0227433,0.0130643,-0.00447182,0.0,0.0,0.0,0.0,0.0,0.0,0.115865,0.0,0.0,0.0,0.0,0.0,0,1,1,1,1,0,0,0,0,0,0,0
990775171,0,0.0,0.0,0,-5.36106,1.05058,1.4355,0.0,0.0,0.0,-0.0232417,0.0132836,-0.00477831,0.0,0.0,0.0,0.0,0.0,0.0,0.115867,0.0,0.0,0.0,0.0,0.0,0,1,1,1,1,0,0,0,0,0,0,0
990780150,0,0.0,0.0,0,-5.36118,1.05065,1.43548,0.0,0.0,0.0,-0.0237118,0.0135018,-0.00508534,0.0,0.0,0.0,0.0,0.0,0.0,0.115874,0.0,0.0,0.0,0.0,0.0,0,1,1,1,1,0,0,0,0,0,0,0
990785196,0,0.0,0.0,0,-5.3613,1.05072,1.43545,0.0,0.0,0.0,-0.0242257,0.0136277,-0.00532596,0.0,0.0,0.0,0.0,0.0,0.0,0.115879,0.0,0.0,0.0,0.0,0.0,0,1,1,1,1,0,0,0,0,0,0,0
990790302,0,0.0,0.0,0,-5.36142,1.05079,1.43542,0.0,0.0,0.0,-0.0247531,0.0138049,-0.00550435,0.0,0.0,0.0,0.0,0.0,0.0,0.115881,0.0,0.0,0.0,0.0,0.0,0,1,1,1,1,0,0,0,0,0,0,0
990795275,0,0.0,0.0,0,-5.36155,1.05086,1.43539,0.0,0.0,0.0,-0.0252545,0.0140654,-0.0056657,0.0,0.0,0.0,0.0,0.0,0.0,0.115881,0.0,0.0,0.0,0.0,0.0,0,1,1,1,1,0,0,0,0,0,0,0
990800381,0,0.0,0.0,0,-5.36168,1.05093,1.43536,0.0,0.0,0.0,-0.0257515,0.0143175,-0.0058704,0.0,0.0,0.0,0.0,0.0,0.0,0.115878,0.0,0.0,0.0,0.0,0.0,0,1,1,1,1,0,0,0,0,0,0,0
990805203,0,0.0,0.0,0,-5.36181,1.051,1.43533,0.0,0.0,0.0,-0.0262973,0.0144709,-0.00611099,0.0,0.0,0.0,0.0,0.0,0.0,0.11588,0.0,0.0,0.0,0.0,0.0,0,1,1,1,1,0,0,0,0,0,0,0
990810217,0,0.0,0.0,0,-5.3604,1.04909,1.43497,0.0,0.0,0.0,-0.0164312,0.00827161,-0.00499743,0.0,0.0,0.0,0.0,0.0,0.0,0.115869,0.0,0.0,0.0,0.0,0.0,0,1,1,1,1,0,0,0,0,0,0,0
990815143,0,0.0,0.0,0,-5.36049,1.04913,1.43494,0.0,0.0,0.0,-0.017029,0.00846327,-0.00529307,0.0,0.0,0.0,0.0,0.0,0.0,0.115866,0.0,0.0,0.0,0.0,0.0,0,1,1,1,1,0,0,0,0,0,0,0
990820193,0,0.0,0.0,0,-5.36058,1.04917,1.43492,0.0,0.0,0.0,-0.0176193,0.00857913,-0.00542494,0.0,0.0,0.0,0.0,0.0,0.0,0.115871,0.0,0.0,0.0,0.0,0.0,0,1,1,1,1,0,0,0,0,0,0,0
990825148,0,0.0,0.0,0,-5.36067,1.04922,1.43489,0.0,0.0,0.0,-0.0181103,0.00877261,-0.00549002,0.0,0.0,0.0,0.0,0.0,0.0,0.115878,0.0,0.0,0.0,0.0,0.0,0,1,1,1,1,0,0,0,0,0,0,0
990830405,0,0.0,0.0,0,-5.36076,1.04926,1.43486,0.0,0.0,0.0,-0.0186252,0.0089311,-0.00555368,0.0,0.0,0.0,0.0,0.0,0.0,0.115877,0.0,0.0,0.0,0.0,0.0,0,1,1,1,1,0,0,0,0,0,0,0
990835338,0,0.0,0.0,0,-5.36086,1.04931,1.43483,0.0,0.0,0.0,-0.0191331,0.00908899,-0.00568465,0.0,0.0,0.0,0.0,0.0,0.0,0.115874,0.0,0.0,0.0,0.0,0.0,0,1,1,1,1,0,0,0,0,0,0,0
990840283,0,0.0,0.0,0,-5.36095,1.04935,1.4348,0.0,0.0,0.0,-0.0196069,0.00925873,-0.00583646,0.0,0.0,0.0,0.0,0.0,0.0,0.115874,0.0,0.0,0.0,0.0,0.0,0,1,1,1,1,0,0,0,0,0,0,0
990845194,0,0.0,0.0,0,-5.36105,1.0494,1.43477,0.0,0.0,0.0,-0.0200924,0.00944543,-0.00608325,0.0,0.0,0.0,0.0,0.0,0.0,0.115876,0.0,0.0,0.0,0.0,0.0,0,1,1,1,1,0,0,0,0,0,0,0
990850290,0,0.0,0.0,0,-5.36116,1.04945,1.43474,0.0,0.0,0.0,-0.0206324,0.00965969,-0.00624653,0.0,0.0,0.0,0.0,0.0,0.0,0.115883,0.0,0.0,0.0,0.0,0.0,0,1,1,1,1,0,0,0,0,0,0,0
990855264,0,0.0,0.0,0,-5.36126,1.0495,1.43471,0.0,0.0,0.0,-0.0211223,0.00990107,-0.00636415,0.0,0.0,0.0,0.0,0.0,0.0,0.115893,0.0,0.0,0.0,0.0,0.0,0,1,1,1,1,0,0,0,0,0,0,0
990860285,0,0.0,0.0,0,-5.36137,1.04955,1.43468,0.0,0.0,0.0,-0.0215227,0.0100172,-0.00666631,0.0,0.0,0.0,0.0,0.0,0.0,0.115898,0.0,0.0,0.0,0.0,0.0,0,1,1,1,1,0,0,0,0,0,0,0
990865290,0,0.0,0.0,0,-5.36148,1.0496,1.43464,0.0,0.0,0.0,-0.0219587,0.0100697,-0.00692664,0.0,0.0,0.0,0.0,0.0,0.0,0.1159,0.0,0.0,0.0,0.0,0.0,0,1,1,1,1,0,0,0,0,0,0,0
990870924,0,0.0,0.0,0,-5.36159,1.04965,1.43461,0.0,0.0,0.0,-0.0224272,0.0102369,-0.00705479,0.0,0.0,0.0,0.0,0.0,0.0,0.115905,0.0,0.0,0.0,0.0,0.0,0,1,1,1,1,0,0,0,0,0,0,0
990875304,0,0.0,0.0,0,-5.36171,1.0497,1.43457,0.0,0.0,0.0,-0.0229215,0.0103847,-0.00719766,0.0,0.0,0.0,0.0,0.0,0.0,0.115909,0.0,0.0,0.0,0.0,0.0,0,1,1,1,1,0,0,0,0,0,0,0
990880257,0,0.0,0.0,0,-5.36183,1.04975,1.43453,0.0,0.0,0.0,-0.0234881,0.0104944,-0.0073932,0.0,0.0,0.0,0.0,0.0,0.0,0.115906,0.0,0.0,0.0,0.0,0.0,0,1,1,1,1,0,0,0,0,0,0,0
990885257,0,0.0,0.0,0,-5.36195,1.04981,1.43449,0.0,0.0,0.0,-0.0241135,0.0105976,-0.00754771,0.0,0.0,0.0,0.0,0.0,0.0,0.115906,0.0,0.0,0.0,0.0,0.0,0,1,1,1,1,0,0,0,0,0,0,0
990890310,0,0.0,0.0,0,-5.36207,1.04986,1.43446,0.0,0.0,0.0,-0.0246115,0.0107076,-0.00771728,0.0,0.0,0.0,0.0,0.0,0.0,0.115913,0.0,0.0,0.0,0.0,0.0,0,1,1,1,1,0,0,0,0,0,0,0
990895478,0,0.0,0.0,0,-5.3622,1.04992,1.43442,0.0,0.0,0.0,-0.0251994,0.0107389,-0.00786298,0.0,0.0,0.0,0.0,0.0,0.0,0.115918,0.0,0.0,0.0,0.0,0.0,0,1,1,1,1,0,0,0,0,0,0,0
990900301,0,0.0,0.0,0,-5.36233,1.04997,1.43438,0.0,0.0,0.0,-0.025809,0.0108295,-0.00792663,0.0,0.0,0.0,0.0,0.0,0.0,0.115917,0.0,0.0,0.0,0.0,0.0,0,1,1,1,1,0,0,0,0,0,0,0
990905374,0,0.0,0.0,0,-5.36246,1.05002,1.43434,0.0,0.0,0.0,-0.0264683,0.0109084,-0.00789012,0.0,0.0,0.0,0.0,0.0,0.0,0.115914,0.0,0.0,0.0,0.0,0.0,0,1,1,1,1,0,0,0,0,0,0,0
990910422,0,0.0,0.0,0,-5.36259,1.05008,1.4343,0.0,0.0,0.0,-0.027015,0.0110702,-0.00799261,0.0,0.0,0.0,0.0,0.0,0.0,0.115914,0.0,0.0,0.0,0.0,0.0,0,1,1,1,1,0,0,0,0,0,0,0
990915291,0,0.0,0.0,0,-5.36273,1.05014,1.43426,0.0,0.0,0.0,-0.0274758,0.011304,-0.00820953,0.0,0.0,0.0,0.0,0.0,0.0,0.115916,0.0,0.0,0.0,0.0,0.0,0,1,1,1,1,0,0,0,0,0,0,0
990920335,0,0.0,0.0,0,-5.36287,1.05019,1.43421,0.0,0.0,0.0,-0.0279866,0.011409,-0.00854846,0.0,0.0,0.0,0.0,0.0,0.0,0.115915,0.0,0.0,0.0,0.0,0.0,0,1,1,1,1,0,0,0,0,0,0,0
990925302,0,0.0,0.0,0,-5.36301,1.05025,1.43417,0.0,0.0,0.0,-0.0285737,0.0114272,-0.00876098,0.0,0.0,0.0,0.0,0.0,0.0,0.115915,0.0,0.0,0.0,0.0,0.0,0,1,1,1,1,0,0,0,0,0,0,0
990930386,0,0.0,0.0,0,-5.36316,1.05031,1.43412,0.0,0.0,0.0,-0.0291343,0.0114616,-0.00891534,0.0,0.0,0.0,0.0,0.0,0.0,0.115917,0.0,0.0,0.0,0.0,0.0,0,1,1,1,1,0,0,0,0,0,0,0
990935384,0,0.0,0.0,0,-5.36109,1.04898,1.43396,0.0,0.0,0.0,-0.0187434,0.00691686,-0.00757768,0.0,0.0,0.0,0.0,0.0,0.0,0.115901,0.0,0.0,0.0,0.0,0.0,0,1,1,1,1,0,0,0,0,0,0,0
990940311,0,0.0,0.0,0,-5.36118,1.04902,1.43392,0.0,0.0,0.0,-0.0192422,0.00700418,-0.00763858,0.0,0.0,0.0,0.0,0.0,0.0,0.115906,0.0,0.0,0.0,0.0,0.0,0,1,1,1,1,0,0,0,0,0,0,0
990945461,0,0.0,0.0,0,-5.36128,1.04906,1.43388,0.0,0.0,0.0,-0.0198226,0.00705043,-0.00786644,0.0,0.0,0.0,0.0,0.0,0.0,0.115911,0.0,0.0,0.0,0.0,0.0,0,1,1,1,1,0,0,0,0,0,0,0
990950399,0,0.0,0.0,0,-5.36139,1.04909,1.43384,0.0,0.0,0.0,-0.0204378,0.00712511,-0.00805074,0.0,0.0,0.0,0.0,0.0,0.0,0.115907,0.0,0.0,0.0,0.0,0.0,0,1,1,1,1,0,0,0,0,0,0,0
990955411,0,0.0,0.0,0,-5.36149,1.04913,1.4338,0.0,0.0,0.0,-0.0210202,0.00713204,-0.00820646,0.0,0.0,0.0,0.0,0.0,0.0,0.115907,0.0,0.0,0.0,0.0,0.0,0,1,1,1,1,0,0,0,0,0,0,0
990960422,0,0.0,0.0,0,-5.3616,1.04916,1.43376,0.0,0.0,0.0,-0.0215606,0.00715163,-0.00839508,0.0,0.0,0.0,0.0,0.0,0.0,0.115909,0.0,0.0,0.0,0.0,0.0,0,1,1,1,1,0,0,0,0,0,0,0
990965411,0,0.0,0.0,0,-5.36171,1.0492,1.43372,0.0,0.0,0.0,-0.0221098,0.00717939,-0.00854813,0.0,0.0,0.0,0.0,0.0,0.0,0.115908,0.0,0.0,0.0,0.0,0.0,0,1,1,1,1,0,0,0,0,0,0,0
990970593,0,0.0,0.0,0,-5.36182,1.04923,1.43367,0.0,0.0,0.0,-0.0226389,0.00720137,-0.00871343,0.0,0.0,0.0,0.0,0.0,0.0,0.11591,0.0,0.0,0.0,0.0,0.0,0,1,1,1,1,0,0,0,0,0,0,0
990975435,0,0.0,0.0,0,-5.36194,1.04927,1.43363,0.0,0.0,0.0,-0.0232057,0.00719728,-0.00893641,0.0,0.0,0.0,0.0,0.0,0.0,0.115913,0.0,0.0,0.0,0.0,0.0,0,1,1,1,1,0,0,0,0,0,0,0
990980369,0,0.0,0.0,0,-5.36206,1.04931,1.43358,0.0,0.0,0.0,-0.0236798,0.0072384,-0.00904805,0.0,0.0,0.0,0.0,0.0,0.0,0.115917,0.0,0.0,0.0,0.0,0.0,0,1,1,1,1,0,0,0,0,0,0,0
990985375,0,0.0,0.0,0,-5.36218,1.04934,1.43354,0.0,0.0,0.0,-0.0241124,0.00726865,-0.00916042,0.0,0.0,0.0,0.0,0.0,0.0,0.115925,0.0,0.0,0.0,0.0,0.0,0,1,1,1,1,0,0,0,0,0,0,0
990990664,0,0.0,0.0,0,-5.3623,1.04938,1.43349,0.0,0.0,0.0,-0.0245697,0.00729898,-0.00932753,0.0,0.0,0.0,0.0,0.0,0.0,0.115921,0.0,0.0,0.0,0.0,0.0,0,1,1,1,1,0,0,0,0,0,0,0
990995415,0,0.0,0.0,0,-5.36243,1.04942,1.43344,0.0,0.0,0.0,-0.0250635,0.00734303,-0.00940722,0.0,0.0,0.0,0.0,0.0,0.0,0.115915,0.0,0.0,0.0,0.0,0.0,0,1,1,1,1,0,0,0,0,0,0,0
991000467,0,0.0,0.0,0,-5.36256,1.04945,1.4334,0.0,0.0,0.0,-0.0255171,0.00747997,-0.0095257,0.0,0.0,0.0,0.0,0.0,0.0,0.115917,0.0,0.0,0.0,0.0,0.0,0,1,1,1,1,0,0,0,0,0,0,0
991005511,0,0.0,0.0,0,-5.36269,1.04949,1.43335,0.0,0.0,0.0,-0.0259706,0.00756578,-0.00980882,0.0,0.0,0.0,0.0,0.0,0.0,0.115917,0.0,0.0,0.0,0.0,0.0,0,1,1,1,1,0,0,0,0,0,0,0
991011468,0,0.0,0.0,0,-5.36282,1.04953,1.4333,0.0,0.0,0.0,-0.0265037,0.00765551,-0.0100073,0.0,0.0,0.0,0.0,0.0,0.0,0.115913,0.0,0.0,0.0,0.0,0.0,0,1,1,1,1,0,0,0,0,0,0,0
991015521,0,0.0,0.0,0,-5.36295,1.04957,1.43325,0.0,0.0,0.0,-0.0270638,0.0078195,-0.01012,0.0,0.0,0.0,0.0,0.0,0.0,0.115913,0.0,0.0,0.0,0.0,0.0,0,1,1,1,1,0,0,0,0,0,0,0
991021237,0,0.0,0.0,0,-5.36309,1.04961,1.43319,0.0,0.0,0.0,-0.0276272,0.00801408,-0.0102847,0.0,0.0,0.0,0.0,0.0,0.0,0.11591,0.0,0.0,0.0,0.0,0.0,0,1,1,1,1,0,0,0,0,0,0,0
991025559,0,0.0,0.0,0,-5.36323,1.04965,1.43314,0.0,0.0,0.0,-0.0281905,0.00817228,-0.0104683,0.0,0.0,0.0,0.0,0.0,0.0,0.115909,0.0,0.0,0.0,0.0,0.0,0,1,1,1,1,0,0,0,0,0,0,0
991030450,0,0.0,0.0,0,-5.36338,1.04969,1.43309,0.0,0.0,0.0,-0.0287966,0.00834336,-0.0107461,0.0,0.0,0.0,0.0,0.0,0.0,0.115908,0.0,0.0,0.0,0.0,0.0,0,1,1,1,1,0,0,0,0,0,0,0
991035486,0,0.0,0.0,0,-5.35953,1.04873,1.43406,0.0,0.0,0.0,-0.0159309,0.00454398,-0.00701104,0.0,0.0,0.0,0.0,0.0,0.0,0.115865,0.0,0.0,0.0,0.0,0.0,0,1,1,1,1,0,0,0,0,0,0,0
991040459,0,0.0,0.0,0,-5.35961,1.04876,1.43402,0.0,0.0,0.0,-0.0163774,0.0046449,-0.0071081,0.0,0.0,0.0,0.0,0.0,0.0,0.115862,0.0,0.0,0.0,0.0,0.0,0,1,1,1,1,0,0,0,0,0,0,0
991045604,0,0.0,0.0,0,-5.35969,1.04878,1.43399,0.0,0.0,0.0,-0.0167711,0.00479418,-0.00729058,0.0,0.0,0.0,0.0,0.0,0.0,0.115861,0.0,0.0,0.0,0.0,0.0,0,1,1,1,1,0,0,0,0,0,0,0
991050773,0,0.0,0.0,0,-5.35978,1.04881,1.43395,0.0,0.0,0.0,-0.0172022,0.00487719,-0.00754175,0.0,0.0,0.0,0.0,0.0,0.0,0.115861,0.0,0.0,0.0,0.0,0.0,0,1,1,1,1,0,0,0,0,0,0,0
991055542,0,0.0,0.0,0,-5.35987,1.04883,1.43391,0.0,0.0,0.0,-0.0177317,0.00504437,-0.00778081,0.0,0.0,0.0,0.0,0.0,0.0,0.115857,0.0,0.0,0.0,0.0,0.0,0,1,1,1,1,0,0,0,0,0,0,0
991060588,0,0.0,0.0,0,-5.35996,1.04886,1.43387,0.0,0.0,0.0,-0.0183415,0.00528764,-0.00792897,0.0,0.0,0.0,0.0,0.0,0.0,0.115857,0.0,0.0,0.0,0.0,0.0,0,1,1,1,1,0,0,0,0,0,0,0
991065669,0,0.0,0.0,0,-5.36005,1.04888,1.43383,0.0,0.0,0.0,-0.0189028,0.00542909,-0.00806788,0.0,0.0,0.0,0.0,0.0,0.0,0.115859,0.0,0.0,0.0,0.0,0.0,0,1,1,1,1,0,0,0,0,0,0,0
991070889,0,0.0,0.0,0,-5.36015,1.04891,1.43379,0.0,0.0,0.0,-0.0193776,0.00558085,-0.00822484,0.0,0.0,0.0,0.0,0.0,0.0,0.115858,0.0,0.0,0.0,0.0,0.0,0,1,1,1,1,0,0,0,0,0,0,0
991075493,0,0.0,0.0,0,-5.36025,1.04894,1.43375,0.0,0.0,0.0,-0.019847,0.00568485,-0.0084005,0.0,0.0,0.0,0.0,0.0,0.0,0.115858,0.0,0.0,0.0,0.0,0.0,0,1,1,1,1,0,0,0,0,0,0,0
991080589,0,0.0,0.0,0,-5.36035,1.04897,1.4337,0.0,0.0,0.0,-0.0203677,0.00575583,-0.00850304,0.0,0.0,0.0,0.0,0.0,0.0,0.11586,0.0,0.0,0.0,0.0,0.0,0,1,1,1,1,0,0,0,0,0,0,0
991085502,0,0.0,0.0,0,-5.36046,1.049,1.43366,0.0,0.0,0.0,-0.020847,0.0059384,-0.00867649,0.0,0.0,0.0,0.0,0.0,0.0,0.115856,0.0,0.0,0.0,0.0,0.0,0,1,1,1,1,0,0,0,0,0,0,0
991090589,0,0.0,0.0,0,-5.36056,1.04903,1.43362,0.0,0.0,0.0,-0.0213672,0.00612889,-0.00883739,0.0,0.0,0.0,0.0,0.0,0.0,0.11585,0.0,0.0,0.0,0.0,0.0,0,1,1,1,1,0,0,0,0,0,0,0
991095674,0,0.0,0.0,0,-5.36067,1.04906,1.43357,0.0,0.0,0.0,-0.0218641,0.00635309,-0.0090628,0.0,0.0,0.0,0.0,0.0,0.0,0.11585,0.0,0.0,0.0,0.0,0.0,0,1,1,1,1,0,0,0,0,0,0,0
991100610,0,0.0,0.0,0,-5.36078,1.04909,1.43352,0.0,0.0,0.0,-0.022407,0.00653236,-0.00924644,0.0,0.0,0.0,0.0,0.0,0.0,0.115852,0.0,0.0,0.0,0.0,0.0,0,1,1,1,1,0,0,0,0,0,0,0
991105532,0,0.0,0.0,0,-5.3609,1.04913,1.43348,0.0,0.0,0.0,-0.0229825,0.0066478,-0.00941597,0.0,0.0,0.0,0.0,0.0,0.0,0.115854,0.0,0.0,0.0,0.0,0.0,0,1,1,1,1,0,0,0,0,0,0,0
991110545,0,0.0,0.0,0,-5.36102,1.04916,1.43343,0.0,0.0,0.0,-0.0235798,0.00684028,-0.00959088,0.0,0.0,0.0,0.0,0.0,0.0,0.115853,0.0,0.0,0.0,0.0,0.0,0,1,1,1,1,0,0,0,0,0,0,0
991116322,0,0.0,0.0,0,-5.35845,1.04954,1.43488,0.0,0.0,0.0,-0.0126382,0.0062532,-0.00448449,0.0,0.0,0.0,0.0,0.0,0.0,0.115747,0.0,0.0,0.0,0.0,0.0,0,1,1,1,1,0,0,0,0,0,0,0
991120609,0,0.0,0.0,0,-5.35851,1.04957,1.43486,0.0,0.0,0.0,-0.0131992,0.00639582,-0.0045281,0.0,0.0,0.0,0.0,0.0,0.0,0.115743,0.0,0.0,0.0,0.0,0.0,0,1,1,1,1,0,0,0,0,0,0,0
991125567,0,0.0,0.0,0,-5.35858,1.04961,1.43484,0.0,0.0,0.0,-0.0137789,0.00655071,-0.00465849,0.0,0.0,0.0,0.0,0.0,0.0,0.115737,0.0,0.0,0.0,0.0,0.0,0,1,1,1,1,0,0,0,0,0,0,0
991130803,0,0.0,0.0,0,-5.35865,1.04964,1.43481,0.0,0.0,0.0,-0.014299,0.00674571,-0.00474784,0.0,0.0,0.0,0.0,0.0,0.0,0.115736,0.0,0.0,0.0,0.0,0.0,0,1,1,1,1,0,0,0,0,0,0,0
991135683,0,0.0,0.0,0,-5.35873,1.04968,1.43479,0.0,0.0,0.0,-0.0148011,0.00692672,-0.00484511,0.0,0.0,0.0,0.0,0.0,0.0,0.115744,0.0,0.0,0.0,0.0,0.0,0,1,1,1,1,0,0,0,0,0,0,0
991140638,0,0.0,0.0,0,-5.3588,1.04971,1.43476,0.0,0.0,0.0,-0.0153568,0.00707984,-0.00501151,0.0,0.0,0.0,0.0,0.0,0.0,0.115745,0.0,0.0,0.0,0.0,0.0,0,1,1,1,1,0,0,0,0,0,0,0
991145902,0,0.0,0.0,0,-5.35888,1.04975,1.43474,0.0,0.0,0.0,-0.0159281,0.00725415,-0.00524527,0.0,0.0,0.0,0.0,0.0,0.0,0.115744,0.0,0.0,0.0,0.0,0.0,0,1,1,1,1,0,0,0,0,0,0,0
991150933,0,0.0,0.0,0,-5.35897,1.04978,1.43471,0.0,0.0,0.0,-0.0165254,0.00735526,-0.00540942,0.0,0.0,0.0,0.0,0.0,0.0,0.115746,0.0,0.0,0.0,0.0,0.0,0,1,1,1,1,0,0,0,0,0,0,0
991155753,0,0.0,0.0,0,-5.35905,1.04982,1.43468,0.0,0.0,0.0,-0.0171327,0.00756687,-0.00560375,0.0,0.0,0.0,0.0,0.0,0.0,0.115748,0.0,0.0,0.0,0.0,0.0,0,1,1,1,1,0,0,0,0,0,0,0
991160612,0,0.0,0.0,0,-5.35914,1.04986,1.43465,0.0,0.0,0.0,-0.0177701,0.00775389,-0.00584812,0.0,0.0,0.0,0.0,0.0,0.0,0.11575,0.0,0.0,0.0,0.0,0.0,0,1,1,1,1,0,0,0,0,0,0,0
991165769,0,0.0,0.0,0,-5.35923,1.0499,1.43462,0.0,0.0,0.0,-0.0183211,0.00793385,-0.00597186,0.0,0.0,0.0,0.0,0.0,0.0,0.115749,0.0,0.0,0.0,0.0,0.0,0,1,1,1,1,0,0,0,0,0,0,0
991170942,0,0.0,0.0,0,-5.35933,1.04994,1.43459,0.0,0.0,0.0,-0.0188287,0.00805552,-0.00606756,0.0,0.0,0.0,0.0,0.0,0.0,0.115749,0.0,0.0,0.0,0.0,0.0,0,1,1,1,1,0,0,0,0,0,0,0
991175985,0,0.0,0.0,0,-5.35943,1.04998,1.43456,0.0,0.0,0.0,-0.0193496,0.00821459,-0.00620728,0.0,0.0,0.0,0.0,0.0,0.0,0.115751,0.0,0.0,0.0,0.0,0.0,0,1,1,1,1,0,0,0,0,0,0,0
991180662,0,0.0,0.0,0,-5.35952,1.05002,1.43453,0.0,0.0,0.0,-0.0198735,0.00842451,-0.0063916,0.0,0.0,0.0,0.0,0.0,0.0,0.115753,0.0,0.0,0.0,0.0,0.0,0,1,1,1,1,0,0,0,0,0,0,0
991185832,0,0.0,0.0,0,-5.35963,1.05007,1.4345,0.0,0.0,0.0,-0.0204055,0.00862963,-0.00657963,0.0,0.0,0.0,0.0,0.0,0.0,0.115755,0.0,0.0,0.0,0.0,0.0,0,1,1,1,1,0,0,0,0,0,0,0
991190691,0,0.0,0.0,0,-5.35973,1.05011,1.43446,0.0,0.0,0.0,-0.020881,0.00887904,-0.00689651,0.0,0.0,0.0,0.0,0.0,0.0,0.115759,0.0,0.0,0.0,0.0,0.0,0,1,1,1,1,0,0,0,0,0,0,0
991195818,0,0.0,0.0,0,-5.35984,1.05016,1.43443,0.0,0.0,0.0,-0.0213833,0.00909063,-0.00713676,0.0,0.0,0.0,0.0,0.0,0.0,0.115767,0.0,0.0,0.0,0.0,0.0,0,1,1,1,1,0,0,0,0,0,0,0
991200911,0,0.0,0.0,0,-5.35995,1.0502,1.43439,0.0,0.0,0.0,-0.0219782,0.00932192,-0.00722129,0.0,0.0,0.0,0.0,0.0,0.0,0.115763,0.0,0.0,0.0,0.0,0.0,0,1,1,1,1,0,0,0,0,0,0,0
991205705,0,0.0,0.0,0,-5.36006,1.05025,1.43435,0.0,0.0,0.0,-0.022615,0.00953206,-0.00731221,0.0,0.0,0.0,0.0,0.0,0.0,0.115757,0.0,0.0,0.0,0.0,0.0,0,1,1,1,1,0,0,0,0,0,0,0
991215685,0,0.0,0.0,0,-5.3603,1.05035,1.43428,0.0,0.0,0.0,-0.023789,0.00989337,-0.00746334,0.0,0.0,0.0,0.0,0.0,0.0,0.115758,0.0,0.0,0.0,0.0,0.0,0,1,1,1,1,0,0,0,0,0,0,0
991220692,0,0.0,0.0,0,-5.36042,1.0504,1.43424,0.0,0.0,0.0,-0.0242053,0.0100691,-0.00760591,0.0,0.0,0.0,0.0,0.0,0.0,0.115752,0.0,0.0,0.0,0.0,0.0,0,1,1,1,1,0,0,0,0,0,0,0
991225898,0,0.0,0.0,0,-5.35685,1.05114,1.43643,0.0,0.0,0.0,-0.0120141,0.0102586,-0.00114415,0.0,0.0,0.0,0.0,0.0,0.0,0.115702,0.0,0.0,0.0,0.0,0.0,0,1,1,1,1,0,0,0,0,0,0,0
991231100,0,0.0,0.0,0,-5.35691,1.0512,1.43642,0.0,0.0,0.0,-0.0125758,0.0104614,-0.00136814,0.0,0.0,0.0,0.0,0.0,0.0,0.115702,0.0,0.0,0.0,0.0,0.0,0,1,1,1,1,0,0,0,0,0,0,0
991235943,0,0.0,0.0,0,-5.35698,1.05125,1.43641,0.0,0.0,0.0,-0.0131625,0.0105464,-0.00152541,0.0,0.0,0.0,0.0,0.0,0.0,0.115704,0.0,0.0,0.0,0.0,0.0,0,1,1,1,1,0,0,0,0,0,0,0
991240753,0,0.0,0.0,0,-5.35705,1.0513,1.4364,0.0,0.0,0.0,-0.0136913,0.0106926,-0.00157891,0.0,0.0,0.0,0.0,0.0,0.0,0.115705,0.0,0.0,0.0,0.0,0.0,0,1,1,1,1,0,0,0,0,0,0,0
991246183,0,0.0,0.0,0,-5.35712,1.05136,1.4364,0.0,0.0,0.0,-0.0141703,0.0109483,-0.00166397,0.0,0.0,0.0,0.0,0.0,0.0,0.115707,0.0,0.0,0.0,0.0,0.0,0,1,1,1,1,0,0,0,0,0,0,0
991250811,0,0.0,0.0,0,-5.35719,1.05141,1.43639,0.0,0.0,0.0,-0.0146647,0.01128,-0.00186916,0.0,0.0,0.0,0.0,0.0,0.0,0.115709,0.0,0.0,0.0,0.0,0.0,0,1,1,1,1,0,0,0,0,0,0,0
991256037,0,0.0,0.0,0,-5.35727,1.05147,1.43638,0.0,0.0,0.0,-0.0152196,0.0115624,-0.00198078,0.0,0.0,0.0,0.0,0.0,0.0,0.115711,0.0,0.0,0.0,0.0,0.0,0,1,1,1,1,0,0,0,0,0,0,0
991260787,0,0.0,0.0,0,-5.35735,1.05153,1.43637,0.0,0.0,0.0,-0.0158003,0.0118038,-0.0020038,0.0,0.0,0.0,0.0,0.0,0.0,0.115713,0.0,0.0,0.0,0.0,0.0,0,1,1,1,1,0,0,0,0,0,0,0
991265892,0,0.0,0.0,0,-5.35743,1.05159,1.43636,0.0,0.0,0.0,-0.0163404,0.0119377,-0.00206854,0.0,0.0,0.0,0.0,0.0,0.0,0.115714,0.0,0.0,0.0,0.0,0.0,0,1,1,1,1,0,0,0,0,0,0,0
991271078,0,0.0,0.0,0,-5.35751,1.05165,1.43635,0.0,0.0,0.0,-0.0167967,0.0120267,-0.00230005,0.0,0.0,0.0,0.0,0.0,0.0,0.115719,0.0,0.0,0.0,0.0,0.0,0,1,1,1,1,0,0,0,0,0,0,0
991275812,0,0.0,0.0,0,-5.3576,1.05171,1.43633,0.0,0.0,0.0,-0.0174126,0.0122132,-0.00250257,0.0,0.0,0.0,0.0,0.0,0.0,0.115729,0.0,0.0,0.0,0.0,0.0,0,1,1,1,1,0,0,0,0,0,0,0
991281110,0,0.0,0.0,0,-5.35769,1.05177,1.43632,0.0,0.0,0.0,-0.0180181,0.0123898,-0.00264189,0.0,0.0,0.0,0.0,0.0,0.0,0.115736,0.0,0.0,0.0,0.0,0.0,0,1,1,1,1,0,0,0,0,0,0,0
991286028,0,0.0,0.0,0,-5.35778,1.05184,1.4363,0.0,0.0,0.0,-0.0185749,0.0125495,-0.00289651,0.0,0.0,0.0,0.0,0.0,0.0,0.115738,0.0,0.0,0.0,0.0,0.0,0,1,1,1,1,0,0,0,0,0,0,0
991290990,0,0.0,0.0,0,-5.35788,1.0519,1.43629,0.0,0.0,0.0,-0.0190811,0.0126698,-0.00301309,0.0,0.0,0.0,0.0,0.0,0.0,0.115743,0.0,0.0,0.0,0.0,0.0,0,1,1,1,1,0,0,0,0,0,0,0
991295819,0,0.0,0.0,0,-5.35798,1.05197,1.43627,0.0,0.0,0.0,-0.0195135,0.0127619,-0.00297269,0.0,0.0,0.0,0.0,0.0,0.0,0.115747,0.0,0.0,0.0,0.0,0.0,0,1,1,1,1,0,0,0,0,0,0,0
991300827,0,0.0,0.0,0,-5.35808,1.05203,1.43626,0.0,0.0,0.0,-0.0199949,0.0129456,-0.0030677,0.0,0.0,0.0,0.0,0.0,0.0,0.115747,0.0,0.0,0.0,0.0,0.0,0,1,1,1,1,0,0,0,0,0,0,0
991305927,0,0.0,0.0,0,-5.35818,1.0521,1.43624,0.0,0.0,0.0,-0.0204647,0.0131164,-0.00329304,0.0,0.0,0.0,0.0,0.0,0.0,0.115743,0.0,0.0,0.0,0.0,0.0,0,1,1,1,1,0,0,0,0,0,0,0
991311126,0,0.0,0.0,0,-5.35828,1.05216,1.43623,0.0,0.0,0.0,-0.0209564,0.013283,-0.00339925,0.0,0.0,0.0,0.0,0.0,0.0,0.115742,0.0,0.0,0.0,0.0,0.0,0,1,1,1,1,0,0,0,0,0,0,0
991316109,0,0.0,0.0,0,-5.35839,1.05223,1.43621,0.0,0.0,0.0,-0.0215114,0.0134244,-0.00339272,0.0,0.0,0.0,0.0,0.0,0.0,0.115739,0.0,0.0,0.0,0.0,0.0,0,1,1,1,1,0,0,0,0,0,0,0
991326081,0,0.0,0.0,0,-5.35458,1.05136,1.43687,0.0,0.0,0.0,-0.00879311,0.00976168,-0.00038927,0.0,0.0,0.0,0.0,0.0,0.0,0.115573,0.0,0.0,0.0,0.0,0.0,0,1,1,1,1,0,0,0,0,0,0,0
991331048,0,0.0,0.0,0,-5.35462,1.05141,1.43686,0.0,0.0,0.0,-0.00927972,0.00986675,-0.000587228,0.0,0.0,0.0,0.0,0.0,0.0,0.115567,0.0,0.0,0.0,0.0,0.0,0,1,1,1,1,0,0,0,0,0,0,0
991336328,0,0.0,0.0,0,-5.35467,1.05146,1.43686,0.0,0.0,0.0,-0.00976852,0.00999189,-0.000773698,0.0,0.0,0.0,0.0,0.0,0.0,0.115563,0.0,0.0,0.0,0.0,0.0,0,1,1,1,1,0,0,0,0,0,0,0
991341067,0,0.0,0.0,0,-5.35472,1.05151,1.43686,0.0,0.0,0.0,-0.0103182,0.0101259,-0.00095887,0.0,0.0,0.0,0.0,0.0,0.0,0.115554,0.0,0.0,0.0,0.0,0.0,0,1,1,1,1,0,0,0,0,0,0,0
991345933,0,0.0,0.0,0,-5.35478,1.05156,1.43685,0.0,0.0,0.0,-0.0109395,0.0103025,-0.00100524,0.0,0.0,0.0,0.0,0.0,0.0,0.115542,0.0,0.0,0.0,0.0,0.0,0,1,1,1,1,0,0,0,0,0,0,0
991350984,0,0.0,0.0,0,-5.35484,1.05161,1.43684,0.0,0.0,0.0,-0.011508,0.0104964,-0.00112832,0.0,0.0,0.0,0.0,0.0,0.0,0.115536,0.0,0.0,0.0,0.0,0.0,0,1,1,1,1,0,0,0,0,0,0,0
991356009,0,0.0,0.0,0,-5.3549,1.05167,1.43684,0.0,0.0,0.0,-0.0120971,0.0108138,-0.00136461,0.0,0.0,0.0,0.0,0.0,0.0,0.115532,0.0,0.0,0.0,0.0,0.0,0,1,1,1,1,0,0,0,0,0,0,0
991360905,0,0.0,0.0,0,-5.35496,1.05172,1.43683,0.0,0.0,0.0,-0.0127224,0.0110031,-0.00157316,0.0,0.0,0.0,0.0,0.0,0.0,0.115531,0.0,0.0,0.0,0.0,0.0,0,1,1,1,1,0,0,0,0,0,0,0
991366189,0,0.0,0.0,0,-5.35503,1.05178,1.43682,0.0,0.0,0.0,-0.0133574,0.0110806,-0.00171154,0.0,0.0,0.0,0.0,0.0,0.0,0.115533,0.0,0.0,0.0,0.0,0.0,0,1,1,1,1,0,0,0,0,0,0,0
991371377,0,0.0,0.0,0,-5.3551,1.05184,1.43681,0.0,0.0,0.0,-0.0138322,0.0112262,-0.00183566,0.0,0.0,0.0,0.0,0.0,0.0,0.115529,0.0,0.0,0.0,0.0,0.0,0,1,1,1,1,0,0,0,0,0,0,0
991376572,0,0.0,0.0,0,-5.35517,1.05189,1.4368,0.0,0.0,0.0,-0.0142859,0.0113763,-0.00187739,0.0,0.0,0.0,0.0,0.0,0.0,0.115523,0.0,0.0,0.0,0.0,0.0,0,1,1,1,1,0,0,0,0,0,0,0
991381017,0,0.0,0.0,0,-5.35524,1.05195,1.43679,0.0,0.0,0.0,-0.0147506,0.0115531,-0.00192345,0.0,0.0,0.0,0.0,0.0,0.0,0.115525,0.0,0.0,0.0,0.0,0.0,0,1,1,1,1,0,0,0,0,0,0,0
991385969,0,0.0,0.0,0,-5.35532,1.05201,1.43678,0.0,0.0,0.0,-0.0152894,0.0116884,-0.00219585,0.0,0.0,0.0,0.0,0.0,0.0,0.115532,0.0,0.0,0.0,0.0,0.0,0,1,1,1,1,0,0,0,0,0,0,0
991391643,0,0.0,0.0,0,-5.3554,1.05207,1.43677,0.0,0.0,0.0,-0.0159137,0.0118599,-0.00253826,0.0,0.0,0.0,0.0,0.0,0.0,0.115536,0.0,0.0,0.0,0.0,0.0,0,1,1,1,1,0,0,0,0,0,0,0
991396022,0,0.0,0.0,0,-5.35548,1.05213,1.43676,0.0,0.0,0.0,-0.0165467,0.0121177,-0.00272461,0.0,0.0,0.0,0.0,0.0,0.0,0.115533,0.0,0.0,0.0,0.0,0.0,0,1,1,1,1,0,0,0,0,0,0,0
991401029,0,0.0,0.0,0,-5.35557,1.05219,1.43674,0.0,0.0,0.0,-0.0170826,0.0122665,-0.00293817,0.0,0.0,0.0,0.0,0.0,0.0,0.115526,0.0,0.0,0.0,0.0,0.0,0,1,1,1,1,0,0,0,0,0,0,0
991406218,0,0.0,0.0,0,-5.35565,1.05225,1.43672,0.0,0.0,0.0,-0.0175507,0.0123827,-0.00318806,0.0,0.0,0.0,0.0,0.0,0.0,0.115525,0.0,0.0,0.0,0.0,0.0,0,1,1,1,1,0,0,0,0,0,0,0
991416325,0,0.0,0.0,0,-5.35321,1.05067,1.43707,0.0,0.0,0.0,-0.00666326,0.00700196,-0.000569712,0.0,0.0,0.0,0.0,0.0,0.0,0.115545,0.0,0.0,0.0,0.0,0.0,0,1,1,1,1,0,0,0,0,0,0,0
991421251,0,0.0,0.0,0,-5.35324,1.0507,1.43707,0.0,0.0,0.0,-0.00725261,0.00709642,-0.000757307,0.0,0.0,0.0,0.0,0.0,0.0,0.115544,0.0,0.0,0.0,0.0,0.0,0,1,1,1,1,0,0,0,0,0,0,0
991426187,0,0.0,0.0,0,-5.35328,1.05074,1.43706,0.0,0.0,0.0,-0.00779712,0.00724411,-0.000967101,0.0,0.0,0.0,0.0,0.0,0.0,0.115548,0.0,0.0,0.0,0.0,0.0,0,1,1,1,1,0,0,0,0,0,0,0
991431058,0,0.0,0.0,0,-5.35332,1.05077,1.43706,0.0,0.0,0.0,-0.00836474,0.00745478,-0.00110682,0.0,0.0,0.0,0.0,0.0,0.0,0.115547,0.0,0.0,0.0,0.0,0.0,0,1,1,1,1,0,0,0,0,0,0,0
991436360,0,0.0,0.0,0,-5.35337,1.05081,1.43705,0.0,0.0,0.0,-0.00895204,0.00767352,-0.0011396,0.0,0.0,0.0,0.0,0.0,0.0,0.115541,0.0,0.0,0.0,0.0,0.0,0,1,1,1,1,0,0,0,0,0,0,0
991441006,0,0.0,0.0,0,-5.35342,1.05085,1.43705,0.0,0.0,0.0,-0.0094791,0.00782739,-0.00117613,0.0,0.0,0.0,0.0,0.0,0.0,0.11554,0.0,0.0,0.0,0.0,0.0,0,1,1,1,1,0,0,0,0,0,0,0
991446095,0,0.0,0.0,0,-5.35347,1.05089,1.43704,0.0,0.0,0.0,-0.0100341,0.00797166,-0.00132632,0.0,0.0,0.0,0.0,0.0,0.0,0.115539,0.0,0.0,0.0,0.0,0.0,0,1,1,1,1,0,0,0,0,0,0,0
991451349,0,0.0,0.0,0,-5.35352,1.05093,1.43703,0.0,0.0,0.0,-0.0104764,0.00814072,-0.00153119,0.0,0.0,0.0,0.0,0.0,0.0,0.115528,0.0,0.0,0.0,0.0,0.0,0,1,1,1,1,0,0,0,0,0,0,0
991456028,0,0.0,0.0,0,-5.35357,1.05097,1.43702,0.0,0.0,0.0,-0.0108835,0.00831784,-0.00174886,0.0,0.0,0.0,0.0,0.0,0.0,0.115513,0.0,0.0,0.0,0.0,0.0,0,1,1,1,1,0,0,0,0,0,0,0
991461204,0,0.0,0.0,0,-5.35363,1.05102,1.43701,0.0,0.0,0.0,-0.0113917,0.00838072,-0.00187828,0.0,0.0,0.0,0.0,0.0,0.0,0.115504,0.0,0.0,0.0,0.0,0.0,0,1,1,1,1,0,0,0,0,0,0,0
991466097,0,0.0,0.0,0,-5.35369,1.05106,1.437,0.0,0.0,0.0,-0.0119415,0.00842762,-0.00197082,0.0,0.0,0.0,0.0,0.0,0.0,0.115498,0.0,0.0,0.0,0.0,0.0,0,1,1,1,1,0,0,0,0,0,0,0
991471343,0,0.0,0.0,0,-5.35375,1.0511,1.43699,0.0,0.0,0.0,-0.0123849,0.00856054,-0.00200874,0.0,0.0,0.0,0.0,0.0,0.0,0.115497,0.0,0.0,0.0,0.0,0.0,0,1,1,1,1,0,0,0,0,0,0,0
991476490,0,0.0,0.0,0,-5.35382,1.05115,1.43698,0.0,0.0,0.0,-0.0128235,0.00873441,-0.0022295,0.0,0.0,0.0,0.0,0.0,0.0,0.115496,0.0,0.0,0.0,0.0,0.0,0,1,1,1,1,0,0,0,0,0,0,0
991481098,0,0.0,0.0,0,-5.35388,1.05119,1.43697,0.0,0.0,0.0,-0.0133347,0.00886978,-0.00253847,0.0,0.0,0.0,0.0,0.0,0.0,0.115498,0.0,0.0,0.0,0.0,0.0,0,1,1,1,1,0,0,0,0,0,0,0
991486240,0,0.0,0.0,0,-5.35395,1.05123,1.43696,0.0,0.0,0.0,-0.0138585,0.00892606,-0.00271087,0.0,0.0,0.0,0.0,0.0,0.0,0.115497,0.0,0.0,0.0,0.0,0.0,0,1,1,1,1,0,0,0,0,0,0,0
991491867,0,0.0,0.0,0,-5.35402,1.05128,1.43694,0.0,0.0,0.0,-0.014434,0.00898082,-0.00283468,0.0,0.0,0.0,0.0,0.0,0.0,0.115491,0.0,0.0,0.0,0.0,0.0,0,1,1,1,1,0,0,0,0,0,0,0
991496336,0,0.0,0.0,0,-5.3541,1.05133,1.43693,0.0,0.0,0.0,-0.0149297,0.00909497,-0.00304871,0.0,0.0,0.0,0.0,0.0,0.0,0.115488,0.0,0.0,0.0,0.0,0.0,0,1,1,1,1,0,0,0,0,0,0,0
991501069,0,0.0,0.0,0,-5.35418,1.05137,1.43691,0.0,0.0,0.0,-0.0153921,0.00928332,-0.00314284,0.0,0.0,0.0,0.0,0.0,0.0,0.115484,0.0,0.0,0.0,0.0,0.0,0,1,1,1,1,0,0,0,0,0,0,0
991506192,0,0.0,0.0,0,-5.35426,1.05142,1.4369,0.0,0.0,0.0,-0.0159471,0.00943976,-0.00328541,0.0,0.0,0.0,0.0,0.0,0.0,0.115486,0.0,0.0,0.0,0.0,0.0,0,1,1,1,1,0,0,0,0,0,0,0
991511157,0,0.0,0.0,0,-5.35434,1.05147,1.43688,0.0,0.0,0.0,-0.0164336,0.00951308,-0.00358948,0.0,0.0,0.0,0.0,0.0,0.0,0.115493,0.0,0.0,0.0,0.0,0.0,0,1,1,1,1,0,0,0,0,0,0,0
991516294,0,0.0,0.0,0,-5.35442,1.05151,1.43686,0.0,0.0,0.0,-0.0168795,0.00957379,-0.0039495,0.0,0.0,0.0,0.0,0.0,0.0,0.115495,0.0,0.0,0.0,0.0,0.0,0,1,1,1,1,0,0,0,0,0,0,0
991521143,0,0.0,0.0,0,-5.35451,1.05156,1.43684,0.0,0.0,0.0,-0.0173967,0.00971373,-0.00410835,0.0,0.0,0.0,0.0,0.0,0.0,0.115494,0.0,0.0,0.0,0.0,0.0,0,1,1,1,1,0,0,0,0,0,0,0
991526133,0,0.0,0.0,0,-5.3546,1.05161,1.43682,0.0,0.0,0.0,-0.0178393,0.00987125,-0.00422595,0.0,0.0,0.0,0.0,0.0,0.0,0.115496,0.0,0.0,0.0,0.0,0.0,0,1,1,1,1,0,0,0,0,0,0,0
991531588,0,0.0,0.0,0,-5.35469,1.05166,1.43679,0.0,0.0,0.0,-0.0183747,0.00986947,-0.00434534,0.0,0.0,0.0,0.0,0.0,0.0,0.115497,0.0,0.0,0.0,0.0,0.0,0,1,1,1,1,0,0,0,0,0,0,0
991536127,0,0.0,0.0,0,-5.35298,1.0511,1.43724,0.0,0.0,0.0,-0.00874176,0.00702612,-0.00135667,0.0,0.0,0.0,0.0,0.0,0.0,0.115439,0.0,0.0,0.0,0.0,0.0,0,1,1,1,1,0,0,0,0,0,0,0
991541200,0,0.0,0.0,0,-5.35303,1.05113,1.43724,0.0,0.0,0.0,-0.0093583,0.00713005,-0.00134546,0.0,0.0,0.0,0.0,0.0,0.0,0.115436,0.0,0.0,0.0,0.0,0.0,0,1,1,1,1,0,0,0,0,0,0,0
991546223,0,0.0,0.0,0,-5.35308,1.05117,1.43723,0.0,0.0,0.0,-0.00988157,0.00732323,-0.00161516,0.0,0.0,0.0,0.0,0.0,0.0,0.115438,0.0,0.0,0.0,0.0,0.0,0,1,1,1,1,0,0,0,0,0,0,0
991551278,0,0.0,0.0,0,-5.35313,1.05121,1.43722,0.0,0.0,0.0,-0.0103881,0.00756974,-0.00192609,0.0,0.0,0.0,0.0,0.0,0.0,0.115439,0.0,0.0,0.0,0.0,0.0,0,1,1,1,1,0,0,0,0,0,0,0
991556212,0,0.0,0.0,0,-5.35318,1.05124,1.43721,0.0,0.0,0.0,-0.0109659,0.00778123,-0.00216732,0.0,0.0,0.0,0.0,0.0,0.0,0.115436,0.0,0.0,0.0,0.0,0.0,0,1,1,1,1,0,0,0,0,0,0,0
991561197,0,0.0,0.0,0,-5.35324,1.05129,1.43719,0.0,0.0,0.0,-0.0114891,0.00803964,-0.00239915,0.0,0.0,0.0,0.0,0.0,0.0,0.115427,0.0,0.0,0.0,0.0,0.0,0,1,1,1,1,0,0,0,0,0,0,0
991566154,0,0.0,0.0,0,-5.3533,1.05133,1.43718,0.0,0.0,0.0,-0.0119358,0.00836381,-0.00260674,0.0,0.0,0.0,0.0,0.0,0.0,0.115426,0.0,0.0,0.0,0.0,0.0,0,1,1,1,1,0,0,0,0,0,0,0
991571652,0,0.0,0.0,0,-5.35336,1.05137,1.43717,0.0,0.0,0.0,-0.0123891,0.00858967,-0.0026814,0.0,0.0,0.0,0.0,0.0,0.0,0.115428,0.0,0.0,0.0,0.0,0.0,0,1,1,1,1,0,0,0,0,0,0,0
991576169,0,0.0,0.0,0,-5.35343,1.05141,1.43715,0.0,0.0,0.0,-0.0128535,0.00879591,-0.00286588,0.0,0.0,0.0,0.0,0.0,0.0,0.115424,0.0,0.0,0.0,0.0,0.0,0,1,1,1,1,0,0,0,0,0,0,0
991581178,0,0.0,0.0,0,-5.3535,1.05146,1.43714,0.0,0.0,0.0,-0.0134405,0.00891843,-0.00310459,0.0,0.0,0.0,0.0,0.0,0.0,0.11542,0.0,0.0,0.0,0.0,0.0,0,1,1,1,1,0,0,0,0,0,0,0
991586134,0,0.0,0.0,0,-5.35357,1.0515,1.43712,0.0,0.0,0.0,-0.0140588,0.00899131,-0.00344412,0.0,0.0,0.0,0.0,0.0,0.0,0.115417,0.0,0.0,0.0,0.0,0.0,0,1,1,1,1,0,0,0,0,0,0,0
991591232,0,0.0,0.0,0,-5.35364,1.05155,1.4371,0.0,0.0,0.0,-0.0145461,0.00915444,-0.00364676,0.0,0.0,0.0,0.0,0.0,0.0,0.11541,0.0,0.0,0.0,0.0,0.0,0,1,1,1,1,0,0,0,0,0,0,0
991596305,0,0.0,0.0,0,-5.35371,1.0516,1.43708,0.0,0.0,0.0,-0.0150941,0.00933697,-0.0037023,0.0,0.0,0.0,0.0,0.0,0.0,0.115401,0.0,0.0,0.0,0.0,0.0,0,1,1,1,1,0,0,0,0,0,0,0
991601604,0,0.0,0.0,0,-5.35379,1.05164,1.43707,0.0,0.0,0.0,-0.0156896,0.0094677,-0.00387001,0.0,0.0,0.0,0.0,0.0,0.0,0.1154,0.0,0.0,0.0,0.0,0.0,0,1,1,1,1,0,0,0,0,0,0,0
991606271,0,0.0,0.0,0,-5.35387,1.05169,1.43704,0.0,0.0,0.0,-0.0162815,0.00958469,-0.00415202,0.0,0.0,0.0,0.0,0.0,0.0,0.115402,0.0,0.0,0.0,0.0,0.0,0,1,1,1,1,0,0,0,0,0,0,0
991611386,0,0.0,0.0,0,-5.35396,1.05174,1.43702,0.0,0.0,0.0,-0.0168626,0.00971181,-0.00438723,0.0,0.0,0.0,0.0,0.0,0.0,0.115396,0.0,0.0,0.0,0.0,0.0,0,1,1,1,1,0,0,0,0,0,0,0
991616283,0,0.0,0.0,0,-5.35488,1.04877,1.43481,0.0,0.0,0.0,-0.0103964,0.00134152,-0.00724287,0.0,0.0,0.0,0.0,0.0,0.0,0.115553,0.0,0.0,0.0,0.0,0.0,0,1,1,1,1,0,0,0,0,0,0,0
991621242,0,0.0,0.0,0,-5.35493,1.04878,1.43477,0.0,0.0,0.0,-0.010863,0.00147126,-0.00745143,0.0,0.0,0.0,0.0,0.0,0.0,0.115552,0.0,0.0,0.0,0.0,0.0,0,1,1,1,1,0,0,0,0,0,0,0
991626348,0,0.0,0.0,0,-5.35499,1.04879,1.43473,0.0,0.0,0.0,-0.0113587,0.00157822,-0.00762722,0.0,0.0,0.0,0.0,0.0,0.0,0.115552,0.0,0.0,0.0,0.0,0.0,0,1,1,1,1,0,0,0,0,0,0,0
991631437,0,0.0,0.0,0,-5.35505,1.04879,1.43469,0.0,0.0,0.0,-0.011887,0.00169428,-0.00774322,0.0,0.0,0.0,0.0,0.0,0.0,0.115551,0.0,0.0,0.0,0.0,0.0,0,1,1,1,1,0,0,0,0,0,0,0
991636333,0,0.0,0.0,0,-5.35511,1.0488,1.43465,0.0,0.0,0.0,-0.0124393,0.00187068,-0.00789574,0.0,0.0,0.0,0.0,0.0,0.0,0.11555,0.0,0.0,0.0,0.0,0.0,0,1,1,1,1,0,0,0,0,0,0,0
991641346,0,0.0,0.0,0,-5.35517,1.04881,1.43461,0.0,0.0,0.0,-0.0129462,0.0020685,-0.00805775,0.0,0.0,0.0,0.0,0.0,0.0,0.115554,0.0,0.0,0.0,0.0,0.0,0,1,1,1,1,0,0,0,0,0,0,0
991646306,0,0.0,0.0,0,-5.35524,1.04883,1.43457,0.0,0.0,0.0,-0.0135374,0.0022419,-0.00814212,0.0,0.0,0.0,0.0,0.0,0.0,0.115562,0.0,0.0,0.0,0.0,0.0,0,1,1,1,1,0,0,0,0,0,0,0
991651373,0,0.0,0.0,0,-5.35531,1.04884,1.43453,0.0,0.0,0.0,-0.0141923,0.00233983,-0.00822316,0.0,0.0,0.0,0.0,0.0,0.0,0.115566,0.0,0.0,0.0,0.0,0.0,0,1,1,1,1,0,0,0,0,0,0,0
991656321,0,0.0,0.0,0,-5.35539,1.04885,1.43449,0.0,0.0,0.0,-0.0148487,0.00240815,-0.00836662,0.0,0.0,0.0,0.0,0.0,0.0,0.115571,0.0,0.0,0.0,0.0,0.0,0,1,1,1,1,0,0,0,0,0,0,0
991661545,0,0.0,0.0,0,-5.35546,1.04886,1.43445,0.0,0.0,0.0,-0.0154541,0.00252302,-0.00847682,0.0,0.0,0.0,0.0,0.0,0.0,0.115575,0.0,0.0,0.0,0.0,0.0,0,1,1,1,1,0,0,0,0,0,0,0
991666280,0,0.0,0.0,0,-5.35554,1.04888,1.4344,0.0,0.0,0.0,-0.0159624,0.00275681,-0.00861995,0.0,0.0,0.0,0.0,0.0,0.0,0.115575,0.0,0.0,0.0,0.0,0.0,0,1,1,1,1,0,0,0,0,0,0,0
991671647,0,0.0,0.0,0,-5.35563,1.04889,1.43436,0.0,0.0,0.0,-0.0164446,0.00296807,-0.00883426,0.0,0.0,0.0,0.0,0.0,0.0,0.115571,0.0,0.0,0.0,0.0,0.0,0,1,1,1,1,0,0,0,0,0,0,0
991676368,0,0.0,0.0,0,-5.35571,1.04891,1.43431,0.0,0.0,0.0,-0.0170101,0.00307246,-0.0090795,0.0,0.0,0.0,0.0,0.0,0.0,0.115568,0.0,0.0,0.0,0.0,0.0,0,1,1,1,1,0,0,0,0,0,0,0
991681470,0,0.0,0.0,0,-5.3558,1.04892,1.43427,0.0,0.0,0.0,-0.0175067,0.00315169,-0.00919141,0.0,0.0,0.0,0.0,0.0,0.0,0.115567,0.0,0.0,0.0,0.0,0.0,0,1,1,1,1,0,0,0,0,0,0,0
991686497,0,0.0,0.0,0,-5.35589,1.04894,1.43422,0.0,0.0,0.0,-0.0180204,0.00330925,-0.00927722,0.0,0.0,0.0,0.0,0.0,0.0,0.115569,0.0,0.0,0.0,0.0,0.0,0,1,1,1,1,0,0,0,0,0,0,0
991692365,0,0.0,0.0,0,-5.35598,1.04896,1.43417,0.0,0.0,0.0,-0.0186484,0.00355008,-0.00931904,0.0,0.0,0.0,0.0,0.0,0.0,0.115571,0.0,0.0,0.0,0.0,0.0,0,1,1,1,1,0,0,0,0,0,0,0
991696368,0,0.0,0.0,0,-5.35608,1.04897,1.43413,0.0,0.0,0.0,-0.0192145,0.00373155,-0.00948715,0.0,0.0,0.0,0.0,0.0,0.0,0.115573,0.0,0.0,0.0,0.0,0.0,0,1,1,1,1,0,0,0,0,0,0,0
991701392,0,0.0,0.0,0,-5.35618,1.04899,1.43408,0.0,0.0,0.0,-0.0197413,0.00380634,-0.00981935,0.0,0.0,0.0,0.0,0.0,0.0,0.115577,0.0,0.0,0.0,0.0,0.0,0,1,1,1,1,0,0,0,0,0,0,0
991706753,0,0.0,0.0,0,-5.35628,1.04901,1.43403,0.0,0.0,0.0,-0.0201323,0.00391346,-0.0101675,0.0,0.0,0.0,0.0,0.0,0.0,0.115582,0.0,0.0,0.0,0.0,0.0,0,1,1,1,1,0,0,0,0,0,0,0
991721417,0,0.0,0.0,0,-5.35331,1.04815,1.43484,0.0,0.0,0.0,-0.00870002,0.000855572,-0.0070113,0.0,0.0,0.0,0.0,0.0,0.0,0.115605,0.0,0.0,0.0,0.0,0.0,0,1,1,1,1,0,0,0,0,0,0,0
991726470,0,0.0,0.0,0,-5.35335,1.04816,1.4348,0.0,0.0,0.0,-0.00922055,0.000962052,-0.00728775,0.0,0.0,0.0,0.0,0.0,0.0,0.115604,0.0,0.0,0.0,0.0,0.0,0,1,1,1,1,0,0,0,0,0,0,0
991731440,0,0.0,0.0,0,-5.3534,1.04816,1.43476,0.0,0.0,0.0,-0.00985368,0.00110388,-0.00752305,0.0,0.0,0.0,0.0,0.0,0.0,0.115601,0.0,0.0,0.0,0.0,0.0,0,1,1,1,1,0,0,0,0,0,0,0
991736496,0,0.0,0.0,0,-5.35345,1.04817,1.43472,0.0,0.0,0.0,-0.0104451,0.00133593,-0.00772199,0.0,0.0,0.0,0.0,0.0,0.0,0.115597,0.0,0.0,0.0,0.0,0.0,0,1,1,1,1,0,0,0,0,0,0,0
991741437,0,0.0,0.0,0,-5.35351,1.04818,1.43468,0.0,0.0,0.0,-0.0110948,0.00152606,-0.00787893,0.0,0.0,0.0,0.0,0.0,0.0,0.115602,0.0,0.0,0.0,0.0,0.0,0,1,1,1,1,0,0,0,0,0,0,0
991746513,0,0.0,0.0,0,-5.35357,1.04819,1.43464,0.0,0.0,0.0,-0.0116956,0.00176492,-0.00808967,0.0,0.0,0.0,0.0,0.0,0.0,0.115599,0.0,0.0,0.0,0.0,0.0,0,1,1,1,1,0,0,0,0,0,0,0
991751405,0,0.0,0.0,0,-5.35363,1.0482,1.4346,0.0,0.0,0.0,-0.012272,0.00192388,-0.00840564,0.0,0.0,0.0,0.0,0.0,0.0,0.115588,0.0,0.0,0.0,0.0,0.0,0,1,1,1,1,0,0,0,0,0,0,0
991756544,0,0.0,0.0,0,-5.35369,1.04821,1.43456,0.0,0.0,0.0,-0.0128871,0.00192696,-0.00884324,0.0,0.0,0.0,0.0,0.0,0.0,0.115582,0.0,0.0,0.0,0.0,0.0,0,1,1,1,1,0,0,0,0,0,0,0
991761431,0,0.0,0.0,0,-5.35376,1.04822,1.43451,0.0,0.0,0.0,-0.0134283,0.00195583,-0.00921211,0.0,0.0,0.0,0.0,0.0,0.0,0.115581,0.0,0.0,0.0,0.0,0.0,0,1,1,1,1,0,0,0,0,0,0,0
991766506,0,0.0,0.0,0,-5.35383,1.04823,1.43446,0.0,0.0,0.0,-0.013914,0.00204292,-0.00939807,0.0,0.0,0.0,0.0,0.0,0.0,0.115583,0.0,0.0,0.0,0.0,0.0,0,1,1,1,1,0,0,0,0,0,0,0
991772043,0,0.0,0.0,0,-5.3539,1.04824,1.43442,0.0,0.0,0.0,-0.0144646,0.00221205,-0.00950955,0.0,0.0,0.0,0.0,0.0,0.0,0.115587,0.0,0.0,0.0,0.0,0.0,0,1,1,1,1,0,0,0,0,0,0,0
991776821,0,0.0,0.0,0,-5.35398,1.04825,1.43437,0.0,0.0,0.0,-0.0149577,0.00239909,-0.00968593,0.0,0.0,0.0,0.0,0.0,0.0,0.115594,0.0,0.0,0.0,0.0,0.0,0,1,1,1,1,0,0,0,0,0,0,0
991781548,0,0.0,0.0,0,-5.35406,1.04826,1.43432,0.0,0.0,0.0,-0.0154567,0.00249563,-0.00995464,0.0,0.0,0.0,0.0,0.0,0.0,0.115599,0.0,0.0,0.0,0.0,0.0,0,1,1,1,1,0,0,0,0,0,0,0
991786607,0,0.0,0.0,0,-5.35414,1.04828,1.43427,0.0,0.0,0.0,-0.0159574,0.00260922,-0.0101685,0.0,0.0,0.0,0.0,0.0,0.0,0.115598,0.0,0.0,0.0,0.0,0.0,0,1,1,1,1,0,0,0,0,0,0,0
991792244,0,0.0,0.0,0,-5.35422,1.04829,1.43421,0.0,0.0,0.0,-0.0165247,0.00280195,-0.0104303,0.0,0.0,0.0,0.0,0.0,0.0,0.115597,0.0,0.0,0.0,0.0,0.0,0,1,1,1,1,0,0,0,0,0,0,0
991796587,0,0.0,0.0,0,-5.3543,1.0483,1.43416,0.0,0.0,0.0,-0.0170625,0.00295991,-0.010601,0.0,0.0,0.0,0.0,0.0,0.0,0.115599,0.0,0.0,0.0,0.0,0.0,0,1,1,1,1,0,0,0,0,0,0,0
991801570,0,0.0,0.0,0,-5.35439,1.04832,1.43411,0.0,0.0,0.0,-0.0176016,0.00302876,-0.010797,0.0,0.0,0.0,0.0,0.0,0.0,0.115601,0.0,0.0,0.0,0.0,0.0,0,1,1,1,1,0,0,0,0,0,0,0
991811549,0,0.0,0.0,0,-5.35223,1.04983,1.4368,0.0,0.0,0.0,-0.00781432,0.00498765,-0.00266318,0.0,0.0,0.0,0.0,0.0,0.0,0.115513,0.0,0.0,0.0,0.0,0.0,0,1,1,1,1,0,0,0,0,0,0,0
991816541,0,0.0,0.0,0,-5.35227,1.04986,1.43679,0.0,0.0,0.0,-0.00841951,0.00508669,-0.00280366,0.0,0.0,0.0,0.0,0.0,0.0,0.115523,0.0,0.0,0.0,0.0,0.0,0,1,1,1,1,0,0,0,0,0,0,0
991821644,0,0.0,0.0,0,-5.35232,1.04988,1.43678,0.0,0.0,0.0,-0.00901657,0.00520905,-0.00303177,0.0,0.0,0.0,0.0,0.0,0.0,0.115525,0.0,0.0,0.0,0.0,0.0,0,1,1,1,1,0,0,0,0,0,0,0
991826605,0,0.0,0.0,0,-5.35237,1.04991,1.43676,0.0,0.0,0.0,-0.00961192,0.0053842,-0.00322579,0.0,0.0,0.0,0.0,0.0,0.0,0.115519,0.0,0.0,0.0,0.0,0.0,0,1,1,1,1,0,0,0,0,0,0,0
991831702,0,0.0,0.0,0,-5.35242,1.04994,1.43674,0.0,0.0,0.0,-0.0102868,0.00549407,-0.00338077,0.0,0.0,0.0,0.0,0.0,0.0,0.115515,0.0,0.0,0.0,0.0,0.0,0,1,1,1,1,0,0,0,0,0,0,0
991836594,0,0.0,0.0,0,-5.35247,1.04996,1.43672,0.0,0.0,0.0,-0.0108611,0.00551636,-0.00370183,0.0,0.0,0.0,0.0,0.0,0.0,0.115522,0.0,0.0,0.0,0.0,0.0,0,1,1,1,1,0,0,0,0,0,0,0
991841563,0,0.0,0.0,0,-5.35253,1.04999,1.4367,0.0,0.0,0.0,-0.0114194,0.00557357,-0.00398463,0.0,0.0,0.0,0.0,0.0,0.0,0.115532,0.0,0.0,0.0,0.0,0.0,0,1,1,1,1,0,0,0,0,0,0,0
991846660,0,0.0,0.0,0,-5.35259,1.05002,1.43668,0.0,0.0,0.0,-0.0119567,0.0056579,-0.00422912,0.0,0.0,0.0,0.0,0.0,0.0,0.115532,0.0,0.0,0.0,0.0,0.0,0,1,1,1,1,0,0,0,0,0,0,0
991851623,0,0.0,0.0,0,-5.35265,1.05005,1.43666,0.0,0.0,0.0,-0.0124505,0.00567358,-0.00453624,0.0,0.0,0.0,0.0,0.0,0.0,0.115525,0.0,0.0,0.0,0.0,0.0,0,1,1,1,1,0,0,0,0,0,0,0
991856865,0,0.0,0.0,0,-5.35272,1.05008,1.43664,0.0,0.0,0.0,-0.0129934,0.00568172,-0.00471947,0.0,0.0,0.0,0.0,0.0,0.0,0.11553,0.0,0.0,0.0,0.0,0.0,0,1,1,1,1,0,0,0,0,0,0,0
991861662,0,0.0,0.0,0,-5.35278,1.05011,1.43661,0.0,0.0,0.0,-0.0135463,0.00575056,-0.00482882,0.0,0.0,0.0,0.0,0.0,0.0,0.115539,0.0,0.0,0.0,0.0,0.0,0,1,1,1,1,0,0,0,0,0,0,0
991866909,0,0.0,0.0,0,-5.35285,1.05014,1.43659,0.0,0.0,0.0,-0.0140684,0.00583185,-0.00492345,0.0,0.0,0.0,0.0,0.0,0.0,0.115544,0.0,0.0,0.0,0.0,0.0,0,1,1,1,1,0,0,0,0,0,0,0
991871956,0,0.0,0.0,0,-5.35293,1.05016,1.43656,0.0,0.0,0.0,-0.014613,0.00592929,-0.00508511,0.0,0.0,0.0,0.0,0.0,0.0,0.115543,0.0,0.0,0.0,0.0,0.0,0,1,1,1,1,0,0,0,0,0,0,0
991876669,0,0.0,0.0,0,-5.353,1.05019,1.43654,0.0,0.0,0.0,-0.0150588,0.0060073,-0.00522488,0.0,0.0,0.0,0.0,0.0,0.0,0.115542,0.0,0.0,0.0,0.0,0.0,0,1,1,1,1,0,0,0,0,0,0,0
991881909,0,0.0,0.0,0,-5.35308,1.05023,1.43651,0.0,0.0,0.0,-0.0155426,0.00605946,-0.00544607,0.0,0.0,0.0,0.0,0.0,0.0,0.115546,0.0,0.0,0.0,0.0,0.0,0,1,1,1,1,0,0,0,0,0,0,0
991886826,0,0.0,0.0,0,-5.35316,1.05026,1.43648,0.0,0.0,0.0,-0.0160909,0.00618983,-0.00557684,0.0,0.0,0.0,0.0,0.0,0.0,0.115545,0.0,0.0,0.0,0.0,0.0,0,1,1,1,1,0,0,0,0,0,0,0
991891733,0,0.0,0.0,0,-5.35324,1.05029,1.43645,0.0,0.0,0.0,-0.0166666,0.00635501,-0.00560515,0.0,0.0,0.0,0.0,0.0,0.0,0.115536,0.0,0.0,0.0,0.0,0.0,0,1,1,1,1,0,0,0,0,0,0,0
991896745,0,0.0,0.0,0,-5.35333,1.05032,1.43642,0.0,0.0,0.0,-0.0171619,0.00640717,-0.00575098,0.0,0.0,0.0,0.0,0.0,0.0,0.11553,0.0,0.0,0.0,0.0,0.0,0,1,1,1,1,0,0,0,0,0,0,0
991901674,0,0.0,0.0,0,-5.35342,1.05035,1.43639,0.0,0.0,0.0,-0.0176021,0.00645526,-0.00601646,0.0,0.0,0.0,0.0,0.0,0.0,0.115535,0.0,0.0,0.0,0.0,0.0,0,1,1,1,1,0,0,0,0,0,0,0
991906709,0,0.0,0.0,0,-5.35351,1.05039,1.43636,0.0,0.0,0.0,-0.018089,0.00662102,-0.00631943,0.0,0.0,0.0,0.0,0.0,0.0,0.115547,0.0,0.0,0.0,0.0,0.0,0,1,1,1,1,0,0,0,0,0,0,0
991911653,0,0.0,0.0,0,-5.3536,1.05042,1.43633,0.0,0.0,0.0,-0.0186189,0.00671884,-0.00656045,0.0,0.0,0.0,0.0,0.0,0.0,0.115554,0.0,0.0,0.0,0.0,0.0,0,1,1,1,1,0,0,0,0,0,0,0
991916801,0,0.0,0.0,0,-5.3537,1.05045,1.4363,0.0,0.0,0.0,-0.0191329,0.0068601,-0.00672786,0.0,0.0,0.0,0.0,0.0,0.0,0.115553,0.0,0.0,0.0,0.0,0.0,0,1,1,1,1,0,0,0,0,0,0,0
991922118,0,0.0,0.0,0,-5.3538,1.05049,1.43626,0.0,0.0,0.0,-0.0196001,0.00693381,-0.00674062,0.0,0.0,0.0,0.0,0.0,0.0,0.11555,0.0,0.0,0.0,0.0,0.0,0,1,1,1,1,0,0,0,0,0,0,0
991926660,0,0.0,0.0,0,-5.3539,1.05052,1.43623,0.0,0.0,0.0,-0.0201558,0.00697532,-0.0068137,0.0,0.0,0.0,0.0,0.0,0.0,0.115549,0.0,0.0,0.0,0.0,0.0,0,1,1,1,1,0,0,0,0,0,0,0
991936789,0,0.0,0.0,0,-5.35321,1.05029,1.43628,0.0,0.0,0.0,-0.0122974,0.005104,-0.00477014,0.0,0.0,0.0,0.0,0.0,0.0,0.115517,0.0,0.0,0.0,0.0,0.0,0,1,1,1,1,0,0,0,0,0,0,0
991941712,0,0.0,0.0,0,-5.35327,1.05031,1.43626,0.0,0.0,0.0,-0.0127903,0.00530811,-0.0049417,0.0,0.0,0.0,0.0,0.0,0.0,0.115513,0.0,0.0,0.0,0.0,0.0,0,1,1,1,1,0,0,0,0,0,0,0
991947053,0,0.0,0.0,0,-5.35334,1.05034,1.43623,0.0,0.0,0.0,-0.0132933,0.00552699,-0.00512136,0.0,0.0,0.0,0.0,0.0,0.0,0.11552,0.0,0.0,0.0,0.0,0.0,0,1,1,1,1,0,0,0,0,0,0,0
991951729,0,0.0,0.0,0,-5.35341,1.05037,1.4362,0.0,0.0,0.0,-0.0138039,0.00564966,-0.00524709,0.0,0.0,0.0,0.0,0.0,0.0,0.115525,0.0,0.0,0.0,0.0,0.0,0,1,1,1,1,0,0,0,0,0,0,0
991956885,0,0.0,0.0,0,-5.35348,1.0504,1.43618,0.0,0.0,0.0,-0.0143463,0.00570489,-0.00535063,0.0,0.0,0.0,0.0,0.0,0.0,0.115518,0.0,0.0,0.0,0.0,0.0,0,1,1,1,1,0,0,0,0,0,0,0
991961824,0,0.0,0.0,0,-5.35356,1.05043,1.43615,0.0,0.0,0.0,-0.0149371,0.00588565,-0.00549963,0.0,0.0,0.0,0.0,0.0,0.0,0.115515,0.0,0.0,0.0,0.0,0.0,0,1,1,1,1,0,0,0,0,0,0,0
991967104,0,0.0,0.0,0,-5.35363,1.05046,1.43612,0.0,0.0,0.0,-0.0155571,0.00613377,-0.0057089,0.0,0.0,0.0,0.0,0.0,0.0,0.115511,0.0,0.0,0.0,0.0,0.0,0,1,1,1,1,0,0,0,0,0,0,0
991972177,0,0.0,0.0,0,-5.35371,1.05049,1.43609,0.0,0.0,0.0,-0.016122,0.00639318,-0.00588031,0.0,0.0,0.0,0.0,0.0,0.0,0.115505,0.0,0.0,0.0,0.0,0.0,0,1,1,1,1,0,0,0,0,0,0,0
991976783,0,0.0,0.0,0,-5.3538,1.05052,1.43606,0.0,0.0,0.0,-0.0166687,0.0065751,-0.00601065,0.0,0.0,0.0,0.0,0.0,0.0,0.115502,0.0,0.0,0.0,0.0,0.0,0,1,1,1,1,0,0,0,0,0,0,0
991981813,0,0.0,0.0,0,-5.35388,1.05056,1.43603,0.0,0.0,0.0,-0.0172732,0.00673734,-0.00616674,0.0,0.0,0.0,0.0,0.0,0.0,0.115498,0.0,0.0,0.0,0.0,0.0,0,1,1,1,1,0,0,0,0,0,0,0
991986791,0,0.0,0.0,0,-5.35397,1.05059,1.436,0.0,0.0,0.0,-0.0179841,0.00696881,-0.00644852,0.0,0.0,0.0,0.0,0.0,0.0,0.115502,0.0,0.0,0.0,0.0,0.0,0,1,1,1,1,0,0,0,0,0,0,0
991992015,0,0.0,0.0,0,-5.35407,1.05063,1.43596,0.0,0.0,0.0,-0.0186044,0.00719644,-0.00689428,0.0,0.0,0.0,0.0,0.0,0.0,0.115506,0.0,0.0,0.0,0.0,0.0,0,1,1,1,1,0,0,0,0,0,0,0
991996881,0,0.0,0.0,0,-5.35416,1.05066,1.43593,0.0,0.0,0.0,-0.0191123,0.00739935,-0.00725909,0.0,0.0,0.0,0.0,0.0,0.0,0.115503,0.0,0.0,0.0,0.0,0.0,0,1,1,1,1,0,0,0,0,0,0,0
992001748,0,0.0,0.0,0,-5.35426,1.0507,1.43589,0.0,0.0,0.0,-0.0196401,0.00754059,-0.00757448,0.0,0.0,0.0,0.0,0.0,0.0,0.115502,0.0,0.0,0.0,0.0,0.0,0,1,1,1,1,0,0,0,0,0,0,0
992012019,0,0.0,0.0,0,-5.35558,1.04751,1.43672,0.0,0.0,0.0,-0.0148619,-0.00110672,-0.00360487,0.0,0.0,0.0,0.0,0.0,0.0,0.115645,0.0,0.0,0.0,0.0,0.0,0,1,1,1,1,0,0,0,0,0,0,0
992016859,0,0.0,0.0,0,-5.35566,1.0475,1.4367,0.0,0.0,0.0,-0.0153354,-0.000969291,-0.00386534,0.0,0.0,0.0,0.0,0.0,0.0,0.115652,0.0,0.0,0.0,0.0,0.0,0,1,1,1,1,0,0,0,0,0,0,0
992022436,0,0.0,0.0,0,-5.35574,1.0475,1.43668,0.0,0.0,0.0,-0.0158888,-0.000850666,-0.00399696,0.0,0.0,0.0,0.0,0.0,0.0,0.115662,0.0,0.0,0.0,0.0,0.0,0,1,1,1,1,0,0,0,0,0,0,0
992026862,0,0.0,0.0,0,-5.35582,1.04749,1.43666,0.0,0.0,0.0,-0.0164972,-0.000709657,-0.00411605,0.0,0.0,0.0,0.0,0.0,0.0,0.115667,0.0,0.0,0.0,0.0,0.0,0,1,1,1,1,0,0,0,0,0,0,0
992031972,0,0.0,0.0,0,-5.35591,1.04749,1.43663,0.0,0.0,0.0,-0.0170716,-0.000552335,-0.00424819,0.0,0.0,0.0,0.0,0.0,0.0,0.115671,0.0,0.0,0.0,0.0,0.0,0,1,1,1,1,0,0,0,0,0,0,0
992036836,0,0.0,0.0,0,-5.356,1.04749,1.43661,0.0,0.0,0.0,-0.0176284,-0.000327693,-0.00451676,0.0,0.0,0.0,0.0,0.0,0.0,0.115673,0.0,0.0,0.0,0.0,0.0,0,1,1,1,1,0,0,0,0,0,0,0
992041828,0,0.0,0.0,0,-5.35609,1.04749,1.43659,0.0,0.0,0.0,-0.018084,-0.000115617,-0.0048032,0.0,0.0,0.0,0.0,0.0,0.0,0.115667,0.0,0.0,0.0,0.0,0.0,0,1,1,1,1,0,0,0,0,0,0,0
992046829,0,0.0,0.0,0,-5.35618,1.04749,1.43656,0.0,0.0,0.0,-0.0185801,4.10427e-05,-0.00500435,0.0,0.0,0.0,0.0,0.0,0.0,0.115666,0.0,0.0,0.0,0.0,0.0,0,1,1,1,1,0,0,0,0,0,0,0
