timestamp,gyro_rad[0],gyro_rad[1],gyro_rad[2],gyro_integral_dt,accelerometer_timestamp_relative,accelerometer_m_s2[0],accelerometer_m_s2[1],accelerometer_m_s2[2],accelerometer_integral_dt,magnetometer_timestamp_relative,magnetometer_ga[0],magnetometer_ga[1],magnetometer_ga[2],baro_timestamp_relative,baro_alt_meter,baro_temp_celcius
199705870,-0.010851,-0.053909,-3.3526e-07,0.001176,0,-0.966815,0.6477,-10.1905,0.001176,0,0.207205,-1.22384,0.976589,-4649,-61246.6,73.62
199707897,-0.0391661,-0.0216562,-0.0181098,0.001029,0,-0.0504335,-0.158465,-11.2803,0.001029,-1122,0.149643,-1.25262,1.00781,-6676,-61246.6,73.62
199708715,-0.0044816,-0.0639624,-0.0190863,0.000888,0,0.995763,0.597077,-10.8726,0.000888,0,0.149643,-1.25262,1.00781,-7494,-61246.6,73.62
199709815,0.0117859,-0.0757469,-0.014448,0.001176,0,0.750842,1.28069,-9.94158,0.001176,0,0.149643,-1.25262,1.00781,-8594,-61246.6,73.62
199714722,0.0418574,-0.10968,-0.0245014,0.000894,0,1.17261,1.73279,-9.50388,0.000894,0,0.149643,-1.25262,1.00781,-13501,-61246.6,73.62
199716844,-0.0372638,-0.0126014,0.000151845,0.001036,0,-0.372164,-0.628735,-10.072,0.001036,0,0.131654,-1.22384,1.00781,-15623,-61246.6,73.62
199721733,-0.0201435,-0.0389287,-0.00563102,0.001036,0,0.119369,0.340275,-9.77039,0.001036,0,0.131654,-1.22384,1.00781,-543,-61247.2,73.62
199724785,0.0016183,-0.0415919,-0.0251101,0.001036,0,-0.698363,0.508008,-8.70686,0.001036,0,0.131654,-1.22384,1.00781,-3595,-61247.2,73.62
199727744,-0.016022,-0.0424796,-0.00612561,0.000888,0,-0.562189,0.675512,-11.2925,0.000888,0,0.128057,-1.22024,0.938433,-6554,-61247.2,73.62
199731843,-0.0345246,-0.108932,-0.0256428,0.001029,0,3.32636,-0.21026,-12.2789,0.001029,0,0.128057,-1.22024,0.938433,-10653,-61247.2,73.62
199735765,-0.089614,-0.0379522,-0.0150916,0.000888,0,-1.31851,2.65521,-15.8321,0.000888,0,0.212602,-1.30478,0.974855,-14575,-61247.2,73.62
199737902,-0.00106388,-0.0460526,0.00805573,0.001176,0,0.063298,-0.172571,-12.6096,0.001176,0,0.212602,-1.30478,0.974855,-16712,-61247.2,73.62
199742800,-0.0231111,-0.0558968,0.021381,0.001029,0,-3.26774,-1.04995,-11.8749,0.001029,0,0.212602,-1.30478,0.974855,-1610,-61247.4,73.62
199745875,-0.0131147,-0.0953877,-0.032158,0.001176,0,-1.01614,2.21321,-8.84245,0.001176,0,0.212602,-1.30478,0.974855,-4685,-61247.4,73.62
199748814,-0.012116,-0.0139837,0.000709841,0.000888,0,0.67896,2.14298,-8.60179,0.000888,0,0.140648,-1.31917,1.0026,-7624,-61247.4,73.62
199752802,-0.0999623,0.0497926,-0.0185664,0.001036,0,-0.628242,-1.74764,-9.89744,0.001036,0,0.140648,-1.31917,1.0026,-11612,-61247.4,73.62
199755792,0.0459409,-0.112254,-0.00816736,0.000888,0,0.768788,1.60113,-8.76117,0.000888,0,0.171228,-1.25262,0.962714,-14602,-61247.4,73.62
199759761,0.0307609,-0.116782,0.00532599,0.000888,0,1.15457,1.29819,-8.77272,0.000888,0,0.171228,-1.25262,0.962714,-18571,-61247.4,73.62
199762753,0.00652613,-0.0145164,-0.0249453,0.000888,0,-2.39323,0.850792,-9.65967,0.000888,0,0.171228,-1.25262,0.962714,-1456,-61247.0,73.62
199766753,-0.00412651,0.00803172,-0.0223709,0.000888,0,-1.28522,-1.21614,-6.9514,0.000888,0,0.111867,-1.32277,1.01301,-5456,-61247.0,73.62
199769806,-0.0209044,-0.100448,-0.0265654,0.001176,0,0.662418,0.834984,-11.4134,0.001176,0,0.111867,-1.32277,1.01301,-8509,-61247.0,73.62
199773906,0.0253014,-0.138398,0.00326204,0.001176,0,2.94912,1.63935,-11.4552,0.001176,-1087,0.111867,-1.32277,1.01301,-12609,-61247.0,73.62
199776926,0.0124231,0.0261285,-0.0378933,0.001029,0,-2.00866,-0.209574,-5.60646,0.001029,0,0.174826,-1.22384,0.94537,-15629,-61247.0,73.62
199780829,-0.00994743,-0.0239389,-0.0344693,0.001036,0,-3.27221,2.02584,-10.8155,0.001036,0,0.174826,-1.22384,0.94537,-19532,-61247.0,73.62
199784798,-0.0143607,-0.0638863,0.0394905,0.001036,0,-0.909069,-1.19505,-8.86499,0.001036,0,0.174826,-1.22384,0.94537,-3520,-61247.8,73.63
199787836,-0.118376,-0.0993444,-0.0326431,0.001029,0,5.22306,1.9514,-15.1959,0.001029,0,0.174826,-1.20944,0.955777,-6558,-61247.8,73.63
199795807,-0.0818528,-0.0629732,-0.0110334,0.001029,0,3.54772,-0.174586,-11.867,0.001029,0,0.171228,-1.20944,0.938433,-14529,-61247.8,73.63
199801742,-0.00713208,-0.103682,0.0237398,0.001036,0,0.992784,-0.371132,-10.9172,0.001036,0,0.171228,-1.20944,0.938433,-528,-61248.1,73.62
199804796,-0.0561469,-0.0957428,-0.0392376,0.000888,0,4.72041,0.995257,-13.5561,0.000888,0,0.171228,-1.20944,0.938433,-3582,-61248.1,73.62
199808787,-0.0245568,-0.0211236,-0.0286103,0.001036,0,-0.595244,0.448324,-11.184,0.001036,0,0.178424,-1.17347,0.94537,-7573,-61248.1,73.62
199810784,-0.0224136,-0.0833147,0.00568108,0.000888,0,-0.930323,0.915621,-11.8105,0.000888,0,0.178424,-1.17347,0.94537,-9570,-61248.1,73.62
199815791,0.0514575,-0.033298,-0.0160554,0.001029,-1047,2.73417,1.35182,-15.6101,0.000888,-1047,0.178424,-1.17347,0.94537,-14577,-61248.1,73.62
199822767,-0.0557918,-0.0556178,-0.0284962,0.000888,0,2.73497,1.04008,-11.7348,0.000888,0,0.205406,-1.18606,0.929761,-1570,-61247.9,73.62
199825968,-0.0219105,-0.0344901,-0.00402467,0.001314,0,-0.821112,0.231578,-11.0459,0.001314,0,0.205406,-1.18606,0.929761,-4771,-61247.9,73.62
199829777,0.0112818,0.0227045,-0.00608756,0.001029,0,-1.86154,0.386582,-8.2318,0.001029,0,0.189217,-1.17707,0.924558,-8580,-61247.9,73.62
199832801,-0.0644915,-0.0883747,0.003373,0.000888,0,0.249871,1.48188,-14.2933,0.000888,0,0.189217,-1.17707,0.924558,-11604,-61247.9,73.62
199836790,-0.00368266,-0.10098,-0.00887754,0.000888,0,2.02157,1.95849,-9.99238,0.000888,0,0.18382,-1.20765,0.940167,-15593,-61247.9,73.62
199840729,-0.019129,-0.0673357,-0.00914386,0.000888,0,1.71519,1.00206,-12.364,0.000888,-882,0.18382,-1.20765,0.940167,-19532,-61247.9,73.62
199843817,-0.0124584,0.00543197,-0.0121748,0.001036,0,-1.59756,1.09559,-8.06411,0.001036,0,0.18382,-1.20765,0.940167,-2534,-61249.1,73.62
199846793,0.0454083,-0.101779,0.0179316,0.000882,0,1.38435,-2.78765,-9.15802,0.000882,0,0.295348,-1.4271,1.01995,-5510,-61249.1,73.62
199850930,-0.00256666,-0.0466899,-0.0351541,0.001029,0,0.418757,2.07043,-13.02,0.001029,0,0.295348,-1.4271,1.01995,-9647,-61249.1,73.62
199853808,0.0139164,-0.0563724,-0.0117848,0.001176,0,-0.368297,-1.25726,-6.48462,0.001176,0,0.295348,-1.4271,1.01995,-12525,-61249.1,73.62
199857799,-0.0836789,-0.0547555,-0.0501439,0.001029,0,-1.94541,-2.35752,-3.34861,0.001029,0,-0.0931992,-1.62138,1.25235,-16516,-61249.1,73.62
199860793,-0.00501424,-0.130808,0.020506,0.000894,0,5.14549,3.11021,-10.3721,0.000894,0,-0.0931992,-1.62138,1.25235,-19510,-61249.1,73.62
199864809,-0.0912119,-0.0712417,0.0183755,0.000894,0,4.06355,2.38869,-16.1118,0.000894,0,-0.0931992,-1.62138,1.25235,-3559,-61249.7,73.63
199867793,-0.00606682,0.0441619,-0.0118704,0.001036,0,-2.03719,-0.863355,-3.66999,0.001036,0,0.142447,-1.22384,0.976589,-6543,-61249.7,73.63
199871786,-0.0214371,-0.10027,-0.0622295,0.000888,0,1.05952,-1.40063,-7.84951,0.000888,0,0.142447,-1.22384,0.976589,-10536,-61249.7,73.63
199875817,0.0165574,-0.102933,-0.00470525,0.000888,0,1.33703,-0.557045,-4.93245,0.000888,0,0.180223,-1.21844,0.957511,-14567,-61249.7,73.63
199877817,-0.0751663,-0.0448542,0.00785599,0.001176,0,-2.00385,0.256323,-13.6484,0.001176,0,0.180223,-1.21844,0.957511,-16567,-61249.7,73.63
199882790,-0.125655,-0.0093676,-0.000976828,0.000888,0,3.1789,1.03728,-13.8677,0.000888,0,0.180223,-1.21844,0.957511,-1545,-61252.3,73.63
199885838,0.0482046,-0.0638958,-0.0101869,0.001176,0,0.264207,1.72129,-11.3461,0.001176,0,0.180223,-1.21844,0.957511,-4593,-61252.3,73.63
199887935,0.0419462,-0.119052,-0.0298277,0.001029,0,1.51456,-0.16018,-5.90393,0.001029,0,0.176625,-1.20405,0.936699,-6690,-61252.3,73.63
199893823,0.010654,-0.0862664,-0.027897,0.001176,0,1.5608,2.47673,-16.2244,0.001176,0,0.176625,-1.20405,0.936699,-12578,-61252.3,73.63
199898813,-0.0616508,-0.059435,-0.00159823,0.000882,0,1.38194,0.775157,-10.0988,0.000882,0,0.176625,-1.20045,0.947105,-17568,-61252.3,73.63
199902789,0.0162023,-0.137377,0.00612494,0.000882,0,-1.71271,1.24537,-8.54162,0.000882,0,0.176625,-1.20045,0.947105,-1387,-61251.4,73.64
199906745,-0.0197326,-0.0263586,-0.0226905,0.00074,0,-3.04809,-1.92038,-5.7374,0.00074,-811,0.176625,-1.20045,0.947105,-5343,-61251.4,73.64
199910764,0.043331,0.0428836,0.0183222,0.00074,0,-6.10722,-1.45601,-5.46964,0.00074,0,0.16943,-1.20765,0.940167,-9362,-61251.4,73.64
199913901,-0.0614437,-0.0947959,-0.0120733,0.001314,0,-0.213705,-1.98276,-8.19669,0.001314,0,0.16943,-1.20765,0.940167,-12499,-61251.4,73.64
199916812,-0.00377143,-0.159836,-0.0259218,0.000894,0,3.75837,2.57477,-13.0051,0.000894,-982,0.165832,-1.19325,0.943636,-15410,-61251.4,73.64
199920885,-0.0704392,-0.0250042,-0.01149,0.001036,0,2.52925,1.50995,-12.8653,0.001036,0,0.165832,-1.19325,0.943636,-19483,-61251.4,73.64
199924780,-0.0679536,-0.0475396,-0.0077235,0.000894,0,1.19988,2.205,-13.9701,0.000894,0,0.165832,-1.19325,0.943636,-3450,-61251.1,73.64
199927780,-0.0849978,-0.098406,-0.00124314,0.000888,0,4.23839,1.07489,-10.1091,0.000888,0,0.162234,-1.19325,0.971386,-6450,-61251.1,73.64
199930827,0.0681212,-0.0973661,-0.0553941,0.001029,0,4.65625,0.956325,-10.7007,0.001029,0,0.162234,-1.19325,0.971386,-9497,-61251.1,73.64
199934823,-0.145008,-0.0422006,0.00966314,0.001029,0,3.30711,1.10588,-14.5351,0.001029,0,0.162234,-1.19325,0.971386,-13493,-61251.1,73.64
199937834,-0.0278952,-0.00570575,-0.00426139,0.001184,0,-0.811922,0.105655,-14.8171,0.001184,0,0.171228,-1.22743,0.948839,-16504,-61251.1,73.64
199941887,-0.0494299,-0.0518894,-0.00881836,0.001314,0,2.6779,2.68602,-11.85,0.001314,0,0.171228,-1.22743,0.948839,-604,-61250.9,73.65
199944826,0.077455,-0.053221,-0.0213056,0.000888,0,-4.56955,-1.23975,-6.33181,0.000888,0,0.171228,-1.22743,0.948839,-3543,-61250.9,73.65
199948858,-0.00599073,0.0411944,-0.0111095,0.001036,0,-3.93423,-1.60975,-7.39197,0.001036,0,0.173027,-1.21844,0.943636,-7575,-61250.9,73.65
199951975,0.0665994,-0.00514459,-0.0162837,0.001029,0,-4.54641,-2.4395,-8.35509,0.001029,0,0.173027,-1.21844,0.943636,-10692,-61250.9,73.65
199955857,-0.0330789,-0.0295696,-0.0057832,0.001036,0,-3.60631,-1.71711,-7.67818,0.001036,0,0.196412,-1.22743,0.959245,-14574,-61250.9,73.65
199958852,0.0334241,-0.182118,-0.0247677,0.000882,-957,3.14552,2.11987,-12.5968,0.001168,-957,0.196412,-1.22743,0.959245,-17569,-61250.9,73.65
199963062,-0.0535282,-0.00244338,0.00665757,0.00116,0,-2.47003,0.836185,-11.2866,0.00116,0,0.196412,-1.22743,0.959245,-1758,-61251.0,73.65
199966793,0.0312935,-0.0688449,-0.0128723,0.000882,0,-1.99382,0.062435,-9.39351,0.000882,0,0.174826,-1.22024,0.955777,-5489,-61251.0,73.65
199969815,0.0110535,-0.0660168,-0.0176533,0.001036,0,-1.50338,-1.94213,-4.79123,0.001036,0,0.174826,-1.22024,0.955777,-8511,-61251.0,73.65
199973781,0.0272607,-0.0769739,-0.0458067,0.001036,0,-4.3278,-3.52204,-6.62934,0.001036,0,0.174826,-1.22024,0.955777,-12477,-61251.0,73.65
199976776,-0.0114946,-0.0620982,0.00204142,0.000894,0,6.54263,3.0742,-11.0622,0.000894,0,0.182021,-1.21664,0.94537,-15472,-61251.0,73.65
199980695,-0.0688413,-0.119756,-0.0035956,0.000596,0,4.76573,1.67957,-11.4232,0.000596,0,0.182021,-1.21664,0.94537,-19391,-61251.0,73.65
199983792,0.0130953,-0.074615,-0.0419895,0.000888,0,1.00779,2.08935,-9.27198,0.000888,-947,0.182021,-1.21664,0.94537,-2612,-61250.5,73.65
199987764,-0.027083,-0.0130428,-0.0157662,0.00074,0,1.03073,-1.32011,-8.3318,0.00074,0,0.187418,-1.18966,0.950574,-6584,-61250.5,73.65
199989779,0.0801435,-0.0413636,-0.0143053,0.001036,0,0.765923,1.75589,-12.8851,0.001036,0,0.187418,-1.18966,0.950574,-8599,-61250.5,73.65
199994840,-0.109499,-0.167648,0.00825546,0.000882,0,6.3305,0.0952499,-17.253,0.000882,-971,0.187418,-1.18966,0.950574,-13660,-61250.5,73.65
199997999,0.130829,-0.00330891,-0.0586565,0.001176,0,-1.40864,0.69182,-8.51343,0.001176,0,0.171228,-1.21304,0.97312,-16819,-61250.5,73.65
200000787,0.0122075,-0.120066,0.0264537,0.000894,0,-4.09194,-1.25096,-3.72953,0.000894,0,0.171228,-1.21304,0.97312,-19607,-61250.5,73.65
200004734,0.0441832,-0.0715258,-0.0299343,0.000745,0,-2.54378,0.655983,-11.586,0.000745,0,0.171228,-1.21304,0.97312,-3485,-61250.5,73.65
200007797,-0.138084,0.0690891,0.0141677,0.00074,0,-2.65446,-1.95832,-9.70167,0.00074,0,0.158637,-1.23643,0.978324,-6548,-61250.5,73.65
200011788,0.0788043,-0.0124036,-0.0482568,0.00074,0,-3.77955,0.176246,-9.24026,0.00074,0,0.158637,-1.23643,0.978324,-10539,-61250.5,73.65
200014969,0.0071729,-0.141651,0.00654343,0.001022,-1034,2.43842,1.41395,-11.7083,0.001176,-1034,0.158637,-1.23643,0.978324,-13720,-61250.5,73.65
200018795,0.028009,-0.0420357,-0.00639192,0.000888,0,-1.10156,0.214904,-10.7686,0.000888,0,0.173027,-1.18246,0.926292,-17546,-61250.5,73.65
200022782,-0.0689301,-0.0230385,0.00896564,0.000888,0,-1.38107,-0.831169,-9.41901,0.000888,0,0.173027,-1.18246,0.926292,-1395,-61250.3,73.65
200025989,0.0411176,-0.102312,-0.0371662,0.001323,0,-2.40834,-1.41317,-6.80344,0.001323,0,0.173027,-1.18246,0.926292,-4602,-61250.3,73.65
200028691,0.00665929,-0.181275,-0.00452771,0.000596,0,3.48027,4.53326,-8.38523,0.000596,0,0.164033,-1.19146,0.931495,-7304,-61250.3,73.65
200032780,-0.0873947,0.00563488,0.00674634,0.000894,0,1.49744,1.71158,-14.1594,0.000894,0,0.164033,-1.19146,0.931495,-11393,-61250.3,73.65
200035795,-0.0517083,0.0167314,0.00319546,0.000888,0,2.4306,2.06774,-11.8006,0.000888,0,0.158637,-1.22204,0.940167,-14408,-61250.3,73.65
200039858,0.011434,-0.165315,-0.0155228,0.001029,0,2.72587,2.55408,-11.7943,0.001029,0,0.158637,-1.22204,0.940167,-18471,-61250.3,73.65
200042787,0.044343,-0.142171,-0.0347102,0.000888,0,4.41684,3.62845,-13.4019,0.000888,0,0.158637,-1.22204,0.940167,-1491,-61250.5,73.65
200046791,-0.165337,0.0193945,-0.0144702,0.000888,0,2.41577,-0.762738,-16.2473,0.000888,0,0.191016,-1.19325,0.93323,-5495,-61250.5,73.65
200050044,-0.0211707,-0.00297601,-0.00818956,0.001176,0,1.73163,2.06434,-10.5826,0.001176,0,0.191016,-1.19325,0.93323,-8748,-61250.5,73.65
200053943,0.018244,-0.129343,-0.0133161,0.001176,-1056,-1.40112,0.0828443,-9.83619,0.000888,-1056,0.191016,-1.19325,0.93323,-12647,-61250.5,73.65
200056725,0.109697,-0.0506466,-0.0290821,0.000745,0,-2.02454,-0.753934,-10.6254,0.000745,0,0.189217,-1.20585,0.941902,-15429,-61250.5,73.65
200060733,-0.114515,-0.00231022,-0.00559297,0.000596,0,-1.18577,-1.01445,-12.1954,0.000596,-756,0.189217,-1.20585,0.941902,-19437,-61250.5,73.65
200064729,-0.000877459,-0.0353068,-0.0300408,0.000745,0,1.70059,1.24809,-11.4225,0.000745,0,0.189217,-1.20585,0.941902,-3455,-61250.7,73.65
200067869,0.0104321,-0.120777,0.00976459,0.000882,0,-0.774728,1.12372,-9.97525,0.000882,0,0.178424,-1.21664,0.931495,-6595,-61250.7,73.65
200070833,0.0676901,-0.0587249,-0.0375509,0.000888,0,-5.31906,-2.12335,-7.06695,0.000888,0,0.178424,-1.21664,0.931495,-9559,-61250.7,73.65
200074745,-0.0392802,0.160986,0.0071902,0.000888,0,-6.39458,-2.78125,-4.09252,0.000888,0,0.178424,-1.21664,0.931495,-13471,-61250.7,73.65
200077850,0.0346415,-0.118443,0.00342373,0.001029,0,-0.356352,1.7751,-13.0692,0.001029,0,0.185619,-1.20585,0.952308,-16576,-61250.7,73.65
200081784,-0.113116,-0.168358,0.0275634,0.001184,0,0.319247,0.75905,-10.2864,0.001184,0,0.185619,-1.20585,0.952308,-599,-61251.2,73.66
200084797,0.0767448,-0.0739049,-0.0562818,0.000888,0,-1.68905,-2.52634,-7.17334,0.000888,0,0.185619,-1.20585,0.952308,-3612,-61251.2,73.66
200087923,-0.0262308,-0.00605767,-0.0100443,0.001029,0,-0.415818,2.02103,-10.324,0.001029,0,0.20001,-1.19505,0.952308,-6738,-61251.2,73.66
200091713,0.00689897,-0.127878,-0.00330266,0.000745,0,3.83144,2.20276,-12.7991,0.000745,0,0.20001,-1.19505,0.952308,-10528,-61251.2,73.66
200095785,-0.0932536,-0.167471,0.0049709,0.000894,0,6.26834,-0.0696247,-10.8722,0.000894,0,0.178424,-1.18426,0.938433,-14600,-61251.2,73.66
200098847,0.0562512,-0.0620601,-0.0574485,0.001029,0,3.77012,0.876403,-12.9265,0.001029,0,0.178424,-1.18426,0.938433,-17662,-61251.2,73.66
200102780,-0.136397,0.0656448,0.0172214,0.000888,0,2.44464,-0.552643,-11.2288,0.000888,0,0.178424,-1.18426,0.938433,-1501,-61251.3,73.66
200105868,0.0797631,-0.119415,-0.042966,0.001323,0,2.28196,2.62786,-13.6321,0.001323,0,0.178424,-1.18426,0.938433,-4589,-61251.3,73.66
200109911,-0.126232,-0.12182,0.0231026,0.001176,0,1.84772,0.053431,-13.3573,0.001176,0,0.164033,-1.19505,0.962714,-8632,-61251.3,73.66
200112855,0.069567,0.0325201,-0.0256428,0.001036,0,-4.49932,-1.46809,-8.32742,0.001036,0,0.164033,-1.19505,0.962714,-11576,-61251.3,73.66
200116825,-0.058493,-0.00643812,-0.00631583,0.001036,0,0.477878,1.31237,-11.962,0.001036,-1087,0.185619,-1.20944,0.948839,-15546,-61251.3,73.66
200120758,0.0122075,-0.104265,-0.0273421,0.000888,0,4.10686,1.80242,-12.197,0.000888,0,0.185619,-1.20944,0.948839,-19479,-61251.3,73.66
200123859,-0.0409923,-0.0887678,0.000608387,0.001029,-1067,-2.90012,-0.875189,-6.99483,0.000888,-1067,0.185619,-1.20944,0.948839,-2702,-61250.9,73.66
200126812,0.0728388,-0.126547,-0.0208618,0.000888,0,-3.54375,-2.12976,-7.9814,0.000888,0,0.164033,-1.19865,0.931495,-5655,-61250.9,73.66
200130925,0.0226192,0.099784,-0.0171207,0.001029,0,-6.25646,-3.3941,-1.2926,0.001029,0,0.164033,-1.19865,0.931495,-9768,-61250.9,73.66
200133895,-0.0930761,-0.0618985,0.0176431,0.001176,0,0.282554,0.0855454,-10.2975,0.001176,0,0.164033,-1.19865,0.931495,-12738,-61250.9,73.66
200137839,0.0273368,-0.0869417,-0.0162076,0.001029,0,-2.56791,0.615371,-10.2093,0.001029,-954,0.158637,-1.22204,0.950574,-16682,-61250.9,73.66
200140751,-0.043275,-0.109591,-0.00115437,0.000894,0,-1.40633,-1.64954,-9.64971,0.000894,0,0.158637,-1.22204,0.950574,-19594,-61250.9,73.66
200144850,0.0790529,0.0490444,-0.00115437,0.000888,0,-3.75469,-0.650287,-4.70812,0.000888,0,0.158637,-1.22204,0.950574,-3699,-61250.8,73.66
200147827,-0.101154,-0.0405266,-0.0226372,0.000888,-923,1.88098,0.807458,-14.6242,0.001029,-923,0.196412,-1.22743,0.94537,-6676,-61250.8,73.66
200151693,0.0191761,-0.195789,-0.0113188,0.000596,0,6.39165,1.91727,-5.40103,0.000596,0,0.196412,-1.22743,0.94537,-10542,-61250.8,73.66
200154858,0.00139003,-0.0626689,-0.0160554,0.001029,0,4.50054,1.34942,-10.4756,0.001029,0,0.196412,-1.22743,0.94537,-13707,-61250.8,73.66
200157895,-0.0128484,-0.0298074,-0.0138488,0.001176,0,-0.0720455,1.80142,-10.9062,0.001176,0,0.209004,-1.19325,0.929761,-16744,-61250.8,73.66
200161932,-0.100333,-0.0495813,-0.0165119,0.001176,0,3.71276,1.76541,-17.0757,0.001176,0,0.209004,-1.19325,0.929761,-562,-61250.7,73.65
200165840,-0.00399336,-0.15431,-0.00585929,0.001176,0,7.36101,5.32531,-16.5244,0.001176,0,0.209004,-1.19325,0.929761,-4470,-61250.7,73.65
200168783,0.000667175,-0.0376859,-0.0352428,0.000894,-917,-4.43682,-2.0017,-3.82157,0.000888,-917,0.20001,-1.20585,0.94537,-7413,-61250.7,73.65
200172853,0.0327392,-0.0574186,-0.0353062,0.001036,0,0.750455,-0.43116,-7.58221,0.001036,0,0.20001,-1.20585,0.94537,-11483,-61250.7,73.65
200175789,-0.0626273,0.00368189,-0.00497157,0.000888,0,-0.787962,0.33976,-14.3128,0.000888,0,0.191016,-1.21124,0.936699,-14419,-61250.7,73.65
200177870,0.00679244,0.0208593,-0.0197743,0.001176,0,1.46997,-0.733825,-6.9508,0.001176,0,0.191016,-1.21124,0.936699,-16500,-61250.7,73.65
200182795,-0.00892021,-0.0743487,0.000532297,0.000888,0,-5.60578,-2.58596,-6.74421,0.000888,0,0.191016,-1.21124,0.936699,-1408,-61250.9,73.66
200186783,0.0723062,0.0572114,-0.0241463,0.000888,0,-5.31986,-1.72597,-8.74045,0.000888,0,0.20001,-1.20585,0.959245,-5396,-61250.9,73.66
200187858,-0.0207523,0.0882943,-0.0115661,0.001036,0,1.38154,0.87263,-12.1099,0.001036,0,0.20001,-1.20585,0.959245,-6471,-61250.9,73.66
200193829,0.0555283,-0.18993,-0.0249675,0.001176,0,1.2086,0.310047,-7.54191,0.001176,0,0.20001,-1.20585,0.959245,-12442,-61250.9,73.66
200196741,0.0225939,-0.0736386,-0.0292063,0.000894,0,-1.22547,-1.89685,-4.96791,0.000894,0,0.149643,-1.20585,0.955777,-15354,-61250.9,73.66
200200774,0.0589016,0.0610286,-0.000621739,0.000894,0,-5.24046,-0.984838,-3.95425,0.000894,-900,0.149643,-1.20585,0.955777,-19387,-61250.9,73.66
200204820,0.00977519,-0.0545881,-0.0365389,0.000745,0,-3.51632,-1.2476,-2.3689,0.000745,0,0.149643,-1.20585,0.955777,-3495,-61250.9,73.66
200207790,-0.0125599,-0.170844,0.0169551,0.000888,0,4.31017,1.35182,-13.4649,0.000888,0,0.156838,-1.19865,0.934964,-6465,-61250.9,73.66
200211830,-0.128762,-0.0485161,-0.0181986,0.000888,0,1.00819,0.701924,-11.6679,0.000888,0,0.156838,-1.19865,0.934964,-10505,-61250.9,73.66
200214765,0.0211735,-0.00910128,-0.00914386,0.000888,0,2.16954,2.55796,-10.9929,0.000888,0,0.156838,-1.19865,0.934964,-13440,-61250.9,73.66
200218823,-0.0417532,-0.0984313,-0.0397956,0.001029,0,2.96682,1.76549,-8.20925,0.001029,0,0.176625,-1.20765,0.93323,-17498,-61250.9,73.66
200221826,-0.00352731,-0.07082,-0.0035956,0.001176,0,2.54459,1.38363,-11.6184,0.001176,0,0.176625,-1.20765,0.93323,-570,-61251.1,73.66
200225793,-0.101256,-0.0049924,-0.022447,0.001029,0,2.43404,0.638696,-9.86875,0.001029,0,0.176625,-1.20765,0.93323,-4537,-61251.1,73.66
200228882,0.0024553,-0.0591687,0.00593471,0.001036,0,1.59156,-0.0600203,-9.63002,0.001036,0,0.164033,-1.19505,0.921089,-7626,-61251.1,73.66
200231751,-0.0298704,-0.0747926,-0.0392376,0.000888,0,1.21993,1.13092,-13.3481,0.000888,0,0.164033,-1.19505,0.921089,-10495,-61251.1,73.66
200235997,0.00146612,-0.102084,-0.00547884,0.001029,0,2.04872,0.165339,-10.7414,0.001029,-1185,0.164033,-1.19505,0.921089,-14741,-61251.1,73.66
200238824,0.0809044,0.0325962,-0.0158271,0.001029,0,-6.70572,-2.77222,-3.2622,0.001029,0,0.167631,-1.20585,0.931495,-17568,-61251.1,73.66
200242820,0.0276412,0.0525319,-0.0205447,0.001029,0,-3.38289,-2.08173,-6.76663,0.001029,-931,0.167631,-1.20585,0.931495,-1521,-61251.1,73.66
200246745,0.0496693,-0.0262343,-0.0374621,0.000888,0,0.12716,-1.61712,-6.90319,0.000888,0,0.180223,-1.20405,0.940167,-5446,-61251.1,73.66
200249765,-0.00377143,-0.14075,-0.0200628,0.000888,0,0.798864,0.0568325,-11.7236,0.000888,0,0.180223,-1.20405,0.940167,-8466,-61251.1,73.66
200252739,0.0393895,-0.0413788,-0.00255697,0.000745,0,-2.84261,-0.166629,-5.8053,0.000745,0,0.180223,-1.20405,0.940167,-11440,-61251.1,73.66
200256917,0.0533597,0.00839949,0.012935,0.001036,0,-4.70212,-2.32047,-6.9193,0.001036,0,0.187418,-1.20765,0.940167,-15618,-61251.1,73.66
200258828,-0.058417,-0.0601579,-0.0200882,0.001029,0,4.50123,3.41572,-14.3062,0.001029,0,0.187418,-1.20765,0.940167,-17529,-61251.1,73.66
200263968,-0.000930721,-0.130941,-0.017444,0.001176,0,1.45703,-0.282421,-10.3044,0.001176,0,0.187418,-1.20765,0.940167,-2739,-61250.9,73.66
200266817,-0.0113931,-0.0799414,-0.0301321,0.001029,0,5.84211,3.44042,-11.0286,0.001029,0,0.173027,-1.19325,0.957511,-5588,-61250.9,73.66
200270757,-0.0894364,-0.0618319,0.00914318,0.000888,-867,0.653094,-1.787,-9.39231,0.001176,-867,0.173027,-1.19325,0.957511,-9528,-61250.9,73.66
200273820,0.0218583,-0.0870178,-0.0658185,0.001029,0,4.13791,2.3565,-11.7929,0.001029,0,0.173027,-1.19325,0.957511,-12591,-61250.9,73.66
200277815,-0.0221219,-0.0673865,-0.00745719,0.001029,0,1.69193,-0.00445236,-9.81308,0.001029,0,0.20001,-1.21304,0.94537,-16586,-61250.9,73.66
200280975,0.00603154,-0.0628211,-0.0176533,0.001036,0,1.42795,0.807801,-13.7427,0.001036,0,0.20001,-1.21304,0.94537,-19746,-61250.9,73.66
200284796,-0.137995,-0.00830233,0.00133125,0.000894,0,4.21754,1.69677,-14.3502,0.000894,0,0.20001,-1.21304,0.94537,-3426,-61251.1,73.66
200287972,0.0574686,-0.0541468,-0.0346214,0.001029,0,0.825388,0.877775,-12.8554,0.001029,0,0.165832,-1.21484,0.978324,-6602,-61251.1,73.66
200301833,-0.0133715,-0.0606905,-0.0512852,0.001029,0,-2.52597,-1.60803,-7.91895,0.001029,0,0.176625,-1.20765,0.947105,-520,-61251.2,73.66
200305833,-0.0113171,-0.0869987,-0.00146507,0.001176,0,-4.34649,-1.7801,-5.05258,0.001176,0,0.176625,-1.20765,0.947105,-4520,-61251.2,73.66
200308837,-0.0411445,-0.143857,-0.0274309,0.000888,0,2.4282,1.00766,-14.8152,0.000888,0,0.178424,-1.18066,0.938433,-7524,-61251.2,73.66
200312879,-0.0662543,0.00558415,0.0447408,0.001036,0,-1.46007,-0.0380676,-7.27312,0.001036,0,0.178424,-1.18066,0.938433,-11566,-61251.2,73.66
200316772,0.078609,-0.12344,-0.0237912,0.000894,0,-4.52304,0.173285,-8.21449,0.000894,0,0.158637,-1.19685,0.915886,-15459,-61251.2,73.66
200319821,-0.0416771,-0.0569494,-0.00958772,0.000888,0,-1.65055,-1.5599,-8.33841,0.000888,0,0.158637,-1.19685,0.915886,-18508,-61251.2,73.66
200322837,-0.0355899,-0.134118,-0.0322626,0.001029,0,5.673,2.14143,-13.4644,0.001029,0,0.158637,-1.19685,0.915886,-1551,-61250.6,73.67
200325821,-0.0237673,0.0363056,0.00219677,0.001176,0,3.12928,0.970046,-11.8861,0.001176,0,0.158637,-1.19685,0.915886,-4535,-61250.6,73.67
200329876,-0.0360179,-0.0694885,-0.0240354,0.001176,0,3.13529,-1.01775,-9.29878,0.001176,0,0.164033,-1.19865,0.928027,-8590,-61250.6,73.67
200333849,0.088133,-0.0405266,-0.0324909,0.001029,0,2.33573,2.23679,-8.33562,0.001029,0,0.164033,-1.19865,0.928027,-12563,-61250.6,73.67
200336730,-0.120933,-0.0216714,-0.00937466,0.000745,0,0.101013,0.971006,-12.8818,0.000745,0,0.203607,-1.21304,0.928027,-15444,-61250.6,73.67
200340765,-0.0318234,-0.0154929,-0.00142069,0.000894,0,2.90019,2.77526,-13.0959,0.000894,0,0.203607,-1.21304,0.928027,-19479,-61250.6,73.67
200343804,-0.0762094,-0.0445213,0.0049709,0.000888,0,0.406669,-0.14686,-14.3084,0.000888,0,0.203607,-1.21304,0.928027,-2571,-61250.9,73.66
200347844,0.0387504,-0.126585,-0.0354584,0.001029,0,0.608839,3.75874,-15.1088,0.001029,0,0.182021,-1.19146,0.94537,-6611,-61250.9,73.66
200350827,-0.0619171,-0.0217323,-0.00129387,0.001029,0,-5.65631,-2.8343,-8.19252,0.001029,0,0.182021,-1.19146,0.94537,-9594,-61250.9,73.66
200354858,0.116971,0.0538254,-0.0341649,0.001029,-949,-2.5246,-1.22043,-9.57162,0.001029,-949,0.182021,-1.19146,0.94537,-13625,-61250.9,73.66
200358785,0.00679244,-0.0469943,-0.0136205,0.001029,0,-2.91679,-2.34448,-6.65017,0.001029,0,0.203607,-1.23463,0.948839,-17552,-61250.9,73.66
200360754,0.0257009,-0.213366,-0.00941017,0.000894,0,4.29092,3.88736,-11.1168,0.000894,0,0.203607,-1.23463,0.948839,-19521,-61250.9,73.66
200364821,-0.0274736,-0.111899,0.0120727,0.000894,0,3.19695,2.78927,-13.2884,0.000894,0,0.203607,-1.23463,0.948839,-3725,-61251.1,73.66
200368780,-0.0637813,0.0566788,0.025566,0.000894,-1039,3.97091,0.463016,-11.5754,0.000888,-1039,0.207205,-1.19146,0.941902,-7684,-61251.1,73.66
200371799,-0.0270297,-0.0233936,-0.0170446,0.000888,-1009,3.72268,0.927512,-9.87387,0.001029,0,0.207205,-1.19146,0.941902,-10703,-61251.1,73.66
200375773,0.0639616,-0.152024,-0.0356867,0.000888,0,-2.09367,-0.851578,-9.19628,0.000888,0,0.198211,-1.21124,0.950574,-14677,-61251.1,73.66
200378777,-0.082081,-0.116236,-0.0173489,0.001029,0,5.65409,4.38953,-16.6505,0.001029,0,0.198211,-1.21124,0.950574,-17681,-61251.1,73.66
200382785,-0.147595,-0.0120688,0.0264791,0.001029,0,5.24918,-0.433218,-13.8257,0.001029,0,0.198211,-1.21124,0.950574,-1569,-61250.1,73.66
200386760,-0.0363508,-0.126509,-0.0204686,0.001029,0,4.207,1.98845,-8.49238,0.001029,0,0.147844,-1.20405,0.96098,-5544,-61250.1,73.66
200388782,0.0268549,-0.182207,-0.0112744,0.000888,0,-0.707357,0.110457,-11.4898,0.000888,0,0.147844,-1.20405,0.96098,-7566,-61250.1,73.66
200392728,-0.0445533,-0.0626841,-0.0150206,0.000745,0,1.19483,2.50818,-15.0363,0.000745,0,0.147844,-1.20405,0.96098,-11512,-61250.1,73.66
200396954,-0.0515974,-0.030806,0.00339519,0.001176,0,6.4515,1.84194,-17.475,0.001176,0,0.173027,-1.19685,0.919355,-15738,-61250.1,73.66
200399799,0.00954438,0.0365275,-0.0380835,0.000888,0,-2.95506,1.87886,-10.8586,0.000888,0,0.173027,-1.19685,0.919355,-18583,-61250.1,73.66
200402782,0.0217822,-0.178707,0.0245768,0.001029,0,-8.137,-3.06961,-9.14061,0.001029,0,0.173027,-1.19685,0.919355,-1437,-61250.1,73.66
200407762,-0.0652017,-0.025968,-0.0159793,0.000888,0,4.01181,2.73364,-11.5519,0.000888,0,0.192814,-1.19505,0.948839,-6417,-61250.1,73.66
200410937,-0.00918652,-0.0247474,-0.0108527,0.001168,0,2.64745,1.77771,-12.413,0.001168,0,0.192814,-1.19505,0.948839,-9592,-61250.1,73.66
200413839,0.0427071,0.0262046,-0.0337083,0.001036,0,-2.76005,-2.49849,-4.87456,0.001036,0,0.192814,-1.19505,0.948839,-12494,-61250.1,73.66
200417817,0.0488704,-0.145322,-0.0304935,0.001184,0,-4.36905,-3.02086,-6.84711,0.001184,0,0.174826,-1.20225,0.948839,-16472,-61250.1,73.66
200421774,0.0693102,-0.0283426,-0.0102535,0.001184,0,-3.74887,1.84674,-11.061,0.001184,0,0.174826,-1.20225,0.948839,-532,-61250.5,73.66
200424772,-0.146819,0.0556668,0.0338751,0.00074,0,-5.11783,-3.74473,-8.16588,0.00074,0,0.174826,-1.20225,0.948839,-3530,-61250.5,73.66
200434845,0.0492508,-0.104519,-0.0232079,0.001029,0,-0.306168,2.43505,-13.7933,0.001029,0,0.149643,-1.22743,0.948839,-13603,-61250.5,73.66
200437867,-0.188684,0.121926,0.0188701,0.001036,0,-1.05893,0.937459,-12.7386,0.001036,0,0.196412,-1.21664,0.938433,-16625,-61250.5,73.66
200441749,0.0449137,-0.0232541,-0.0313495,0.001036,0,2.63512,2.51017,-8.44081,0.001036,0,0.196412,-1.21664,0.938433,-519,-61251.3,73.66
200445770,-0.0292744,-0.135868,0.00144538,0.001036,-919,3.35317,2.2536,-13.1143,0.001036,-919,0.196412,-1.21664,0.938433,-4540,-61251.3,73.66
200448699,-0.00513852,-0.1364,-0.0365389,0.000745,0,2.48546,1.86517,-16.684,0.000745,0,0.205406,-1.21124,0.936699,-7469,-61251.3,73.66
200452786,-0.159389,0.0441619,0.0181853,0.001036,0,1.07528,-0.00856848,-12.852,0.001036,0,0.205406,-1.21124,0.936699,-11556,-61251.3,73.66
200455751,0.0652044,-0.0660042,-0.0524646,0.000888,0,1.60972,1.0813,-8.56712,0.000888,0,0.18382,-1.21124,0.954042,-14521,-61251.3,73.66
200459845,-0.0433511,-0.0881591,0.0117176,0.001029,0,2.06419,1.10039,-9.20106,0.001029,0,0.18382,-1.21124,0.954042,-18615,-61251.3,73.66
200462784,-0.0702109,-0.0657125,-0.0189468,0.001029,0,0.423225,0.97279,-17.0371,0.001029,0,0.18382,-1.21124,0.954042,-1573,-61251.2,73.65
200466787,-0.121344,0.100164,-0.000228606,0.001029,0,1.96932,0.873316,-15.7209,0.001029,0,0.176625,-1.21124,0.954042,-5576,-61251.2,73.65
200470725,-0.0741677,-0.116313,-0.0101203,0.001029,0,3.34423,2.6635,-13.3527,0.001029,0,0.176625,-1.21124,0.954042,-9514,-61251.2,73.65
200473772,0.0405765,-0.118139,-0.01149,0.001036,0,1.01788,0.453126,-14.0426,0.001036,0,0.176625,-1.21124,0.954042,-12561,-61251.2,73.65
200476761,0.0264111,-0.0336911,-0.0487362,0.000888,0,-0.465143,-1.81161,-9.9107,0.000888,0,0.192814,-1.20225,0.931495,-15550,-61251.2,73.65
200480807,-0.00583855,0.0134215,-0.0155228,0.001036,0,-3.89401,-0.544697,-6.45892,0.001036,0,0.192814,-1.20225,0.931495,-19596,-61251.2,73.65
200483748,-0.070528,-0.139596,-0.00195332,0.000888,0,3.40748,1.41545,-13.1146,0.000888,0,0.192814,-1.20225,0.931495,-2544,-61250.6,73.65
200487822,0.0522184,-0.0943225,-0.00662019,0.001029,0,-1.29714,2.55065,-10.8909,0.001029,0,0.189217,-1.20225,0.931495,-6618,-61250.6,73.65
200491720,-0.0296396,-0.0189017,-0.0102269,0.00074,0,0.222762,-2.24501,-10.809,0.00074,0,0.189217,-1.20225,0.931495,-10516,-61250.6,73.65
200494858,-0.0195063,-0.00510654,-0.00865561,0.001168,0,-2.24686,0.525244,-5.82388,0.001168,0,0.189217,-1.20225,0.931495,-13654,-61250.6,73.65
200498809,0.0711649,-0.150553,-0.00410921,0.001036,0,-0.533717,0.357426,-10.0136,0.001036,0,0.174826,-1.19146,0.948839,-17605,-61250.6,73.65
200501791,-0.00758862,-0.101513,-0.0331567,0.001184,0,3.52989,2.06194,-11.8727,0.001184,0,0.174826,-1.19146,0.948839,-528,-61250.9,73.65
200504747,-0.0549929,-0.0388399,0.00568107,0.000888,-917,-1.80964,-0.870558,-7.88788,0.001029,-917,0.174826,-1.19146,0.948839,-3484,-61250.9,73.65
200508840,-0.04746,-0.0390048,-0.0305886,0.001036,0,2.66193,0.958383,-11.4681,0.001036,0,0.178424,-1.20944,0.934964,-7577,-61250.9,73.65
200511838,0.0144015,-0.0485161,0.00121711,0.001029,0,2.22746,1.21564,-10.6601,0.001029,0,0.178424,-1.20944,0.934964,-10575,-61250.9,73.65
200515787,-0.0257742,-0.113193,-0.00753328,0.001029,0,1.98101,1.20021,-11.5573,0.001029,0,0.180223,-1.19685,0.936699,-14524,-61250.9,73.65
200518782,-0.0101757,-0.0329936,-0.0142292,0.001029,0,-1.59068,0.413337,-10.1293,0.001029,0,0.180223,-1.19685,0.936699,-17519,-61250.9,73.65
200522812,-0.0126867,-0.00674248,-0.0322626,0.001036,0,2.20821,0.502177,-11.7229,0.001036,0,0.180223,-1.19685,0.936699,-1506,-61251.0,73.64
200526780,-0.0883965,-0.120269,-0.00859854,0.001036,0,4.14169,2.79967,-13.5159,0.001036,0,0.18382,-1.20765,0.947105,-5474,-61251.0,73.64
200528805,0.00705876,-0.111367,-0.0118958,0.000888,0,-4.04061,-2.37427,-6.62228,0.000888,0,0.18382,-1.20765,0.947105,-7499,-61251.0,73.64
200532773,0.0553508,0.0221465,-0.0299165,0.000888,0,-6.65525,-1.14971,-7.17254,0.000888,0,0.18382,-1.20765,0.947105,-11467,-61251.0,73.64
200539799,-0.0330789,-0.0966052,-0.0225231,0.001029,0,-0.969909,-0.0157718,-7.56376,0.001029,0,0.191016,-1.22204,0.929761,-18493,-61251.0,73.64
200546937,-0.010052,-0.0330697,-0.00279665,0.001168,0,-0.263932,0.409992,-9.4201,0.001168,0,0.198211,-1.20765,0.940167,-5558,-61250.7,73.64
200550860,-0.0143797,-0.0487158,-0.0302938,0.001176,0,-1.92264,-0.636881,-8.61862,0.001176,0,0.198211,-1.20765,0.940167,-9481,-61250.7,73.64
200553803,-0.0341441,-0.116921,-0.0133922,0.001036,0,3.7629,1.33707,-8.00161,0.001036,0,0.198211,-1.20765,0.940167,-12424,-61250.7,73.64
200557809,-0.000892677,-0.114486,-0.0229035,0.001036,0,4.37302,-0.229125,-10.5856,0.001036,0,0.173027,-1.18606,0.943636,-16430,-61250.7,73.64
200560812,-0.0462932,-0.0391062,-0.00124314,0.000888,0,5.4631,1.93328,-13.9904,0.000888,0,0.173027,-1.18606,0.943636,-19433,-61250.7,73.64
200564772,-0.0886375,-0.060234,-0.0279635,0.000888,0,6.59316,1.65075,-14.7204,0.000888,-977,0.173027,-1.18606,0.943636,-3559,-61251.2,73.65
200568790,0.0021763,-0.0641399,-0.0123396,0.000888,0,3.21299,2.21901,-9.77682,0.000888,0,0.18382,-1.21124,0.96098,-7577,-61251.2,73.65
200571863,-0.0861899,-0.092268,-0.0149901,0.001036,0,3.66562,2.39183,-14.9978,0.001036,0,0.18382,-1.21124,0.96098,-10650,-61251.2,73.65
200575752,-0.0319122,-0.0402603,-0.00577052,0.000888,0,4.63299,2.79047,-12.7389,0.000888,0,0.185619,-1.22384,0.962714,-14539,-61251.2,73.65
200578867,-0.0458621,-0.00339451,-0.0101964,0.001029,0,2.8362,1.32918,-12.8623,0.001029,0,0.185619,-1.22384,0.962714,-17654,-61251.2,73.65
200581806,0.0324349,-0.0641146,-0.0251101,0.001036,0,-2.32901,-1.71265,-6.25844,0.001036,0,0.185619,-1.22384,0.962714,-536,-61251.2,73.64
200585831,-0.0236564,-0.0858891,-0.0120733,0.000888,0,0.518553,-0.0728261,-14.7535,0.000888,0,0.185619,-1.22384,0.962714,-4561,-61251.2,73.64
200588826,0.0331577,0.00217277,-0.0134937,0.000888,0,-2.68758,-0.639082,-9.29669,0.000888,0,0.182021,-1.20944,0.955777,-7556,-61251.2,73.64
200598846,-0.0319565,-0.117559,-0.0185759,0.001176,0,2.35842,3.3015,-14.073,0.001176,0,0.174826,-1.19146,0.931495,-17576,-61251.2,73.64
200602837,0.00246481,-0.0201534,-0.000799283,0.001176,0,-0.320476,-0.446895,-9.44879,0.001176,-1056,0.174826,-1.19146,0.931495,-1702,-61250.9,73.64
200606814,-0.0703631,-0.0479834,-0.0057832,0.001029,0,-2.40807,-0.406806,-9.12421,0.001029,0,0.174826,-1.22384,0.94537,-5679,-61250.9,73.64
200609843,-0.000753178,-0.153888,-0.016867,0.000888,0,1.18585,2.35107,-13.1724,0.000888,-937,0.174826,-1.22384,0.94537,-8708,-61250.9,73.64
200613845,-0.0278286,-0.0530434,-0.000355424,0.000888,0,1.01301,0.553057,-6.86613,0.000888,0,0.174826,-1.22384,0.94537,-12710,-61250.9,73.64
200616764,-0.110387,-0.0258259,-0.00372876,0.00074,0,4.07927,0.725615,-11.1064,0.00074,0,0.192814,-1.21304,0.934964,-15629,-61250.9,73.64
200620866,-0.0594061,-0.109921,-0.0231318,0.001029,0,3.25521,1.83101,-13.0327,0.001029,0,0.192814,-1.21304,0.934964,-19731,-61250.9,73.64
200623964,0.00260748,-0.130313,-0.0206969,0.001029,0,3.08266,2.54276,-14.6327,0.001029,0,0.192814,-1.21304,0.934964,-2530,-61250.7,73.65
200627786,-0.0852642,-0.0248139,-0.00213086,0.000888,0,2.28223,0.0596337,-9.4481,0.000888,0,0.196412,-1.18426,0.928027,-6352,-61250.7,73.65
200629791,-0.0517083,-0.0503803,-0.00816736,0.000888,0,-3.03045,-0.846376,-8.91616,0.000888,0,0.196412,-1.18426,0.928027,-8357,-61250.7,73.65
200641734,-0.0381262,0.000929958,-0.0126947,0.000888,0,-1.62047,-0.0736265,-13.5788,0.000888,-881,0.174826,-1.20225,0.952308,-492,-61251.6,73.64
200644809,-0.0082988,-0.00581672,-0.0271646,0.000888,0,-3.01962,-1.27937,-6.90837,0.000888,0,0.174826,-1.20225,0.952308,-3567,-61251.6,73.64
200648870,0.0492255,-0.0515343,-0.0142039,0.000882,0,-4.59682,-0.787149,-5.05796,0.000882,0,0.165832,-1.20045,0.957511,-7628,-61251.6,73.64
200651789,-0.0117609,-0.229078,-0.0158018,0.000888,0,0.783224,-0.0079968,-9.8075,0.000888,0,0.165832,-1.20045,0.957511,-10547,-61251.6,73.64
200655787,-0.0715933,0.00323803,0.000709841,0.000888,0,-3.81243,-1.09329,-9.08391,0.000888,0,0.180223,-1.18966,0.943636,-14545,-61251.6,73.64
200658977,0.0335424,0.0284197,-0.0101795,0.001314,0,0.633244,-0.601332,-6.09845,0.001314,0,0.180223,-1.18966,0.943636,-17735,-61251.6,73.64
200662840,-0.0760319,-0.0993159,-0.0173775,0.001176,0,-0.838089,-0.599664,-8.01855,0.001176,0,0.180223,-1.18966,0.943636,-1667,-61251.3,73.64
200665788,-0.00741108,-0.226859,-0.0103867,0.000888,0,6.41551,4.47643,-16.735,0.000888,-934,0.180223,-1.18966,0.943636,-4615,-61251.3,73.64
200669833,-0.143942,-0.0141613,-0.00958772,0.000888,0,1.96663,1.0893,-13.4207,0.000888,0,0.174826,-1.18786,0.948839,-8660,-61251.3,73.64
200672787,-0.0695515,0.0628041,-0.0151804,0.000894,0,1.59368,-0.271316,-8.87034,0.000894,0,0.174826,-1.18786,0.948839,-11614,-61251.3,73.64
200676753,-0.0465773,-0.0971987,-0.0336627,0.000745,0,2.07594,0.889369,-9.80638,0.000745,0,0.173027,-1.20045,0.950574,-15580,-61251.3,73.64
200679788,0.0267662,-0.195523,-0.0206842,0.000888,0,2.30428,1.0913,-12.6441,0.000888,0,0.173027,-1.20045,0.950574,-18615,-61251.3,73.64
200683866,-0.0529385,-0.0940181,-0.00159823,0.001029,0,4.086,2.09307,-12.6324,0.001029,0,0.173027,-1.20045,0.950574,-2586,-61251.3,73.64
200686845,-0.0684419,0.141434,0.00379467,0.001176,0,-2.78342,-3.26577,-6.96664,0.001176,0,0.171228,-1.20225,0.952308,-5565,-61251.3,73.64
200688726,-0.0393335,-0.113071,-0.00255697,0.000745,0,4.40553,0.684796,-10.6618,0.000745,-849,0.171228,-1.20225,0.952308,-7446,-61251.3,73.64
200689822,0.0199561,-0.080474,-0.0168924,0.001036,0,-2.9161,2.47999,-11.3575,0.001036,0,0.171228,-1.20225,0.952308,-8542,-61251.3,73.64
200700777,0.000844719,0.131691,-0.00790105,0.000894,0,-5.90454,-4.02221,-4.39853,0.000894,0,0.156838,-1.20944,0.931495,-19497,-61251.3,73.64
200703800,0.0581915,-0.0268557,-0.0342663,0.000888,0,1.80702,0.274531,-6.33898,0.000888,0,0.156838,-1.20944,0.931495,-2512,-61251.6,73.63
200707962,-0.0461664,-0.257612,0.0110328,0.001029,0,-0.0280913,1.15905,-7.10885,0.001029,0,0.162234,-1.20405,0.922824,-6674,-61251.6,73.63
200711788,0.0434553,-0.126192,-0.0146477,0.000888,0,-3.22895,0.374976,-11.571,0.000888,0,0.162234,-1.20405,0.922824,-10500,-61251.6,73.63
200714834,-0.0996674,0.135042,-0.000200072,0.001176,0,-0.800794,-0.632379,-10.0752,0.001176,0,0.162234,-1.20405,0.922824,-13546,-61251.6,73.63
200718906,0.0167793,-0.0348674,-0.0218383,0.001176,0,-1.77436,-1.10239,-3.80404,0.001176,0,0.196412,-1.20225,0.914152,-17618,-61251.6,73.63
200721796,-0.047536,-0.231437,0.0101958,0.001036,0,7.40333,2.73656,-14.9517,0.001036,0,0.196412,-1.20225,0.914152,-535,-61251.5,73.63
200725856,-0.0747891,-0.114119,-0.0126947,0.000888,0,3.91677,2.14097,-13.5143,0.000888,0,0.196412,-1.20225,0.914152,-4595,-61251.5,73.63
200728870,-0.1253,0.0662281,0.000304026,0.001036,0,1.45957,0.544024,-10.5054,0.001036,0,0.217998,-1.20225,0.94537,-7609,-61251.5,73.63
200730810,-0.10331,-0.0559729,-0.012327,0.001029,0,-3.31723,-2.10026,-11.7338,0.001029,0,0.217998,-1.20225,0.94537,-9549,-61251.5,73.63
200733837,0.0247498,0.0143345,-0.0340888,0.001036,-1085,3.3507,-0.229057,-9.29142,0.000745,-1085,0.217998,-1.20225,0.94537,-12576,-61251.5,73.63
200739916,-0.0628936,-0.124061,-0.0259218,0.000882,0,2.02477,1.3046,-15.6962,0.000882,0,0.182021,-1.19505,0.959245,-18655,-61251.5,73.63
200742933,-0.0671251,0.0300768,-0.00331449,0.001314,0,-4.07149,-0.931881,-8.19005,0.001314,0,0.182021,-1.19505,0.959245,-1637,-61251.8,73.63
200746844,0.0440767,0.0506201,-0.0246346,0.001176,0,0.179092,-0.72182,-8.89833,0.001176,0,0.198211,-1.18966,0.954042,-5548,-61251.8,73.63
200749758,0.0532202,-0.104709,-8.91071e-05,0.000888,0,-3.35608,-0.669496,-4.32601,0.000888,0,0.198211,-1.18966,0.954042,-8462,-61251.8,73.63
200753773,-0.0326223,-0.15522,-0.00949894,0.000888,-900,-3.91876,-2.67617,-6.5986,0.001036,-900,0.198211,-1.18966,0.954042,-12477,-61251.8,73.63
200756815,0.0399044,0.0878378,-0.0174884,0.000888,0,-4.64174,-0.94362,-7.21996,0.000888,0,0.192814,-1.19865,0.969652,-15519,-61251.8,73.63
200760845,0.0225939,0.0214363,-0.0356867,0.000888,0,-2.04635,-1.86003,-6.65376,0.000888,0,0.192814,-1.19865,0.969652,-19549,-61251.8,73.63
200763849,0.0315979,-0.164021,-0.000380787,0.001029,0,1.15537,0.806086,-9.50877,0.001029,0,0.192814,-1.19865,0.969652,-2538,-61251.9,73.63
200767824,-0.0196616,-0.101868,-0.0127835,0.000882,0,-3.46475,0.0396247,-15.9197,0.000882,0,0.167631,-1.21304,0.959245,-6513,-61251.9,73.63
200770885,0.00792429,0.0476906,-0.0080564,0.001176,0,-0.38935,-0.462202,-8.53465,0.001176,0,0.167631,-1.21304,0.959245,-9574,-61251.9,73.63
200774826,-0.0153784,-0.0713527,-0.0395483,0.001176,0,-0.167688,-1.01325,-6.18398,0.001176,0,0.167631,-1.21304,0.959245,-13515,-61251.9,73.63
200778024,0.0340898,-0.150249,-0.0035956,0.001176,0,3.6523,1.69157,-8.546,0.001176,0,0.173027,-1.21484,0.954042,-16713,-61251.9,73.63
200781816,-0.0391027,-0.125038,-0.0139375,0.000894,0,-1.11399,0.186491,-10.7407,0.000894,0,0.173027,-1.21484,0.954042,-504,-61251.4,73.62
200784813,-0.108865,0.0106061,-0.00350049,0.001036,0,4.15853,1.13503,-12.6778,0.001036,0,0.173027,-1.21484,0.954042,-3501,-61251.4,73.62
200788862,-0.0514927,-0.0903658,-0.015751,0.001036,0,7.29609,1.66705,-11.3199,0.001036,-1149,0.178424,-1.21664,0.94537,-7550,-61251.4,73.62
200791855,0.0186625,-0.0816154,-0.0251101,0.001029,0,4.3878,2.76983,-12.1659,0.001029,0,0.178424,-1.21664,0.94537,-10543,-61251.4,73.62
200795845,-0.0996452,-0.0986723,0.00479335,0.000882,0,4.07798,2.61919,-17.1681,0.000882,0,0.180223,-1.19325,0.926292,-14533,-61251.4,73.62
200798834,-0.0199723,0.0122706,-0.0161125,0.001176,0,-2.53951,0.269529,-13.9042,0.001176,0,0.180223,-1.19325,0.926292,-17522,-61251.4,73.62
200802840,-0.0687082,0.0202601,0.00705704,0.001176,0,1.2865,1.14262,-9.33942,0.001176,0,0.180223,-1.19325,0.926292,-1572,-61251.9,73.62
200805832,0.125037,-0.0834035,-0.0435874,0.000894,0,-4.45246,-2.0041,-4.55751,0.000894,0,0.180223,-1.19325,0.926292,-4564,-61251.9,73.62
200808743,-0.0390139,-0.0733367,0.00671083,0.000745,0,-6.20635,-0.980116,-5.36923,0.000745,-837,0.167631,-1.19505,0.934964,-7475,-61251.9,73.62
200813779,0.0987603,-0.00475145,-0.0456292,0.000894,0,1.18264,0.301343,-9.85133,0.000894,0,0.167631,-1.19505,0.934964,-12511,-61251.9,73.62
200816831,-0.0467371,0.050376,-0.00807859,0.000888,0,-3.13231,-1.51748,-5.02768,0.000888,0,0.182021,-1.20944,0.938433,-15563,-61251.9,73.62
200819814,0.106306,-0.183627,-0.0310706,0.000882,0,-0.297116,1.23737,-9.47439,0.000882,0,0.182021,-1.20944,0.938433,-18546,-61251.9,73.62
200820810,0.0767448,-0.125925,-0.0260105,0.000888,0,-1.0001,0.558259,-10.0944,0.000888,0,0.182021,-1.20944,0.938433,-19542,-61251.9,73.62
200825804,-0.0555255,-0.0319157,-0.0171333,0.000894,0,0.490482,0.641497,-13.0075,0.000894,0,0.182021,-1.20944,0.938433,-4476,-61251.9,73.62
200829751,-0.0473585,-0.0536648,-0.00239718,0.000894,0,2.98481,2.2038,-9.61186,0.000894,0,0.194613,-1.20045,0.936699,-8423,-61251.9,73.62
200833820,-0.00723354,-0.199961,-0.0113632,0.000894,0,6.02011,2.10096,-13.0198,0.000894,0,0.194613,-1.20045,0.936699,-12492,-61251.9,73.62
200837787,-0.117843,-0.0794975,-0.00142069,0.000894,0,3.74634,2.32066,-16.3879,0.000894,0,0.180223,-1.20405,0.954042,-16459,-61251.9,73.62
200840837,-0.053395,0.0131932,0.0091305,0.001036,0,0.21905,-0.420183,-11.4094,0.001036,0,0.180223,-1.20405,0.954042,-19509,-61251.9,73.62
200843857,0.0181299,-0.0767456,-0.0486981,0.001029,0,0.189489,0.948779,-10.4924,0.001029,0,0.180223,-1.20405,0.954042,-2403,-61251.3,73.62
200847852,-0.0122048,-0.0683122,-0.0115407,0.000882,0,1.99831,-0.275718,-10.8427,0.000882,0,0.18382,-1.18966,0.954042,-6398,-61251.3,73.62
200851730,-0.102397,-0.060447,0.00649778,0.00074,0,3.2097,1.33261,-15.8142,0.00074,0,0.18382,-1.18966,0.954042,-10276,-61251.3,73.62
200854883,-0.0764979,-0.0645616,-0.00579271,0.001168,0,0.445267,0.125764,-13.3235,0.001168,0,0.18382,-1.18966,0.954042,-13429,-61251.3,73.62
200858918,0.0628964,-0.0415919,-0.013257,0.001314,0,0.992021,2.51394,-11.664,0.001314,0,0.171228,-1.20225,0.948839,-17464,-61251.3,73.62
200861776,-0.0293378,0.0243658,-0.0161568,0.000894,0,-4.45526,-3.00935,-5.1759,0.000894,0,0.171228,-1.20225,0.948839,-583,-61251.2,73.62
200865810,0.0243693,-0.0254353,-0.021927,0.000894,0,-3.11867,0.178488,-10.0219,0.000894,0,0.171228,-1.20225,0.948839,-4617,-61251.2,73.62
200868783,-0.0984912,-0.0692,0.00621371,0.000888,0,1.60651,0.0972508,-15.8934,0.000888,0,0.174826,-1.19146,0.952308,-7590,-61251.2,73.62
200871740,0.0945702,-0.114989,-0.0543288,0.00074,0,1.908,1.54871,-9.06718,0.00074,0,0.174826,-1.19146,0.952308,-10547,-61251.2,73.62
200875867,-0.0816245,-0.0165581,-0.00346245,0.000882,0,-1.88875,-2.42309,-8.22963,0.000882,0,0.182021,-1.20944,0.941902,-14674,-61251.2,73.62
200879819,0.058686,0.00322535,-0.0431435,0.001029,0,-3.70256,-0.0126847,-7.00673,0.001029,0,0.182021,-1.20944,0.941902,-18626,-61251.2,73.62
200882883,-0.0810253,-0.125748,0.0178428,0.001168,0,2.8634,2.70663,-13.0985,0.001168,0,0.182021,-1.20944,0.941902,-1461,-61251.1,73.6
200886972,-0.00468874,-0.171081,-0.0260401,0.001314,0,-0.572749,-0.355087,-11.2533,0.001314,0,0.185619,-1.21664,0.941902,-5550,-61251.1,73.6
200888781,0.0448757,-0.0929021,-0.0345327,0.000888,0,-0.151547,1.81683,-9.50507,0.000888,0,0.185619,-1.21664,0.941902,-7359,-61251.1,73.6
200896770,-0.0852642,-0.141017,0.00603616,0.000888,0,7.30617,2.26303,-15.5396,0.000888,0,0.158637,-1.19685,0.943636,-15348,-61251.1,73.6
200902855,0.0857552,-0.119356,-0.0133827,0.001176,0,-1.40533,0.818477,-6.35074,0.001176,0,0.158637,-1.19685,0.943636,-1635,-61251.3,73.61
200903750,0.0323588,0.0581879,-0.0372846,0.000888,0,-1.01494,0.615085,-9.60987,0.000888,0,0.158637,-1.19685,0.943636,-2530,-61251.3,73.61
200911725,-0.0808788,-0.202766,-0.034728,0.00074,0,5.43198,0.955639,-10.5054,0.00074,0,0.203607,-1.20944,0.931495,-10505,-61251.3,73.61
200913889,0.0482617,-0.0823002,-0.0126313,0.001036,0,-2.01691,-1.12061,-10.3681,0.001036,0,0.203607,-1.20944,0.931495,-12669,-61251.3,73.61
200917880,0.0739802,0.0405096,-0.0171207,0.001036,0,-4.25115,1.04619,-9.72599,0.001036,0,0.205406,-1.17886,0.93323,-16660,-61251.3,73.61
200921919,-0.0425648,-0.0149602,-0.0134937,0.000888,0,1.96021,-1.42224,-6.69838,0.000888,0,0.205406,-1.17886,0.93323,-501,-61251.6,73.6
200924764,0.0301395,-0.0394613,-0.0173997,0.000888,0,-2.95666,0.378178,-8.76635,0.000888,0,0.205406,-1.17886,0.93323,-3346,-61251.6,73.6
200928877,0.0324476,-0.080474,-0.00692455,0.000888,0,-2.71124,0.735139,-12.2926,0.000888,-1058,0.194613,-1.21484,0.954042,-7459,-61251.6,73.6
200931863,0.000705219,-0.0381678,-0.0116422,0.001029,0,-4.59178,-0.870558,-6.2902,0.001029,0,0.194613,-1.21484,0.954042,-10445,-61251.6,73.6
200935873,0.0802957,-0.0141993,-0.00380485,0.001029,0,-2.01313,-0.940876,-8.59689,0.001029,0,0.180223,-1.20765,0.93323,-14455,-61251.6,73.6
200938821,-0.0646564,-0.0781913,-0.0302843,0.001029,0,2.69802,1.5909,-7.99956,0.001029,0,0.180223,-1.20765,0.93323,-17403,-61251.6,73.6
200942843,-0.0179084,-0.171221,-0.00206428,0.001168,0,-1.12742,-1.50187,-10.7419,0.001168,0,0.180223,-1.20765,0.93323,-1460,-61251.7,73.59
200945860,0.0779369,-0.153292,-0.0328714,0.001036,0,3.76324,3.42704,-8.82708,0.001036,0,0.167631,-1.18426,0.931495,-4477,-61251.7,73.59
200947829,-0.131071,0.0652009,0.0027516,0.000882,0,-5.90013,-0.618673,-12.6361,0.000882,0,0.167631,-1.18426,0.931495,-6446,-61251.7,73.59
200951734,0.0164864,0.00314926,-0.0154467,0.00074,0,0.0721403,0.765473,-10.2205,0.00074,-864,0.167631,-1.18426,0.931495,-10351,-61251.7,73.59
200953857,-0.0739394,-0.0743107,-0.00555493,0.001036,0,0.45313,-2.00902,-5.99205,0.001036,0,0.167631,-1.18426,0.931495,-12474,-61251.7,73.59
200959847,0.0429227,-0.147319,-0.031692,0.000882,0,5.31432,2.99096,-15.0017,0.000882,0,0.173027,-1.19325,0.943636,-18464,-61251.7,73.59
200963803,-0.149801,-0.0253466,0.00869932,0.000882,0,6.10432,1.16253,-13.0955,0.000882,0,0.173027,-1.19325,0.943636,-2583,-61251.3,73.59
200966867,0.0182144,-0.016499,-0.0272238,0.001314,0,0.231157,-0.817696,-6.58775,0.001314,0,0.164033,-1.22024,0.959245,-5647,-61251.3,73.59
200970884,0.0588572,-0.0929243,-0.0282298,0.001176,0,0.808288,0.948135,-10.1442,0.001176,0,0.164033,-1.22024,0.959245,-9664,-61251.3,73.59
200973822,0.0264111,-0.0564168,-0.0126947,0.000894,0,-3.74025,-0.19208,-12.8429,0.000894,0,0.164033,-1.22024,0.959245,-12602,-61251.3,73.59
200977787,-0.0342202,0.0264075,-0.00115437,0.000894,-1036,-1.79644,-1.3907,-11.8944,0.00074,0,0.173027,-1.22204,0.971386,-16567,-61251.3,73.59
200980756,0.00910052,-0.0283648,-0.0077235,0.000888,0,-2.26611,-1.22735,-9.25007,0.000888,0,0.173027,-1.22204,0.971386,-19536,-61251.3,73.59
200983829,0.0557946,-0.0581034,0.0305372,0.000882,0,-2.82673,1.57832,-6.87251,0.000882,-960,0.173027,-1.22204,0.971386,-2638,-61250.5,73.6
200987836,0.0189542,-0.112787,0.100933,0.000882,0,-2.17027,-1.32539,-8.94844,0.000882,0,0.173027,-1.22204,0.971386,-6645,-61250.5,73.6
200988889,-0.0260025,-0.0450159,0.0943516,0.001029,0,-5.25827,1.9466,-15.8168,0.001029,-1053,0.173027,-1.22204,0.971386,-7698,-61250.5,73.6
200993794,-0.125389,0.0786055,0.18074,0.000894,0,1.54476,2.16619,-13.7334,0.000894,0,0.173027,-1.22204,0.971386,-12603,-61250.5,73.6
201007776,0.0475388,-0.0595238,0.485849,0.000882,0,-3.21291,4.34837,-11.3061,0.000882,0,0.201809,-1.22923,0.926292,-6602,-61250.6,73.58
201011774,-0.151399,0.12379,0.561128,0.000882,0,4.92212,-7.04558,-7.91366,0.000882,0,0.201809,-1.22923,0.926292,-10600,-61250.6,73.58
201015789,-0.316515,-0.0972519,0.672004,0.000882,-926,1.40641,5.94323,-17.0017,0.001314,-926,0.201809,-1.22923,0.926292,-14615,-61250.6,73.58
201018862,-0.234357,0.446632,0.713394,0.001168,0,-0.409201,-0.729323,-11.6166,0.001168,0,0.302543,-1.55662,1.07198,-17688,-61250.6,73.58
201022898,-0.189098,-0.0108767,0.755154,0.001323,0,3.48688,4.4719,-7.38996,0.001323,0,0.302543,-1.55662,1.07198,-1810,-61254.4,73.58
201026916,-0.459971,0.197264,0.657209,0.001314,0,0.523098,2.87331,-30.1476,0.001314,-1112,0.302543,-1.55662,1.07198,-5828,-61254.4,73.58
201029889,0.425213,0.17245,0.466738,0.001036,0,1.53003,-5.18805,-2.379,0.001036,0,0.302543,-1.55662,1.07198,-8801,-61254.4,73.58
201032836,-0.226678,0.352201,0.360059,0.000882,0,4.06395,3.70928,-25.6918,0.000882,0,0.302543,-1.55662,1.07198,-11748,-61254.4,73.58
201035748,0.360194,0.371464,0.271553,0.000888,0,1.39437,-2.16737,-18.1674,0.000888,0,-0.116584,-1.81385,1.38243,-14660,-61254.4,73.58
201036859,0.333448,0.430625,0.168083,0.001029,-1111,1.39437,-2.16737,-18.1674,0.000888,-1111,-0.116584,-1.81385,1.38243,-15771,-61254.4,73.58
201042852,0.466987,0.72676,-0.0889499,0.001323,0,-1.86803,-4.95423,-18.0512,0.001323,0,-0.116584,-1.81385,1.38243,-1592,-61261.0,73.58
201045765,1.01006,0.358841,-0.219232,0.000745,0,-5.10772,-1.66635,-10.7464,0.000745,0,-0.116584,-1.81385,1.38243,-4505,-61261.0,73.58
201050803,0.740988,0.562413,-0.303677,0.001036,0,2.88604,5.31361,-32.3998,0.001036,0,-0.116584,-1.81385,1.38243,-9543,-61261.0,73.58
201054870,0.840229,0.894709,-0.422644,0.001176,0,-7.10118,-2.83267,-26.45,0.001176,0,-0.116584,-1.81385,1.38243,-13610,-61261.0,73.58
201057797,1.24818,0.667963,-0.454424,0.000888,0,7.6739,-2.59797,-2.89119,0.000888,0,-0.0302402,-1.31378,0.993933,-16537,-61261.0,73.58
201061800,0.911912,0.876577,-0.479724,0.000894,0,-8.94786,3.69688,-22.1531,0.000894,0,-0.0302402,-1.31378,0.993933,-543,-61270.7,73.58
201064876,1.08423,0.901015,-0.567558,0.001029,0,3.92204,-8.09611,-14.6584,0.001029,0,-0.0302402,-1.31378,0.993933,-3619,-61270.7,73.58
201068888,1.02332,0.520957,-0.539113,0.000882,-958,-3.25193,7.01495,-15.7472,0.001022,-958,-0.0302402,-1.31378,0.993933,-7631,-61270.7,73.58
201071976,0.679431,0.899037,-0.633757,0.001029,0,-0.332291,-3.60848,-26.5934,0.001029,-1119,-0.0302402,-1.31378,0.993933,-10719,-61270.7,73.58
201074869,1.18279,0.414933,-0.613474,0.001323,0,-2.93127,14.6093,-14.9815,0.001323,0,-0.0302402,-1.31378,0.993933,-13612,-61270.7,73.58
201078899,0.481767,0.347429,-0.712596,0.001176,0,-5.95798,-7.95599,-28.1701,0.001176,0,0.129855,-1.21124,0.884667,-17642,-61270.7,73.58
201082839,0.273242,0.527792,-0.931374,0.001176,0,2.88716,-8.37558,1.70804,0.001176,0,0.129855,-1.21124,0.884667,-1510,-61268.2,73.57
201085867,0.120066,-0.251982,-0.799748,0.000888,0,-1.3562,4.59248,-9.43375,0.000888,0,0.129855,-1.21124,0.884667,-4538,-61268.2,73.57
201088809,0.194723,0.182291,-0.904942,0.000894,0,1.32821,-3.42074,-23.1604,0.000894,0,0.129855,-1.21124,0.884667,-7480,-61268.2,73.57
201092781,-0.283847,-0.655539,-0.917104,0.000888,0,9.03736,-0.952424,-19.5405,0.000888,0,0.129855,-1.21124,0.884667,-11452,-61268.2,73.57
201097833,0.172898,-0.494329,-0.917878,0.001036,0,4.49023,2.40212,-6.29737,0.001036,0,-0.384609,-1.57101,1.23154,-16504,-61268.2,73.57
201105824,0.0166081,-0.39252,-0.96338,0.001036,0,1.93907,0.421569,-17.2793,0.001036,0,-0.384609,-1.57101,1.23154,-4584,-61267.9,73.57
201111828,0.208571,-0.408487,-0.808714,0.000888,0,1.14213,1.5379,-14.8997,0.000888,0,-0.384609,-1.57101,1.23154,-10588,-61267.9,73.57
201114808,-0.0720371,-0.533278,-0.731371,0.001176,0,5.71223,2.44551,-22.8777,0.001176,0,-0.384609,-1.57101,1.23154,-13568,-61267.9,73.57
201119960,0.239933,-0.482763,-0.658638,0.001022,0,-4.61756,-0.556016,-13.3814,0.001022,0,0.0309199,-1.21304,0.796214,-18720,-61267.9,73.57
201124712,0.182987,-0.0991161,-0.55479,0.00074,0,-5.09761,0.0293002,-13.1256,0.00074,-800,0.0309199,-1.21304,0.796214,-3501,-61267.9,73.56
201127773,-0.177498,-0.357975,-0.62247,0.000888,0,7.12972,0.836785,-20.2457,0.000888,0,0.0309199,-1.21304,0.796214,-6562,-61267.9,73.56
201131786,0.242393,-0.328858,-0.536006,0.000888,0,2.35641,5.27839,-14.8917,0.000888,0,0.0309199,-1.21304,0.796214,-10575,-61267.9,73.56
201134812,0.15786,0.126254,-0.511527,0.001176,0,0.0238979,-1.65914,-19.6245,0.001176,-1044,0.0309199,-1.21304,0.796214,-13601,-61267.9,73.56
201136877,0.27425,-0.0148081,-0.401681,0.001029,0,-8.00982,4.02766,-19.9316,0.001029,0,0.110068,-0.98639,0.463214,-15666,-61267.9,73.56
201142825,0.608134,-0.11616,-0.373147,0.001029,0,-5.11769,3.02983,-18.3902,0.001029,0,0.110068,-0.98639,0.463214,-1369,-61266.7,73.56
201145830,-0.0464708,-0.031028,-0.5408,0.000888,0,6.65291,-0.555044,-11.7256,0.000888,-887,0.110068,-0.98639,0.463214,-4374,-61266.7,73.56
201148754,0.574259,-0.0366916,-0.309353,0.000745,-862,-2.85045,-0.753248,-16.1392,0.001029,-862,0.110068,-0.98639,0.463214,-7298,-61266.7,73.56
201152787,0.167914,0.160631,-0.363167,0.000894,0,-0.21972,-7.12602,-9.51344,0.000894,0,0.110068,-0.98639,0.463214,-11331,-61266.7,73.56
201155853,0.391886,-0.224107,-0.397788,0.000888,-1022,-1.14066,4.69623,-14.397,0.001176,-1022,0.110068,-0.98639,0.463214,-14397,-61266.7,73.56
201159874,0.406419,-0.0755281,-0.226826,0.001029,0,-2.07981,3.8685,-12.8397,0.001029,-990,0.110068,-1.04395,0.477089,-18418,-61266.7,73.56
201162874,0.0385728,-0.182503,-0.3716,0.001323,0,2.69822,0.160613,-15.3473,0.001323,0,0.110068,-1.04395,0.477089,-1629,-61259.2,73.56
201166857,0.337498,-0.293704,-0.249509,0.001323,0,0.846852,10.365,-11.3434,0.001323,0,0.110068,-1.04395,0.477089,-5612,-61259.2,73.56
201169877,0.0903396,-0.104138,-0.332819,0.001036,0,1.73215,-11.28,-4.82026,0.001036,0,0.110068,-1.04395,0.477089,-8632,-61259.2,73.56
201173947,-0.181094,-0.401252,-0.349673,0.001176,0,3.63396,9.062,-12.9996,0.001176,0,0.110068,-1.04395,0.477089,-12702,-61259.2,73.56
201176864,0.259869,-0.107562,-0.153551,0.001029,0,1.15915,-7.72223,-7.4818,0.001029,0,0.129855,-1.07813,0.308855,-15619,-61259.2,73.56
201180869,-0.44526,-0.292614,-0.35519,0.001036,0,0.85873,4.68418,-13.2277,0.001036,0,0.129855,-1.07813,0.308855,-19624,-61259.2,73.56
201183751,0.110301,-0.395348,-0.0587674,0.000888,0,0.551436,3.48038,-18.1001,0.000888,0,0.129855,-1.07813,0.308855,-2456,-61255.8,73.55
201186977,-0.273306,-0.0645616,-0.285291,0.001176,0,-1.70248,-4.10165,6.42072,0.001176,0,0.129855,-1.07813,0.308855,-5682,-61255.8,73.55
201190839,-0.18642,-0.472558,-0.0969394,0.001176,0,6.86866,10.0425,-19.8585,0.001176,0,0.129855,-1.07813,0.308855,-9544,-61255.8,73.55
201191883,-0.172933,-0.171021,-0.174552,0.001029,0,0.577903,-2.51702,-1.04806,0.001029,0,0.129855,-1.07813,0.308855,-10588,-61255.8,73.55
201193770,-0.367027,-0.0655603,-0.207549,0.000894,0,-7.71072,-3.69687,-0.84992,0.000894,-996,0.129855,-1.07813,0.308855,-12475,-61255.8,73.55
201200772,-0.369423,-0.367918,-0.0940099,0.000888,-1010,-6.34446,2.61399,-17.0617,0.000888,-1010,0.151441,-1.1249,0.333136,-19477,-61255.8,73.55
201208767,-0.340928,-0.578929,-0.0920569,0.000888,0,4.92814,2.75045,-9.9103,0.000888,0,0.151441,-1.1249,0.333136,-7493,-61254.7,73.55
201213898,-0.361941,-0.579018,-0.0611009,0.001036,0,3.96707,8.32114,-20.0214,0.001036,0,0.151441,-1.1249,0.333136,-12624,-61254.7,73.55
201218825,-0.271108,-0.498524,0.0509326,0.001176,0,-3.40931,1.22606,-12.0893,0.001176,0,0.144246,-1.02057,0.18398,-17551,-61254.7,73.55
201222778,-0.33744,-0.143401,0.0529585,0.001029,0,-3.78539,-2.53245,-16.8322,0.001029,0,0.144246,-1.02057,0.18398,-1389,-61254.2,73.53
201225927,-0.433542,-0.482307,0.0418493,0.001036,0,-1.03178,7.56377,-12.3305,0.001036,0,0.144246,-1.02057,0.18398,-4538,-61254.2,73.53
201229859,-0.107647,-0.239655,0.107363,0.001036,0,-1.72302,0.607482,-15.7407,0.001036,0,0.144246,-1.02057,0.18398,-8470,-61254.2,73.53
201232801,-0.524331,-0.374221,-0.0305379,0.000894,0,-1.14005,5.19916,-12.468,0.000894,0,0.144246,-1.02057,0.18398,-11412,-61254.2,73.53
201236905,-0.18564,-0.348616,0.139397,0.001029,0,-0.520655,4.02183,-21.3421,0.001029,0,0.119063,-0.937821,0.111136,-15516,-61254.2,73.53
201239881,-0.385225,-0.214621,0.038197,0.001029,0,-0.848229,-5.98487,4.23369,0.001029,0,0.119063,-0.937821,0.111136,-18492,-61254.2,73.53
201243868,-0.310809,-0.370759,0.0937429,0.001029,0,1.7837,5.83327,-17.8172,0.001029,0,0.119063,-0.937821,0.111136,-2463,-61253.8,73.53
201247773,-0.338087,-0.241329,0.10404,0.000888,0,-2.36877,-3.67686,-4.26106,0.000888,0,0.119063,-0.937821,0.111136,-6368,-61253.8,73.53
201250904,-0.420379,-0.291929,0.112318,0.001176,-1090,2.52396,0.868239,-7.29471,0.00074,-1090,0.119063,-0.937821,0.111136,-9499,-61253.8,73.53
201253868,-0.218663,-0.184642,0.167627,0.001036,0,-1.53191,-0.408178,-4.36671,0.001036,0,0.119063,-0.937821,0.111136,-12463,-61253.8,73.53
201257781,-0.452248,-0.247365,0.181894,0.000888,0,-0.392158,0.172085,-17.5765,0.000888,0,0.128057,-1.01517,0.109402,-16376,-61253.8,73.53
201260836,-0.313776,-0.224285,0.146854,0.001036,0,-2.93363,1.36039,-10.0856,0.001036,0,0.128057,-1.01517,0.109402,-19431,-61253.8,73.53
201264868,-0.200668,-0.214253,0.224948,0.000888,0,-0.265035,-0.454999,-11.2738,0.000888,-1005,0.128057,-1.01517,0.109402,-3619,-61252.1,73.53
201267785,-0.532409,-0.300096,0.0923226,0.000888,0,-1.69867,4.37919,-13.6589,0.000888,0,0.128057,-1.01517,0.109402,-6536,-61252.1,73.53
201272040,-0.0932758,-0.203113,0.275171,0.001168,0,0.0723207,-6.13057,-3.53389,0.001168,0,0.128057,-1.01517,0.109402,-10791,-61252.1,73.53
201274882,-0.529169,-0.381744,0.0843553,0.001176,0,0.984234,1.17684,-13.0187,0.001176,0,0.128057,-1.01517,0.109402,-13633,-61252.1,73.53
201278906,-0.156134,-0.218071,0.241992,0.001323,0,-1.90921,-1.50627,-4.42655,0.001323,0,0.203607,-1.07993,0.0573704,-17657,-61252.1,73.53
201281985,-0.480033,-0.492351,0.150735,0.001029,0,-1.29164,0.784819,-14.5416,0.001029,0,0.203607,-1.07993,0.0573704,-559,-61251.6,73.52
201285866,-0.343857,-0.196055,0.21252,0.000888,0,-1.4725,2.43911,-15.6691,0.000888,0,0.203607,-1.07993,0.0573704,-4440,-61251.6,73.52
201288704,-0.451058,-0.553878,0.20975,0.000745,0,0.960955,-2.53266,-7.23876,0.000745,0,0.203607,-1.07993,0.0573704,-7278,-61251.6,73.52
201292959,-0.378072,-0.301821,0.219748,0.001036,0,-2.16093,1.06643,-18.4753,0.001036,0,0.203607,-1.07993,0.0573704,-11533,-61251.6,73.52
