timestamp,rollspeed,pitchspeed,yawspeed,q[0],q[1],q[2],q[3]
199705870,0.0195769,-0.0222093,0.00113364,-0.752473,0.0399133,-7.2617e-05,0.657413
199707897,-0.0251414,0.0214569,0.000435499,-0.752473,0.0399078,-8.95541e-05,0.657413
199708715,-0.0194773,0.0182739,-0.0083813,-0.752472,0.039904,-0.000101289,0.657415
199709815,0.0108986,-0.0110998,-0.00820064,-0.752472,0.0398995,-9.78391e-05,0.657415
199713773,-0.0149843,0.0184688,0.00109747,-0.752473,0.0398895,-0.000134446,0.657414
199716844,0.019252,-0.00472436,-0.00612991,-0.75246,0.0398772,-8.15733e-05,0.65743
199720741,0.0154942,-0.0323469,-0.0229092,-0.752459,0.0398764,-8.96551e-05,0.65743
199724785,-0.00452148,0.0024277,0.00957677,-0.752459,0.0398639,-0.000108926,0.657432
199727744,-0.0108664,-0.0138169,-0.0105008,-0.752459,0.0398603,-0.000104104,0.657432
199731843,-0.03172,-0.0420034,-0.0123024,-0.752456,0.0398753,-0.000102022,0.657435
199734778,0.0331334,0.0311993,-0.00570271,-0.752456,0.0398534,-8.88888e-05,0.657435
199737902,0.0031289,-0.0182999,0.0203019,-0.752456,0.039865,-0.000123451,0.657435
199741767,0.0136281,-0.042739,-0.0375447,-0.752456,0.0398375,-0.000125576,0.657437
199745875,-0.0326407,-0.00152187,-0.0283162,-0.752442,0.0398502,-0.000149495,0.657452
199748814,0.0286914,0.0436696,0.00521308,-0.752432,0.0398104,-0.000119743,0.657466
199751773,-0.0261358,-0.0566808,-0.00347216,-0.75243,0.0398513,-0.000116859,0.657466
199755792,0.114136,-0.090281,0.0109939,-0.75243,0.0398212,-0.000100132,0.657467
199759761,0.0121355,-0.0251233,0.00991689,-0.752432,0.0398236,-0.000127754,0.657465
199762753,-0.0122835,0.0714695,-0.0173752,-0.752433,0.0397948,-0.000131572,0.657465
199766753,-0.0432058,0.0124277,-0.00946631,-0.752433,0.0398137,-0.000124101,0.657464
199769806,0.0490186,-0.0798479,0.011872,-0.752435,0.0397894,-6.37496e-05,0.657464
199773906,-0.00243642,-0.0218352,0.026688,-0.752436,0.0398125,-0.000128772,0.657461
199776926,0.00112541,0.0592245,-0.0409208,-0.752437,0.0398019,-0.000115673,0.657461
199780829,-0.0356154,-0.0424765,0.0120815,-0.752436,0.0398105,-0.000139552,0.657461
199783755,0.0018514,-0.0224111,-0.00854817,-0.752434,0.039785,-0.000120526,0.657465
199786717,0.0712512,0.00615693,-0.00689831,-0.752433,0.0397875,-9.17119e-05,0.657466
199794786,0.0111005,0.040903,-0.00879181,-0.752428,0.0398276,-8.33778e-05,0.65747
199801742,-0.0481462,-0.0337887,0.0118559,-0.752421,0.0398579,-8.34127e-05,0.657475
199804796,0.00479125,0.0399581,-0.02514,-0.752418,0.0398369,-6.0897e-05,0.657481
199807792,0.0371478,0.0325139,0.0153243,-0.752418,0.0398334,-6.04903e-05,0.657481
199810784,-0.0296702,-0.058938,-0.00251419,-0.752416,0.0398251,-7.45345e-05,0.657483
199815791,-0.0153055,-0.0317895,-0.00314592,-0.752403,0.0398385,-4.78072e-05,0.657497
199822767,0.0190459,0.0160543,-0.0309113,-0.752404,0.0398022,-1.83452e-05,0.657499
199825968,0.0145247,0.00195385,0.0112152,-0.752402,0.0398142,-2.96052e-05,0.6575
199829777,0.034004,0.0318783,-0.0128067,-0.752405,0.0397968,-6.14231e-06,0.657498
199832801,-0.0389,-0.0472944,0.00589836,-0.752405,0.0397947,-2.08503e-05,0.657498
199836790,0.0252173,0.00430572,-0.00230785,-0.752407,0.039782,-1.53688e-06,0.657497
199839847,-0.0601533,0.000968926,-0.00555681,-0.752402,0.0398394,-9.25546e-06,0.657499
199843817,0.0546346,-0.00289119,-0.00211146,-0.752404,0.0398137,2.57477e-05,0.657498
199846793,-0.021994,0.0142963,0.0297077,-0.752405,0.0397938,-5.97544e-05,0.657498
199850930,0.0236257,0.0367503,-0.0397563,-0.752418,0.039756,-9.5309e-07,0.657485
199853808,-0.0462922,-0.0251436,0.00207998,-0.752416,0.0397944,-1.92024e-05,0.657485
199856890,-0.0420351,-0.0161419,-0.0129318,-0.752417,0.0397838,-1.39659e-05,0.657485
199860793,0.0709228,-0.0124936,0.0205257,-0.752401,0.0397946,-7.26011e-06,0.657502
199864809,-0.00215666,0.054002,-0.00719256,-0.75239,0.0397497,5.66665e-05,0.657517
199866691,-0.0464355,0.000505257,0.0153266,-0.752389,0.0397825,2.81509e-06,0.657517
199871786,-0.0462784,-0.0686622,-0.0200205,-0.752383,0.0398026,-4.8502e-05,0.657522
199874837,0.097757,-0.0254891,-0.00994842,-0.752391,0.0397447,4.5355e-05,0.657516
199877817,0.0245792,-1.19619e-05,0.0131968,-0.752392,0.0397359,0.000108506,0.657516
199881807,0.07381,0.0362764,0.0129074,-0.752387,0.0397725,6.12079e-05,0.657519
199885838,0.0459672,-0.00288072,-0.0232958,-0.752393,0.0397566,-2.62497e-06,0.657514
199886824,0.0688455,-0.0286212,-0.00417001,-0.752394,0.0397396,2.61731e-05,0.657514
199893823,0.0460124,-0.0236144,-0.0275037,-0.752396,0.0397788,0.000108277,0.657508
199898813,-0.0625997,0.0764038,0.0101341,-0.752398,0.0397051,4.9788e-05,0.657511
199902789,0.0306088,-0.0651549,-0.0250172,-0.752398,0.0397048,0.0001343,0.657511
199906745,-0.0609909,0.00980407,-0.00393722,-0.75239,0.0397581,0.00015792,0.657517
199909921,0.0328697,0.0033767,-0.00154781,-0.752365,0.0397268,0.000162777,0.657548
199913901,-0.144054,-0.00752547,-0.00658822,-0.752371,0.0397332,6.01626e-05,0.65754
199916812,0.0879625,-0.0805257,-0.0233081,-0.752371,0.0397264,0.000193911,0.657541
199920885,-0.0367825,0.0546096,0.0162956,-0.75237,0.0397305,0.000205996,0.657541
199923796,0.0424891,0.0257085,-0.00284088,-0.75237,0.0396896,0.000188843,0.657544
199927780,-0.0453745,-0.00558367,-0.00436264,-0.752369,0.0397145,0.000112574,0.657544
199930827,0.0766183,-0.0297284,-0.021285,-0.75237,0.03972,0.000126882,0.657542
199934823,-0.0193267,0.0360234,0.0273151,-0.752367,0.0396585,0.00018459,0.65755
199936733,-0.107641,-0.0166339,0.0168679,-0.752364,0.0397233,0.000111088,0.657549
199941887,0.100521,0.011427,-0.00761692,-0.75237,0.039609,0.000191736,0.657548
199944826,-0.000665074,-0.0285431,0.00248556,-0.752375,0.0396642,0.000166181,0.657539
199948858,0.00525069,0.0303762,-0.0105385,-0.752372,0.0396527,0.000226609,0.657544
199951975,-0.0729551,-0.0147849,0.0147524,-0.75237,0.0396969,0.000116355,0.657544
199955857,-0.0362337,-0.0469263,0.00166689,-0.752367,0.0396349,0.000171258,0.657551
199958852,-0.0100561,-0.0633482,-0.0081989,-0.752364,0.039653,0.000164808,0.657553
199961922,0.0427338,0.0112844,-0.0167371,-0.752365,0.0396382,0.000263646,0.657553
199965893,-0.0434549,0.0583116,0.0119115,-0.752362,0.0396091,0.000122857,0.657558
199969815,-0.0153329,-0.0319461,-0.0104664,-0.752364,0.039611,0.000141864,0.657556
199972881,-0.00762221,-0.0820084,0.00539746,-0.752362,0.0396452,0.000216606,0.657556
199976776,0.0236314,0.0334584,0.00417987,-0.75237,0.0396052,0.000262598,0.657549
199980695,-0.0802798,0.0504782,0.00835123,-0.752371,0.0395665,0.000100157,0.657551
199983792,0.0757561,-0.0497271,-0.0306318,-0.75237,0.039601,0.000219068,0.657549
199986925,-0.0406416,-0.0684431,0.00675104,-0.752366,0.0396692,0.000257531,0.65755
199989779,0.0658268,0.0478553,-0.00641087,-0.752367,0.0396007,0.000231149,0.657553
199993869,-0.11961,0.102937,0.0331115,-0.75237,0.0395515,0.000150671,0.657552
199996853,0.0913332,-0.159936,-0.0248368,-0.752358,0.0396439,0.000188834,0.657561
200000787,-0.0577505,-0.122179,0.0393031,-0.752369,0.0396343,0.000326621,0.657549
200004734,-0.045625,-0.00627912,-0.0242939,-0.752372,0.0396696,0.000309531,0.657543
200007797,-0.0622293,0.125166,0.0208908,-0.752377,0.0395912,0.000266562,0.657542
200011788,0.111628,-0.0128092,-0.0229084,-0.752365,0.0396064,0.000215922,0.657554
200014969,-0.0055899,-0.110938,0.0025502,-0.752364,0.0396056,0.00029169,0.657556
200018795,-0.0318263,0.0200888,-0.0137882,-0.752364,0.0396064,0.000266053,0.657556
200021952,-0.00736486,0.0937982,0.00935195,-0.752374,0.0395189,0.000215712,0.65755
200024716,-0.0593311,-0.0639133,0.00476129,-0.752372,0.0395639,0.000145614,0.657549
200028691,0.0289235,-0.131746,0.00112438,-0.752369,0.0396184,0.000305758,0.65755
200032780,-0.115069,0.107892,0.00813268,-0.752368,0.0396367,0.000231626,0.657549
200035795,0.059992,0.0870792,0.00556499,-0.752364,0.0395337,0.000155015,0.65756
200039858,-0.0246998,-0.0944072,-0.00551123,-0.752358,0.0396378,0.000116416,0.657561
200042787,0.089348,-0.0881649,-0.0249017,-0.752357,0.0396548,0.000297594,0.657561
200046791,-0.119723,0.103529,0.0107428,-0.752365,0.0396293,0.000249168,0.657553
200050044,0.0878648,0.0469632,0.0103004,-0.752367,0.0395712,0.000186716,0.657555
200053943,0.0228902,-0.042681,-0.00422798,-0.752367,0.039639,0.000152312,0.65755
200056725,0.121422,-0.0585069,-0.0224096,-0.752368,0.0396224,0.000308758,0.657551
200060733,-0.0782498,0.0351802,0.00553174,-0.752368,0.0395999,0.000316135,0.657551
200063919,-0.0204292,0.0072814,0.0103803,-0.752368,0.0396173,0.000212311,0.657551
200067869,0.0290654,-0.00894918,0.0154092,-0.752365,0.0395576,0.000215497,0.657557
200070833,0.0262704,-0.0591239,-0.0247802,-0.752362,0.0396095,0.000309743,0.657558
200074745,-0.0443168,0.0380311,0.00327542,-0.752358,0.0396197,0.000383351,0.657562
200077850,-0.0452078,0.0102838,0.0236727,-0.752363,0.039527,0.000210765,0.657561
200081784,-0.104547,-0.0320312,-0.00465249,-0.752362,0.0395332,0.000260152,0.657562
200084797,0.0577499,-0.0801203,-0.0267436,-0.75236,0.0396473,0.000360865,0.657558
200087923,0.0460965,-0.0319065,-0.0095851,-0.752363,0.0395896,0.000464878,0.657558
200091713,-0.0878229,0.0202907,0.032897,-0.752357,0.0395616,0.000259761,0.657566
200095785,-0.0739124,0.0131083,0.00141375,-0.752358,0.0395217,0.000306144,0.657568
200098847,0.104721,-0.0597453,-0.0165099,-0.752353,0.0395984,0.000449711,0.657569
200102780,-0.00466623,0.0300092,0.0279704,-0.75236,0.039613,0.000505342,0.65756
200105868,-0.0468327,0.0550332,0.0116387,-0.752355,0.0396083,0.00030386,0.657566
200109911,-0.0372016,-0.0116348,-0.00419084,-0.752353,0.0395688,0.000445279,0.657571
200112855,0.0656383,-0.0255804,0.025152,-0.752349,0.0396367,0.000486684,0.657571
200116825,-0.0252499,-0.0173456,0.00581854,-0.752354,0.0396158,0.000457856,0.657566
200119871,-0.020565,0.120774,0.00138641,-0.752359,0.0395345,0.000288842,0.657565
200123859,0.00658369,-0.00635883,-0.000851999,-0.752373,0.0395254,0.000339842,0.65755
200126812,0.0322216,-0.124721,0.00343472,-0.752366,0.0396223,0.000434288,0.657552
200130925,0.0147858,0.0212443,-0.0185825,-0.752368,0.0396022,0.000532525,0.657551
200133895,-0.130987,0.0761635,0.0258669,-0.752372,0.0395483,0.000347245,0.65755
200137839,0.0117887,-0.00325454,-0.0129217,-0.752372,0.0395265,0.000330645,0.657552
200140751,0.00459981,-0.107907,-0.00357549,-0.752366,0.039579,0.000442686,0.657556
200144850,0.0533239,0.015011,-0.00447845,-0.752365,0.0396127,0.000487888,0.657555
200147827,-0.130448,0.0773886,0.0052399,-0.752369,0.0395421,0.000361942,0.657554
200151693,0.0197105,-0.0582,0.0128056,-0.752373,0.0395395,0.000386089,0.657549
200154858,0.0337077,-0.033053,-0.00389585,-0.752376,0.0395762,0.000503441,0.657544
200157895,0.021737,-0.0107629,-0.0045327,-0.752377,0.0395524,0.000536197,0.657544
200161932,-0.0794527,0.0636793,0.0101952,-0.752379,0.0395385,0.000384445,0.657542
200165840,0.0697625,0.00349032,-0.00842875,-0.752382,0.0394836,0.000393638,0.657542
200167866,0.0478699,-0.120649,0.0132858,-0.75238,0.0395199,0.000475074,0.657543
200172853,0.0898624,-0.0446167,-0.000379837,-0.752374,0.0395144,0.000644489,0.65755
200175789,-0.108905,0.0629066,0.0129394,-0.752373,0.039545,0.00054922,0.657549
200177870,-0.00105561,0.0615989,-0.00652019,-0.752375,0.0395039,0.000474291,0.657549
200182795,0.00805918,-0.0847255,-0.0112093,-0.752384,0.0394822,0.000548644,0.65754
200185839,-0.0392939,-0.103733,0.011878,-0.752376,0.0395767,0.000588371,0.657544
200187858,0.0705685,0.100126,-0.0135405,-0.75238,0.0395115,0.000623665,0.657543
200193829,-0.0445083,-0.0343199,-0.000211508,-0.752379,0.0394881,0.00041491,0.657546
200196741,0.047028,-0.041312,-0.0198246,-0.752382,0.0394999,0.000560138,0.657542
200200774,0.0217529,0.0259127,0.0155583,-0.752375,0.0395112,0.000588637,0.657549
200203989,-0.0975234,0.020191,0.00974071,-0.752378,0.0394541,0.000507939,0.657549
200207790,-0.0605241,-0.0129692,-0.00304895,-0.752376,0.0394928,0.000492978,0.657548
200210840,0.123129,-0.0191506,-0.0208377,-0.752377,0.0394774,0.000679505,0.657548
200214765,0.049692,-0.025642,0.0122139,-0.752356,0.0395262,0.000635379,0.65757
200217863,-0.0530266,0.0508128,0.00956703,-0.75236,0.0394651,0.000560191,0.657569
200221826,-0.0135826,0.048276,-0.0155557,-0.752364,0.0394802,0.000482368,0.657564
200224887,0.0724654,-0.0364024,0.00314472,-0.752364,0.0394463,0.00059126,0.657565
200228882,0.00297992,-0.0307544,0.0118022,-0.752362,0.0394772,0.000528357,0.657565
200231751,0.00903845,0.0242578,-0.00424116,-0.75236,0.0394391,0.0005269,0.657571
200235997,0.0568198,0.0162449,0.0224313,-0.752363,0.0394464,0.000555563,0.657567
200238824,0.00104031,-0.0400279,-0.0171151,-0.752359,0.0395103,0.000590665,0.657567
200242820,-0.0376158,-0.026535,0.00596113,-0.752355,0.0395379,0.000606319,0.65757
200246745,0.0278352,-0.0116234,-0.00339247,-0.752362,0.0394371,0.000540652,0.657569
200249765,-0.0555024,-0.0405501,0.000462026,-0.752366,0.0394207,0.000516945,0.657565
200252739,0.0617027,-0.026757,-0.00122829,-0.752365,0.039433,0.000615743,0.657565
200255786,-0.0921084,-0.00991146,-0.00259332,-0.752361,0.0394648,0.000581434,0.657568
200257811,0.0608855,0.0549053,0.021279,-0.752363,0.0394273,0.000586319,0.657568
200262758,-0.0360059,-0.011863,-0.00184408,-0.752367,0.0394552,0.000600456,0.657561
200266817,0.11191,0.0103237,-0.0221285,-0.752377,0.0394184,0.000710282,0.657552
200270757,-0.0704624,0.0568649,0.022397,-0.752366,0.0394801,0.000604317,0.657561
200273820,0.0678547,-0.0122908,-0.0360693,-0.752367,0.0394723,0.000638965,0.657561
200277815,0.0170387,0.0340045,0.0321922,-0.752366,0.0394478,0.000643388,0.657563
200280975,0.0191639,-0.0310573,-0.0221617,-0.752368,0.0394589,0.000687842,0.65756
200284796,-0.0504494,0.0435858,0.00672178,-0.75237,0.0394429,0.000685279,0.657559
200287972,0.0532591,-0.00777797,-0.0160316,-0.752369,0.0394511,0.000635455,0.657559
200301833,-0.0483525,-0.00133818,-0.0043285,-0.752363,0.0394488,0.000586794,0.657566
200305833,0.0192026,-0.0834175,0.00268718,-0.752364,0.0394334,0.000686478,0.657566
200308837,-0.0572675,-0.0630469,-0.0113685,-0.75236,0.0394989,0.000695253,0.657566
200312879,0.0219777,0.0778091,0.0198545,-0.752365,0.0393993,0.000689242,0.657567
200315741,-0.100558,0.0124333,-0.0101026,-0.752355,0.039473,0.000579092,0.657574
200318813,0.107657,-0.10476,-0.0162617,-0.752354,0.0394778,0.000737822,0.657575
200322837,-0.00369328,-0.0299018,-0.00196022,-0.75236,0.0395044,0.000770626,0.657566
200325821,0.0561027,0.0987269,-0.00227406,-0.752366,0.0394331,0.000761295,0.657563
200329876,0.00829398,0.0500086,-0.00422567,-0.752365,0.0394372,0.000666838,0.657565
200332868,0.0233211,-0.104544,-0.00961046,-0.752361,0.0395045,0.000722175,0.657566
200336730,-0.0427887,-0.0132678,0.00286035,-0.752366,0.0394474,0.00080386,0.657563
200340765,0.00901805,0.0533286,0.0142989,-0.752361,0.0394326,0.000662049,0.65757
200343804,0.00818179,0.0107439,0.0081491,-0.752363,0.0394008,0.000642039,0.657569
200347844,0.183263,-0.0768736,-0.0338894,-0.752363,0.0393935,0.000760407,0.657569
200350827,-0.102616,-0.0274328,0.0178842,-0.752367,0.0395086,0.000764269,0.657558
200354858,0.0626751,0.0581545,-0.0229224,-0.752369,0.0395033,0.000699071,0.657556
200357760,-0.100136,0.0300085,0.0186551,-0.752374,0.0394247,0.000598588,0.657555
200360754,0.0520988,-0.0983162,-0.00208273,-0.752373,0.0394449,0.00066316,0.657555
200364821,-0.0277601,-0.0340672,-0.00820332,-0.752367,0.0395173,0.000813156,0.657557
200367741,-0.0351498,0.099568,-0.0158826,-0.752368,0.0395017,0.000766054,0.657557
200371799,-0.0195522,0.0311718,-0.00148032,-0.752366,0.0394307,0.000551533,0.657564
200375773,0.00306565,-0.161778,-0.0176073,-0.75237,0.0394841,0.000630106,0.657556
200378777,0.0325342,-0.0073708,-0.0144078,-0.752371,0.0394437,0.000764835,0.657557
200382785,-0.0839605,0.145975,0.0335884,-0.752378,0.0394161,0.00059217,0.657551
200385805,0.0796965,0.0182019,-0.0348614,-0.752373,0.0393869,0.000550848,0.657558
200388782,-0.0254699,-0.153113,0.0106301,-0.75237,0.0394385,0.000621543,0.657559
200392728,-0.00468664,-0.00667365,-0.00226256,-0.75237,0.0394284,0.000775167,0.657559
200395753,-0.110272,0.123639,0.0294582,-0.752365,0.0394347,0.000646217,0.657565
200399799,0.16364,0.0654793,-0.0310662,-0.752378,0.0393051,0.000628349,0.657558
200402782,-0.0868713,-0.147701,0.0291145,-0.752373,0.0394028,0.000579949,0.657558
200406787,0.0682206,-0.0637583,-0.0267962,-0.752383,0.0394024,0.000770786,0.657546
200409786,-0.151561,0.141537,0.0097781,-0.752377,0.0394218,0.000648595,0.657552
200413839,0.091709,0.0354042,-0.0229613,-0.752383,0.0393084,0.000581272,0.657552
200417817,0.0100856,-0.159705,0.0196713,-0.752373,0.0393987,0.000705584,0.657558
200420752,0.0454198,-0.0978918,-0.00837416,-0.752376,0.0394268,0.000854205,0.657552
200424772,-0.174451,0.178011,0.00978084,-0.75238,0.0393615,0.000715232,0.657552
200434845,-0.0184643,-0.0218121,-0.0135862,-0.752329,0.0394125,0.000802019,0.657607
200437867,0.0273436,0.0887021,0.00793357,-0.752334,0.0393202,0.00087938,0.657607
200441749,0.0418671,-0.0512401,-0.0259731,-0.752329,0.0394031,0.000731794,0.657608
200445770,0.0112067,-0.0943014,0.00513828,-0.752327,0.0393444,0.000809264,0.657613
200448699,0.0038681,-0.0324225,-0.0131355,-0.752325,0.0393812,0.000854623,0.657613
200452786,-0.0830957,0.123034,0.0191067,-0.752323,0.0393561,0.000850378,0.657617
200455751,0.0472674,-0.0466653,-0.0234347,-0.752322,0.0393725,0.000776292,0.657618
200459845,-0.0288196,-0.043215,0.0310384,-0.752321,0.0393448,0.000862741,0.657621
200462784,-0.0275183,0.0197141,-0.01516,-0.75232,0.0393615,0.000837277,0.657621
200465792,0.0477319,0.0232826,-0.00748996,-0.752323,0.0393566,0.000855328,0.657617
200469780,0.0434488,-0.032963,0.00417821,-0.752327,0.0392887,0.000725947,0.657617
200472789,-0.0451682,-0.0559738,-0.0197658,-0.752326,0.0393695,0.000771187,0.657613
200476761,0.0490541,-0.0280607,-0.00707039,-0.752323,0.039371,0.000918517,0.657616
200480807,0.0230745,0.0290406,0.0307794,-0.752328,0.0393066,0.000868395,0.657615
200483748,-0.129917,-0.00563298,-0.0116073,-0.752325,0.0393533,0.000752565,0.657615
200487822,0.0728888,-0.0303301,-0.0107131,-0.752326,0.039355,0.000871651,0.657614
200490857,-0.0451179,0.0383268,0.00790052,-0.752321,0.0393539,0.000882629,0.657619
200494858,0.0225124,-0.00236692,-0.00240007,-0.752321,0.0393131,0.000836732,0.657622
200497777,-0.104893,0.0056813,0.000659751,-0.75232,0.0393459,0.000745788,0.657622
200501791,0.0708976,-0.031898,-0.0380577,-0.752324,0.0393275,0.000904271,0.657618
200504747,-0.000954613,0.0165407,0.0273305,-0.752323,0.0393319,0.000924603,0.657618
200507767,-0.0398562,0.0248592,-0.00107435,-0.752317,0.0393539,0.000865886,0.657625
200511838,0.0348757,0.0538546,0.00908457,-0.75232,0.0392903,0.000803708,0.657624
200515787,0.00941353,-0.0389563,-0.0161209,-0.752323,0.0392951,0.00086684,0.657621
200517828,0.0126576,-0.0835088,0.0186329,-0.75232,0.0393308,0.000913832,0.657622
200522812,-0.0265979,0.036111,-0.00385509,-0.752316,0.0393496,0.000851047,0.657626
200525781,0.0561723,0.0540791,0.00786791,-0.752322,0.0392553,0.000827366,0.657624
200527798,-0.0581517,-0.0720382,0.00234414,-0.75232,0.0392899,0.000828166,0.657624
200532773,0.0269533,-0.0275727,-0.0168036,-0.752317,0.0393635,0.000977412,0.657623
200539799,-0.0401571,-0.0224058,-0.0109782,-0.752307,0.0392706,0.000885836,0.65764
200546937,0.0017712,0.0302298,-0.0128146,-0.752305,0.0392886,0.000993796,0.657641
200550860,-0.0703157,0.015799,-0.00158936,-0.752308,0.0392789,0.000886481,0.657639
200553803,0.0157583,-0.0206073,-0.00309707,-0.752309,0.0392612,0.000898048,0.657639
200557809,0.00625704,-0.0341574,-0.00623138,-0.75231,0.0392962,0.000937994,0.657635
200560812,0.00387098,0.045695,0.0110188,-0.752308,0.0392733,0.000957999,0.657639
200564772,-0.053244,0.0388611,-0.0151231,-0.752306,0.0392995,0.000875675,0.65764
200567785,0.0861637,0.00964536,-0.00234521,-0.752307,0.0392745,0.000884031,0.65764
200571863,0.0122008,-0.0242213,-0.00974062,-0.752308,0.0392321,0.000931159,0.657642
200574883,-0.0118657,-0.022626,0.00278046,-0.752297,0.0393038,0.000925728,0.65765
200578867,0.00933544,0.0793354,-0.00227432,-0.752301,0.0392401,0.00085772,0.657649
200581806,0.019598,-0.049406,0.00570685,-0.7523,0.039254,0.000859907,0.65765
200585831,0.0267748,-0.0559737,0.00103118,-0.752298,0.0392769,0.00093993,0.65765
200587788,-0.0410788,-0.00702748,-0.00148741,-0.752297,0.0392937,0.000929642,0.65765
200588826,-0.000139186,0.0195392,-0.00339571,-0.752298,0.0392808,0.000919994,0.65765
200597804,0.0615164,-0.0353646,-0.023998,-0.752294,0.0392364,0.000987307,0.657657
200602837,-0.0203857,0.048537,0.00521942,-0.752294,0.0392192,0.000935524,0.657659
200606814,-0.0782834,0.0175546,0.00416818,-0.752289,0.0391853,0.000870621,0.657667
200609843,0.0124201,-0.0739282,-0.00615045,-0.752287,0.0392237,0.000904516,0.657667
200613845,0.00814969,0.015566,-0.0099393,-0.752291,0.0391845,0.00103874,0.657664
200616764,-0.0672388,0.0410262,0.00822209,-0.752289,0.0391892,0.000974056,0.657666
200620866,-0.010791,-0.0302849,-0.0134092,-0.752289,0.0391735,0.000874226,0.657667
200622832,0.0064754,-0.0245124,0.00579455,-0.752287,0.0392063,0.000890638,0.657667
200627786,0.0176893,0.0585342,-0.0026273,-0.752294,0.0391574,0.00102217,0.657662
200629791,-0.0862782,-0.0312377,0.00772188,-0.752292,0.0392035,0.000955478,0.657662
200640853,0.0117833,-0.053043,-0.0227046,-0.752355,0.0392093,0.00101706,0.657589
200644809,-0.0104513,-0.012759,-0.005596,-0.752355,0.0392155,0.000986894,0.657589
200648870,0.00756894,-0.049393,0.0123983,-0.752355,0.0391742,0.000932332,0.657592
200651789,-0.0238085,-0.0454281,-0.008009,-0.752356,0.0391518,0.000967411,0.657592
200655787,-0.0254526,0.0263673,-0.00399633,-0.752355,0.0392236,0.00114229,0.657588
200658977,0.00433306,0.0319871,-0.0101887,-0.752356,0.039213,0.00106873,0.657588
200662840,-0.110522,-0.0463897,0.00669363,-0.752354,0.0391821,0.000961089,0.657592
200665788,0.0558945,-0.0714377,-0.0198926,-0.752353,0.0392181,0.00107607,0.657591
200669833,-0.0186155,0.0523946,-0.0192226,-0.752352,0.0392155,0.00124367,0.657591
200672787,-0.0180141,0.100861,-0.00431223,-0.752357,0.0391974,0.00107565,0.657588
200676753,0.0135173,-0.0547118,-0.0150823,-0.752356,0.0391593,0.000955716,0.657592
200679788,0.0440016,-0.0441133,0.00694214,-0.752355,0.0391717,0.000987152,0.657592
200682831,0.0741766,-0.0401196,-0.0281986,-0.752352,0.0392024,0.00116623,0.657593
200686845,-0.0588814,0.118329,0.0132087,-0.752348,0.0392208,0.00108118,0.657597
200688726,-0.0595205,0.0451726,0.0141529,-0.752351,0.0391726,0.000977388,0.657597
200689822,-0.0181342,-0.0587141,0.00526997,-0.752349,0.039193,0.000978727,0.657597
200700777,0.0178061,0.0870735,-0.00110469,-0.752344,0.0392373,0.00118061,0.6576
200703800,-0.0682776,0.0385629,0.00372173,-0.752349,0.0391636,0.00102114,0.657599
200707962,-0.0692861,-0.126347,0.0188318,-0.752351,0.0391016,0.00108256,0.6576
200711788,0.00530748,-0.0336629,-0.013965,-0.752345,0.0391957,0.00122425,0.657601
200714834,0.000772245,0.113856,-0.0107998,-0.752348,0.0391381,0.00124864,0.657601
200718906,-0.0223397,-0.0255427,-0.0109678,-0.752349,0.0391093,0.00105782,0.657602
200721796,-0.00862408,-0.0975997,0.00972065,-0.75235,0.0391177,0.00111354,0.6576
200724821,0.0884856,-0.00252739,-0.0271532,-0.752349,0.0391365,0.00127624,0.657601
200727762,0.0576309,-0.0119492,0.00832488,-0.752352,0.0391563,0.00127713,0.657595
200730810,-0.174391,0.0779799,0.014988,-0.752343,0.0391439,0.0011105,0.657607
200733837,0.0190284,0.0170197,-0.0273481,-0.752342,0.0391656,0.00106951,0.657607
200738935,0.0309557,-0.0390139,0.00780002,-0.752345,0.0390932,0.00116633,0.657608
200742933,0.0319065,-0.0166507,0.000241046,-0.752338,0.039143,0.00124072,0.657613
200746844,0.00290159,0.0268452,-0.00859355,-0.752332,0.0391732,0.0010957,0.657617
200749758,0.084823,-0.00315993,0.00426324,-0.75234,0.0390309,0.00109121,0.657617
200753773,-0.0281192,-0.0696342,0.0105272,-0.752331,0.039159,0.00118886,0.657619
200756815,0.0479789,0.0379878,-0.0172837,-0.752331,0.039182,0.00126565,0.657618
200760845,-0.0202348,0.0602251,-0.00425825,-0.752337,0.0390906,0.00111252,0.657616
200763849,0.0335517,-0.0843235,0.000829984,-0.752339,0.0390572,0.00115512,0.657616
200767824,-0.0287695,-0.0749076,-0.00739312,-0.752329,0.039141,0.00128333,0.657623
200770885,0.0482953,0.0555519,-0.0092531,-0.752332,0.0391064,0.00131313,0.657621
200774826,-0.0646298,0.0337356,-0.0250419,-0.752336,0.0390459,0.00110226,0.65762
200778024,0.0317935,-0.0895667,0.0163572,-0.752339,0.0390627,0.00117795,0.657616
200780912,0.0191651,-0.0334007,-0.00802771,-0.752337,0.0390581,0.00128607,0.657618
200784813,0.0107363,0.0620806,0.015402,-0.752337,0.0390655,0.00131041,0.657618
200788862,-0.014142,0.0173073,-0.00985804,-0.752342,0.0390623,0.00114111,0.657613
200791855,0.0551174,-0.0175486,-0.0143143,-0.752349,0.0390475,0.00119362,0.657605
200795845,-0.0462989,-0.0300329,0.0197086,-0.752344,0.0390852,0.0012619,0.657609
200798834,0.0286805,0.0249195,-0.0132781,-0.752343,0.039095,0.00126633,0.657609
200801781,0.0352355,0.0217075,-0.00951725,-0.752347,0.0390392,0.00122509,0.657608
200805832,0.0578397,-0.0451069,-0.033208,-0.752353,0.0390119,0.00120867,0.657603
200808743,-0.0429836,-0.0688024,0.017356,-0.752352,0.0390275,0.00131306,0.657603
200812852,-0.0109589,0.0221106,-0.000298324,-0.752345,0.0390894,0.0012869,0.657607
200816831,-0.0341874,0.0601411,0.0198124,-0.752353,0.0389632,0.00127861,0.657606
200819814,0.0258339,-0.0955476,-0.0154474,-0.752353,0.0389708,0.00125883,0.657606
200820810,0.108691,-0.132622,-0.0182097,-0.752355,0.0389719,0.00134153,0.657603
200825804,-0.0320339,-0.00298634,0.00361915,-0.752349,0.0390029,0.00137727,0.657608
200829751,0.00797712,0.00823771,0.0201088,-0.752352,0.0389415,0.00135135,0.657608
200833820,-0.0396025,-0.0552987,-0.00443863,-0.752344,0.0389785,0.0012561,0.657615
200837787,-0.0242002,0.0699459,-0.0114398,-0.752349,0.0389027,0.00131364,0.657614
200840837,-0.00405947,0.0429549,0.0306625,-0.752342,0.038939,0.00126824,0.657619
200843857,0.0266097,-0.0820246,-0.0393504,-0.752342,0.0389499,0.00128884,0.65762
200847852,-0.0160373,-0.0343053,0.0128533,-0.752345,0.0389645,0.00129078,0.657615
200851730,-0.0354429,0.00755183,-0.00511034,-0.752346,0.0389193,0.001309,0.657616
200854883,-0.0118919,0.0319467,0.0200673,-0.752345,0.0389477,0.0012566,0.657616
200858918,0.0982194,0.0122062,-0.0154802,-0.752341,0.0389657,0.00133729,0.657619
200861776,-0.0331273,0.0081893,0.0114202,-0.752348,0.0389594,0.00133251,0.657612
200865810,0.0276164,-0.0672355,-0.00769066,-0.752346,0.038981,0.00136236,0.657612
200868783,-0.101853,0.00390673,0.0287845,-0.752346,0.0390022,0.00130088,0.657612
200871740,0.0904519,-0.0120216,-0.033421,-0.752344,0.0390029,0.00132259,0.657614
200875867,-0.046251,0.0230602,0.0131116,-0.752341,0.038988,0.0013863,0.657618
200878789,-0.00170561,-0.0633957,-0.00556023,-0.752338,0.0390272,0.00136353,0.657618
200882883,-0.089813,0.072587,0.0247765,-0.752339,0.0389403,0.00126948,0.657623
200886972,-0.0172436,-0.0147758,-0.0132921,-0.75234,0.0389491,0.001317,0.657622
200888781,0.0844417,-0.119405,-0.0313463,-0.752337,0.038985,0.00142525,0.657622
200896770,-0.0316583,0.0362383,0.0204755,-0.752343,0.038853,0.00133791,0.657624
200902855,-0.00376237,-0.137847,0.00462547,-0.752331,0.0390585,0.00152463,0.657625
200903750,0.0742111,-0.0358791,-0.00406215,-0.752331,0.0390492,0.0015576,0.657625
200910913,-0.0165217,0.041063,0.0146659,-0.752339,0.0389037,0.00127736,0.657625
200913889,-0.0055442,-0.0968919,-0.0156798,-0.75233,0.039008,0.00133957,0.657629
200917880,0.0955926,0.00733978,-0.0071085,-0.752338,0.0389614,0.00149879,0.657623
200921919,-0.0698636,-0.0185692,-0.00936668,-0.752338,0.039016,0.00142445,0.65762
200924764,0.00465558,0.0216231,0.016409,-0.75234,0.0389797,0.00135323,0.657619
200928877,0.0286485,-0.03077,-0.00302541,-0.752338,0.0389527,0.00140182,0.657624
200931863,0.028698,-0.0688892,-0.0074439,-0.752335,0.0389771,0.00152119,0.657625
200935873,-0.0162405,0.0058229,-0.00125601,-0.752335,0.039002,0.00140396,0.657623
200938821,-0.0459487,0.0602357,-0.00838616,-0.752341,0.0389052,0.00135198,0.657623
200941919,-0.00780094,-0.0137884,0.00342462,-0.752339,0.0389343,0.00136037,0.657624
200945860,0.130253,-0.126485,-0.0238517,-0.752337,0.0389904,0.00160158,0.657621
200947829,-0.044409,0.0158389,-0.00865664,-0.752336,0.0390044,0.00162454,0.657622
200950870,0.00422398,0.103264,0.00709585,-0.752341,0.0389358,0.00141579,0.657621
200953857,-0.0376139,0.0151012,-0.00364343,-0.752356,0.0388801,0.00137193,0.657608
200959847,0.060335,-0.089057,-0.011661,-0.752349,0.0389525,0.00149409,0.657611
200963803,-0.0337969,0.13341,0.0153369,-0.752354,0.0388868,0.00146921,0.657608
200966867,-0.0470624,0.000386424,0.00907765,-0.75235,0.0389718,0.00134184,0.657609
200970884,0.0739358,-0.0497636,-0.00285381,-0.752357,0.0389517,0.0014369,0.657601
200973822,0.00839812,-0.0779553,-0.00453689,-0.752355,0.0389887,0.0015264,0.657602
200977787,-0.0109296,0.0537427,0.0111367,-0.752357,0.0389588,0.00149798,0.657601
200980756,-0.0726509,0.00588596,-0.0113901,-0.752351,0.0389727,0.00139449,0.657608
200983829,0.0831084,0.000879835,0.0171384,-0.752356,0.0388759,0.00143677,0.657607
200987836,-0.0230029,-0.10267,0.140597,-0.752357,0.0389378,0.00154337,0.657602
200988889,0.0073892,-0.0511498,0.116554,-0.752356,0.0389568,0.00156892,0.657602
200993794,-0.11743,0.124341,0.186629,-0.752449,0.0389376,0.00136045,0.657497
201007776,0.185774,-0.0424905,0.447393,-0.753419,0.0389232,0.00129845,0.656386
201011774,-0.261984,0.202944,0.56096,-0.754056,0.0390106,0.000926684,0.65565
201015789,-0.10317,-0.121407,0.679281,-0.754879,0.0390635,0.000820461,0.654699
201018862,-0.289639,0.380781,0.68999,-0.754874,0.0391905,0.000222377,0.654698
201022898,-0.00965209,0.0235638,0.720385,-0.755908,0.0389761,-0.000255044,0.653517
201026916,-0.497276,0.376231,0.688244,-0.757037,0.0392189,-0.00132156,0.652193
201029889,0.406638,0.114949,0.540035,-0.757051,0.0389643,-0.00143466,0.652191
201032836,-0.258149,0.47827,0.40483,-0.75821,0.0385011,-0.00178232,0.65087
201035748,0.326204,0.394701,0.346053,-0.759195,0.038022,-0.0021132,0.649749
201042852,0.621207,0.703338,-0.0210341,-0.759867,0.0356529,-0.00226419,0.649097
201044851,0.518401,0.593251,-0.117181,-0.759908,0.0348227,-0.00241829,0.649093
201050803,0.842433,0.87839,-0.36758,-0.760253,0.0313867,-0.00222079,0.648865
201053896,1.13571,0.704539,-0.358731,-0.760154,0.0296075,-0.00194093,0.649066
201057797,1.10387,0.628252,-0.404057,-0.759804,0.0271131,-0.00183977,0.649584
201060778,1.05903,1.25697,-0.482706,-0.759317,0.0248006,-0.00187226,0.650246
201064876,1.11031,0.703018,-0.547052,-0.759405,0.0221044,-0.00176773,0.65024
201068888,1.11657,0.748462,-0.46501,-0.758832,0.0190973,-0.00180679,0.651004
201071976,0.652059,0.77691,-0.654384,-0.758124,0.0175047,-0.00177971,0.651873
201074869,1.32925,0.617387,-0.526004,-0.758168,0.0155844,-0.00153958,0.651871
201078899,0.214244,0.599822,-0.811461,-0.757384,0.0139625,-0.00172597,0.652818
201081833,0.709868,0.129987,-0.757282,-0.756423,0.0130489,-0.00132685,0.653951
201085867,0.0382096,0.0820007,-0.804038,-0.756437,0.0122852,-0.0015754,0.653949
201088809,0.25618,-0.0316573,-0.912889,-0.755246,0.0122393,-0.0011934,0.655327
201091768,-0.10273,-0.101439,-0.818101,-0.75525,0.0120005,-0.00122277,0.655326
201097833,0.335626,-0.200205,-0.84775,-0.75524,0.0125261,-0.000539545,0.655329
201104805,0.214578,-0.655572,-0.956641,-0.751,0.0133688,0.000672636,0.660166
201111828,0.28409,-0.490191,-0.819636,-0.747865,0.0138038,0.00211088,0.663704
201114808,0.0456064,-0.362256,-0.747033,-0.747861,0.013981,0.00270116,0.663703
201119960,0.33694,-0.372874,-0.644515,-0.746409,0.01452,0.00378225,0.665319
201124712,0.201033,-0.0439145,-0.56799,-0.745163,0.0147892,0.00446955,0.666704
201127773,-0.129403,-0.31623,-0.605191,-0.744072,0.0149513,0.00471637,0.667915
201131786,0.34271,-0.0916408,-0.474135,-0.743081,0.0148966,0.00511262,0.669017
201134812,0.102502,-0.0317992,-0.572055,-0.74308,0.0148819,0.00545466,0.669015
201135750,0.227288,0.187737,-0.484138,-0.742188,0.0147415,0.00545936,0.670007
201142004,0.305074,0.245593,-0.437334,-0.741376,0.0141648,0.00575913,0.670915
201145830,0.0368484,-0.167222,-0.540825,-0.740631,0.0138138,0.00634455,0.67174
201148754,0.537711,0.122584,-0.277619,-0.740639,0.0133791,0.00652484,0.671738
201151786,0.0309652,0.0196751,-0.487942,-0.73995,0.0130684,0.00685429,0.6725
201155853,0.5472,-0.126525,-0.283178,-0.739326,0.0124817,0.00720348,0.673193
201158884,0.271051,0.0738582,-0.401153,-0.739332,0.0121605,0.00759427,0.673189
201162874,0.161518,-0.2371,-0.325892,-0.738761,0.0118824,0.00814677,0.673813
201165702,0.536333,0.0566578,-0.180677,-0.738767,0.0115202,0.0084715,0.673809
201169877,-0.0962528,-0.161045,-0.387922,-0.738257,0.0115303,0.00900041,0.674361
201172733,0.538462,-0.274833,-0.156392,-0.737816,0.01124,0.00954005,0.674841
201176864,-0.0957839,-0.0291387,-0.247696,-0.737385,0.0116693,0.00972414,0.675302
201180869,-0.160404,-0.307189,-0.298181,-0.736982,0.0117257,0.0102387,0.675734
201183751,-0.0926977,-0.251984,-0.114368,-0.736972,0.0122666,0.0101702,0.675735
201186977,-0.0440982,-0.173258,-0.223877,-0.736607,0.0124824,0.0105154,0.676124
201190839,-0.25865,-0.432958,-0.0588409,-0.736593,0.0132432,0.0103677,0.676128
201191883,-0.149655,-0.369851,-0.0960631,-0.736255,0.0134374,0.0104313,0.67649
201192774,-0.186111,-0.108787,-0.16848,-0.736253,0.013552,0.0103942,0.676491
201200772,-0.396596,-0.110595,-0.0926914,-0.735665,0.0151526,0.0102111,0.6771
201208767,-0.225711,-0.602266,-0.0592775,-0.735404,0.0170693,0.0103307,0.677335
201213898,-0.310088,-0.422089,-0.00259632,-0.73521,0.0183076,0.0102407,0.677514
201218825,-0.213849,-0.25152,0.0833607,-0.735072,0.0193008,0.0101967,0.677637
201222778,-0.452119,-0.189448,-0.0224296,-0.734977,0.0204893,0.0101644,0.677706
201225927,-0.221216,-0.359967,0.10864,-0.734962,0.0209739,0.0102159,0.677706
201228741,-0.53083,-0.155149,-0.0221471,-0.734917,0.0218097,0.00995354,0.677733
201232801,-0.337663,-0.378086,0.0281684,-0.734986,0.0224486,0.0101028,0.677636
201236905,-0.17347,-0.189907,0.143845,-0.735002,0.0233247,0.00986634,0.677591
201239881,-0.38904,-0.289044,0.0591932,-0.734982,0.0239356,0.00990181,0.677592
201242817,-0.28408,-0.194612,0.110695,-0.735049,0.0244055,0.00980737,0.677504
201246843,-0.318265,-0.216756,0.136913,-0.735144,0.0252001,0.00979424,0.677372
201249814,-0.415323,-0.231989,0.0914619,-0.735122,0.0257987,0.0096702,0.677374
201253868,-0.161635,-0.0972049,0.216202,-0.735255,0.0264514,0.00949228,0.677208
201257781,-0.572433,-0.255139,0.122958,-0.73542,0.0274541,0.00917561,0.676993
201260836,-0.140773,-0.110992,0.232431,-0.735405,0.0278372,0.00909639,0.676995
201264868,-0.412496,-0.190553,0.173296,-0.735594,0.0288318,0.00869035,0.676753
201267785,-0.229554,-0.151232,0.189297,-0.73582,0.0290644,0.00874617,0.676497
201270817,-0.577161,-0.333108,0.140184,-0.735778,0.0300715,0.00844837,0.676503
201274882,-0.333412,-0.209413,0.157389,-0.736003,0.0306293,0.0084039,0.676233
201278906,-0.163394,-0.237836,0.235064,-0.736241,0.0315941,0.00832973,0.67593
201281985,-0.436172,-0.348308,0.159892,-0.736506,0.0322332,0.00828003,0.675612
201285866,-0.261713,-0.171934,0.227665,-0.736465,0.0331199,0.00828376,0.675614
201288704,-0.420364,-0.432254,0.216713,-0.736728,0.0337829,0.00820256,0.675295
201291743,-0.443777,-0.226588,0.219799,-0.737013,0.0346934,0.0081239,0.674939
201297863,-0.508049,-0.261495,0.193676,-0.737299,0.0361387,0.00803792,0.674551
201304822,-0.6067,-0.18751,0.184443,-0.737589,0.0376471,0.00786091,0.674154
201307897,-0.0745296,-0.38008,0.343404,-0.737941,0.0383332,0.00784761,0.67373
201317810,-0.505383,-0.12999,0.204132,-0.73871,0.0401811,0.00772722,0.672781
201323874,-0.224025,-0.110122,0.267281,-0.739104,0.0411782,0.0077815,0.672287
201326845,-0.473384,-0.358907,0.264663,-0.739527,0.042054,0.0075363,0.671769
201330885,-0.257358,-0.133431,0.25769,-0.739505,0.0424222,0.00762526,0.67177
201334917,-0.189648,-0.196636,0.325468,-0.739927,0.0433822,0.00755319,0.671244
201337883,-0.300595,-0.184429,0.222725,-0.740369,0.0436807,0.0074754,0.670738
201340747,-0.347991,-0.264026,0.283178,-0.740321,0.0444448,0.00736854,0.670742
201344728,-0.317864,-0.207699,0.215789,-0.740738,0.0448408,0.00729483,0.670256
201348825,-0.269367,-0.126796,0.28125,-0.741122,0.0456925,0.00712668,0.669776
201351749,-0.280199,-0.250443,0.235189,-0.741645,0.046139,0.00706505,0.669167
201357802,-0.250352,-0.242003,0.260757,-0.74199,0.0472001,0.00682689,0.668712
201362828,-0.316124,-0.155006,0.242829,-0.742356,0.0480751,0.00656257,0.668247
201365831,-0.179833,-0.199739,0.305771,-0.74233,0.0484526,0.00654335,0.668248
201368913,-0.41005,-0.121935,0.233409,-0.742721,0.0490014,0.00633222,0.667775
201372867,-0.129241,-0.0944813,0.342544,-0.743129,0.0494427,0.00626984,0.667289
201376840,-0.307139,-0.167864,0.21783,-0.743555,0.0500118,0.00603257,0.666775
201379893,-0.0336549,0.0210923,0.363336,-0.743545,0.0501612,0.00592681,0.666776
201383821,-0.389567,-0.154643,0.197448,-0.743984,0.0506595,0.00569978,0.66625
201386897,0.00116752,0.0677731,0.376088,-0.74444,0.0507893,0.00555814,0.665732
201390032,-0.351573,-0.110178,0.183916,-0.744421,0.0510592,0.00539686,0.665734
201393820,0.0984391,0.0940381,0.403512,-0.744872,0.0513164,0.0050716,0.665212
201406850,-0.281318,0.137016,0.311019,-0.746104,0.0525198,0.00401221,0.663743
201410846,-0.359565,-0.1208,0.14188,-0.746103,0.0525243,0.00413238,0.663743
201414855,0.160784,0.114447,0.434583,-0.746517,0.0529382,0.00345599,0.663248
201417852,-0.377949,-0.153434,0.116782,-0.746927,0.0530834,0.00355506,0.662774
201421772,0.143779,0.082844,0.440828,-0.746897,0.0535272,0.00284394,0.662776
201425854,-0.718701,0.0484212,0.0612361,-0.747267,0.0538639,0.00268136,0.662332
201428988,0.134089,-0.0164706,0.4083,-0.747671,0.0540349,0.0023175,0.661864
201432858,-0.628258,0.101574,0.0893927,-0.748062,0.0543439,0.00206816,0.661397
201435780,0.106659,-0.103642,0.41354,-0.748045,0.054586,0.00171197,0.661398
201439881,-0.540884,0.125665,0.111447,-0.748404,0.054865,0.0015339,0.660968
201442797,0.123909,-0.162222,0.396208,-0.748782,0.0550216,0.00137927,0.660528
201445775,-0.323528,-0.0188937,0.12735,-0.748767,0.0552108,0.00141582,0.660529
201449783,0.1401,-0.150612,0.373837,-0.749167,0.0554275,0.00113844,0.660057
201451815,-0.0120046,-0.161966,0.198302,-0.749575,0.0554938,0.00132415,0.659588
201452816,-0.307884,-0.0166946,0.149979,-0.749566,0.0556235,0.00120291,0.659588
201459838,-0.343705,0.00283752,0.153493,-0.749789,0.0560148,0.000970213,0.659301
201467775,-0.376844,0.147722,0.192304,-0.750561,0.0564244,0.000622024,0.658388
201470899,0.197408,-0.218556,0.283586,-0.750556,0.0564799,0.000668226,0.658388
201474913,-0.370292,0.210111,0.202605,-0.750915,0.0567305,0.000338883,0.657958
201476878,0.0349024,-0.097281,0.323084,-0.751275,0.0567543,0.000351922,0.657544
201481805,-0.331774,0.28261,0.196005,-0.751637,0.0568928,0.000157556,0.657119
201484968,0.259519,-0.23835,0.265746,-0.751641,0.0568307,0.000280355,0.65712
201487862,-0.36643,0.238945,0.168372,-0.752009,0.0569329,5.55468e-05,0.656689
201491793,0.326577,-0.226755,0.241634,-0.752383,0.0568304,3.19538e-05,0.656269
201493875,-0.100802,0.0997549,0.137413,-0.752386,0.056803,2.9416e-05,0.656269
201498905,0.312937,-0.208646,0.235127,-0.75275,0.0566656,-0.000201885,0.655863
201502858,-0.273623,0.434569,0.195838,-0.753109,0.0565032,-0.000698817,0.655465
201505775,0.394679,-0.267659,0.225537,-0.753117,0.0563846,-0.000495368,0.655466
201509869,-0.332444,0.455029,0.179643,-0.753468,0.056226,-0.000965065,0.655076
201512838,0.386255,-0.225241,0.223592,-0.753801,0.0560827,-0.000793304,0.654704
201515848,-0.252276,0.375795,0.147092,-0.753814,0.05594,-0.00101832,0.654702
201519855,0.363787,-0.239807,0.232181,-0.754145,0.0558056,-0.00107351,0.654332
201523868,-0.276408,0.438463,0.179675,-0.75449,0.0555805,-0.00146242,0.653952
201526845,0.415505,-0.240691,0.211508,-0.754815,0.055426,-0.00121573,0.653591
201529742,-0.225982,0.402979,0.1104,-0.754829,0.0552558,-0.00135483,0.653589
201533870,0.456347,-0.240844,0.209124,-0.75513,0.0550789,-0.00140845,0.653256
201537833,-0.29723,0.420364,0.136966,-0.755175,0.054832,-0.00172876,0.653223
201540782,0.453465,-0.27551,0.213517,-0.755182,0.0547306,-0.00153888,0.653224
201542915,0.161129,0.0152498,0.125791,-0.755477,0.0545597,-0.00129739,0.652899
201552841,-0.227012,0.187679,0.190371,-0.756046,0.0541868,-0.00190036,0.652269
201558779,-0.299827,0.431861,0.0966011,-0.756344,0.0537541,-0.00176803,0.651959
201560907,0.0978161,-0.0421806,0.23722,-0.756348,0.0537035,-0.00186376,0.651958
201564865,-0.0864145,0.391067,0.0661323,-0.75664,0.053173,-0.00162918,0.651664
201568822,0.55831,-0.126273,0.217213,-0.756918,0.0528374,-0.00183574,0.651368
201572907,-0.279889,0.569215,0.0453804,-0.757217,0.0521972,-0.00200728,0.651071
201574836,-0.05502,0.0906534,0.201601,-0.75722,0.0521715,-0.00228753,0.651069
201579763,-0.26131,0.597421,0.0270002,-0.757505,0.0512172,-0.00227462,0.650813
201582807,0.46457,-0.0767954,0.210411,-0.757709,0.0510604,-0.0024364,0.650588
201586812,-0.216184,0.584316,-0.0435866,-0.757964,0.0502693,-0.0026312,0.650352
201587862,-0.414135,0.374916,0.0361454,-0.757963,0.0502953,-0.00290599,0.650349
201592831,0.141301,0.44863,0.00291644,-0.758189,0.0494206,-0.00258092,0.650154
201600745,-0.266716,0.555928,-0.0921813,-0.758387,0.048434,-0.00309718,0.649995
201603914,0.314775,-0.0867565,0.197285,-0.758516,0.0484488,-0.00345644,0.649841
201607776,-0.175834,0.462772,-0.0816575,-0.758691,0.0476794,-0.00330937,0.649695
201610854,0.288515,-0.041365,0.210153,-0.758693,0.0476663,-0.00372069,0.649691
201614826,-0.118834,0.37088,-0.0883245,-0.758849,0.0468095,-0.00341082,0.649574
201617672,0.404419,-0.0262908,0.227304,-0.758962,0.0468153,-0.00376507,0.649438
201620833,0.378147,0.221752,-0.00105228,-0.75902,0.0458859,-0.00317046,0.64944
201624814,0.353615,-0.0547586,0.193577,-0.759171,0.0457792,-0.00364316,0.649269
201628764,-0.156863,0.335154,-0.156648,-0.759341,0.04485,-0.00319551,0.649138
201631842,0.307853,-0.0535644,0.187685,-0.759409,0.044846,-0.00351666,0.649056
201634833,0.4078,0.123038,0.00101546,-0.75946,0.0439879,-0.0028632,0.649059
201638868,0.216731,-0.0631756,0.194508,-0.75954,0.0439888,-0.00337879,0.648963
201642868,-0.0746258,0.202353,-0.0705061,-0.759531,0.0432077,-0.00287835,0.649029
201645777,0.19037,0.0906374,0.276974,-0.759533,0.0431955,-0.00333132,0.649024
201649879,-0.146627,0.19051,-0.145094,-0.759665,0.0424641,-0.00289957,0.64892
201652690,0.166722,0.0792248,0.183605,-0.759812,0.0424772,-0.00330189,0.648745
201656755,-0.153973,0.215621,-0.141337,-0.759982,0.0416393,-0.0028328,0.648602
201659783,0.100585,0.0436212,0.157302,-0.759982,0.0416744,-0.00321237,0.648599
201663900,-0.126561,0.200459,-0.132447,-0.760077,0.0408731,-0.00282094,0.648541
201666834,0.186485,-0.00431252,0.127746,-0.760101,0.0408481,-0.00305669,0.648513
201669836,0.283959,0.139601,-0.09215,-0.760137,0.0401721,-0.00260853,0.648514
201673790,0.244243,0.00310675,0.0859419,-0.760156,0.0399646,-0.00289341,0.648504
201677816,-0.134175,0.1627,-0.135001,-0.760161,0.0393455,-0.00247184,0.648538
201680832,0.285931,0.0411613,0.0768854,-0.760176,0.0390788,-0.00261858,0.648536
201684838,-0.132533,0.12529,-0.136774,-0.76014,0.0385349,-0.00214516,0.648612
201687796,0.388178,0.107386,0.0554419,-0.760096,0.0381662,-0.00228914,0.648685
201690830,0.341058,-0.0614032,-0.0965755,-0.760121,0.0376358,-0.00155948,0.648689
201694810,0.269129,0.168432,0.0302079,-0.760094,0.0372432,-0.00183799,0.648742
201697735,0.308421,-0.0888924,-0.108849,-0.760073,0.0367834,-0.00123392,0.648795
201701731,0.165491,0.188427,0.0221381,-0.760031,0.0365177,-0.00144619,0.648858
201705872,0.0298822,-0.00754644,-0.0879232,-0.760052,0.0360714,-0.00086118,0.64886
201708901,0.20033,0.138466,-0.016577,-0.76,0.0357567,-0.00100939,0.648938
201712894,0.129487,0.00664146,-0.049127,-0.759948,0.0353382,-0.000470985,0.649022
201714858,0.0323338,0.24016,-0.0422052,-0.759959,0.0351169,-0.000590401,0.649021
201719764,0.291261,0.00270736,-0.0209837,-0.759916,0.0345673,-7.42199e-06,0.649102
201722858,0.000252455,0.156374,-0.0846472,-0.759865,0.0341907,-0.000109257,0.649181
201725853,0.392626,-0.111768,-0.0385835,-0.759875,0.0339726,0.00027854,0.649181
201729772,-0.046484,0.0945386,-0.133145,-0.759811,0.0335394,0.000426449,0.649278
201733793,0.380765,-0.0367016,0.024684,-0.759729,0.0332773,0.000824018,0.649387
201736831,-0.0780418,0.0642973,-0.150859,-0.759504,0.0330125,0.00089969,0.649664
201740781,0.45372,0.00890185,0.0289568,-0.759513,0.0327759,0.001242,0.649664
201743744,-0.00147941,0.046393,-0.173721,-0.759417,0.0323622,0.00146867,0.649798
201747911,0.50027,0.0304484,-0.00929144,-0.759284,0.0322407,0.00173362,0.649958
201748834,0.614367,0.115857,-0.0291316,-0.759294,0.0319979,0.00188498,0.649958
201752829,-0.0250764,-0.0138334,-0.166529,-0.759169,0.0317478,0.00195114,0.650116
201757752,0.400033,0.22052,-0.167444,-0.759076,0.0304707,0.00249411,0.650283
201761858,0.609601,0.294255,0.000315234,-0.758941,0.029922,0.00252309,0.650466
201764841,0.580882,0.264753,-0.15473,-0.758985,0.0288241,0.00297219,0.650463
201768975,0.587004,0.330334,-0.020242,-0.758884,0.0282126,0.00292168,0.650607
201771774,0.683645,0.239696,-0.135461,-0.758815,0.0269718,0.00341855,0.650738
201774898,-0.039934,0.181063,-0.21481,-0.75882,0.0268681,0.003227,0.650738
201778796,0.767359,0.19389,-0.0938073,-0.758713,0.0251897,0.00381537,0.650926
201782793,0.24466,0.374128,-0.102219,-0.758567,0.0249416,0.0035614,0.651107
201785753,0.842414,0.174267,-0.0614495,-0.75861,0.0236496,0.0040836,0.651102
201787742,-0.0935872,0.00462546,-0.2659,-0.758491,0.0235556,0.0041594,0.651245
201791805,0.904046,0.45028,0.0102997,-0.758527,0.0224718,0.00411093,0.651242
201795844,-0.126439,0.101168,-0.213188,-0.758374,0.0220902,0.00443334,0.651431
201799959,0.756077,0.213731,-0.0214534,-0.758249,0.0206663,0.00457108,0.651621
201803756,-0.00351919,0.34772,-0.14063,-0.758141,0.0204789,0.00462175,0.651753
201806857,0.688352,0.218526,-0.0102376,-0.758054,0.0194101,0.00474609,0.651885
201809856,0.0737453,-0.0346689,-0.161236,-0.758057,0.0192794,0.00512111,0.651883
201813893,0.542295,0.251758,-0.0105548,-0.757965,0.0183741,0.00496326,0.652017
201817796,-0.0263949,0.28519,-0.143792,-0.757901,0.0180084,0.00527408,0.6521
201820729,0.440893,0.177273,0.0238473,-0.757915,0.017488,0.00501786,0.6521
201824758,-0.0219366,0.292717,-0.132556,-0.757858,0.0170152,0.0055412,0.652175
201827799,0.309217,0.143193,0.0192099,-0.757806,0.0166462,0.00523244,0.652246
201831764,0.00525875,0.280801,-0.109716,-0.757792,0.0160991,0.00577821,0.652272
201834881,0.154341,0.108061,0.0291666,-0.757798,0.0158963,0.00539269,0.652274
201837849,0.435901,-0.0802453,-0.0475911,-0.757708,0.0154417,0.00605008,0.652384
201839958,-0.240779,0.449579,-0.104501,-0.757713,0.0152335,0.00567249,0.652386
201845864,0.0356428,0.277269,-0.0912624,-0.757702,0.014621,0.00612609,0.652409
201848829,0.121729,-0.0390238,0.0963159,-0.757713,0.0145042,0.00580895,0.652401
201852787,0.00695731,0.292252,-0.092135,-0.757764,0.0139243,0.00641729,0.652348
201855013,-0.301364,0.289493,-0.0107033,-0.757767,0.0138549,0.00597528,0.652351
201859833,-0.0509454,0.271378,-0.0836204,-0.757813,0.0133662,0.00656509,0.652302
201862813,0.0752172,-0.101055,0.106622,-0.757855,0.0133296,0.00627118,0.652257
201865813,0.236361,-0.109202,0.001584,-0.757859,0.0130535,0.00694265,0.652251
201869691,0.207441,-0.210891,0.128027,-0.757921,0.0130751,0.00660923,0.652182
201873784,-0.273859,0.183106,-0.081311,-0.757986,0.0128741,0.00711487,0.652104
201876828,0.252369,-0.20467,0.139603,-0.757987,0.012857,0.00697287,0.652106
201880748,-0.378394,0.183478,-0.0908361,-0.758038,0.012746,0.00741501,0.652044
201883863,0.311882,-0.195489,0.131466,-0.75809,0.0127556,0.00729338,0.651985
201887727,-0.513331,0.158223,-0.0880232,-0.758144,0.0127616,0.00762246,0.651918
201890887,0.382168,-0.201704,0.152842,-0.758143,0.0127872,0.00751899,0.651919
201894907,-0.531435,0.168693,-0.123429,-0.758181,0.0128333,0.00774763,0.651872
201897756,0.490154,-0.249652,0.170109,-0.758203,0.0128513,0.00778565,0.651845
201901935,-0.594141,0.200885,-0.124514,-0.758237,0.0128703,0.00796724,0.651804
201904786,0.53801,-0.327734,0.173298,-0.758236,0.0129039,0.00812476,0.651802
201907746,-0.270674,0.0151751,-0.103052,-0.758282,0.0127744,0.00856676,0.651745
201911746,0.554522,-0.351005,0.186689,-0.758278,0.0130261,0.00833529,0.651748
201915739,-0.604413,0.185024,-0.095245,-0.758305,0.0131103,0.00852539,0.651712
201918907,0.512878,-0.353786,0.203846,-0.758346,0.013225,0.00867679,0.65166
201922816,-0.624304,0.165839,-0.0868241,-0.758427,0.0133715,0.00866374,0.651564
201925819,0.62757,-0.334124,0.185727,-0.758425,0.0134164,0.00890847,0.651561
201929843,-0.624309,0.0864505,-0.0762745,-0.758504,0.0136774,0.00881964,0.651466
201932823,0.592551,-0.293608,0.142026,-0.758564,0.0137269,0.00913131,0.65139
201935837,-0.519895,0.0324702,-0.0946242,-0.758561,0.0138767,0.00914021,0.65139
201939898,0.531009,-0.303192,0.100542,-0.758661,0.0141179,0.0093529,0.651265
201943858,-0.482057,0.0043752,-0.0442783,-0.758701,0.0145669,0.00905478,0.651214
201945952,0.327096,-0.317863,0.142416,-0.758699,0.0146206,0.00933825,0.65121
201948780,-0.398803,-0.0350006,-0.102821,-0.758708,0.0147113,0.00951482,0.651195
201953794,0.497532,-0.262747,0.0776093,-0.758689,0.0150167,0.00968681,0.651208
201956788,-0.621908,-0.0498152,-0.0767987,-0.758681,0.0154079,0.00946657,0.651212
201959712,0.416415,-0.283141,0.114801,-0.758683,0.0155756,0.00967538,0.651202
201963735,-0.591923,-0.0861747,-0.0680434,-0.758695,0.0160525,0.00959178,0.651178
201967805,0.289306,-0.253208,0.00316623,-0.758688,0.016148,0.0101118,0.651175
201970846,-0.601711,-0.0874215,-0.0481945,-0.758673,0.0168064,0.00974445,0.651182
201974870,0.248132,-0.203225,-0.011105,-0.758651,0.0168422,0.01028,0.651198
201977925,-0.54219,-0.118222,-0.0367118,-0.758628,0.0175,0.00991967,0.651214
201981789,0.146791,-0.219645,-0.00993921,-0.758623,0.0176024,0.0104408,0.651208
201985855,-0.164051,-0.156313,0.0235304,-0.75859,0.0183325,0.0101461,0.651231
201988851,0.0359748,-0.152631,-0.019005,-0.758559,0.0183446,0.0104402,0.651262
201991805,-0.443464,-0.148748,-0.0208291,-0.758542,0.0190007,0.0101858,0.651267
201995701,0.00970272,-0.143346,-0.0293292,-0.758514,0.0191037,0.0104988,0.651292
201999751,-0.0566515,-0.168801,0.0100375,-0.758478,0.0197653,0.0104208,0.651315
202002844,-0.0270486,-0.107468,-0.0226969,-0.758451,0.0197671,0.0106314,0.651343
202006877,-0.0279582,-0.162005,-0.00772953,-0.758435,0.0203322,0.0106203,0.651345
202008884,0.0524815,-0.101987,0.0044933,-0.758394,0.0203778,0.0107246,0.65139
202012803,-0.100647,-0.244891,-0.0399288,-0.75834,0.0209038,0.0107649,0.651435
202016840,-0.274466,-0.0989635,0.000370129,-0.758331,0.0211881,0.0107938,0.651436
202020742,0.0234006,-0.172306,-0.0354222,-0.758276,0.0216937,0.0109866,0.65148
202023767,-0.339107,-0.0786826,0.0147294,-0.75823,0.022016,0.0108394,0.651525
202027758,0.0434331,-0.18837,-0.0426053,-0.758191,0.0224168,0.0111182,0.651553
202030778,-0.404575,-0.0263882,0.0283172,-0.758179,0.0227978,0.0107908,0.651558
202034911,0.096648,-0.177053,-0.040995,-0.758144,0.0231472,0.0111536,0.651581
202037879,-0.482382,-0.023906,0.0332306,-0.758004,0.0235865,0.0107799,0.651735
202040833,0.204377,-0.357522,0.0423945,-0.757993,0.0238738,0.0111115,0.651731
202044857,-0.535543,-0.0381018,0.0510648,-0.757996,0.0244029,0.0107872,0.651714
202048782,0.0766261,-0.164342,-0.0292319,-0.758011,0.0246748,0.0112416,0.651678
202055750,0.0422113,-0.161227,-0.0318132,-0.758011,0.0254249,0.0112278,0.65165
202058834,-0.606699,-0.0626127,0.0532393,-0.758034,0.0260132,0.0106162,0.65161
202062033,0.289185,-0.342271,0.0656652,-0.758024,0.0262307,0.0111505,0.651604
202064953,-0.761685,0.0757008,-0.0330227,-0.758051,0.0267302,0.0106154,0.651561
202069786,-0.0744614,-0.129774,-0.020193,-0.758065,0.0272598,0.0110044,0.651516
202071789,-0.827423,0.0338844,-0.0199179,-0.758048,0.02776,0.0104954,0.651524
202075857,0.359262,-0.280832,0.0499956,-0.758085,0.0281794,0.0109797,0.651455
202079836,-0.598592,-0.215363,0.0901883,-0.758131,0.0289679,0.010322,0.651377
202083870,-0.162105,-0.0406234,-0.0349811,-0.758179,0.0291449,0.0109333,0.651303
202085791,-0.870553,0.0487254,-0.00206844,-0.758162,0.0296141,0.0104204,0.651311
202089863,0.378677,-0.246596,0.0722193,-0.758198,0.0299449,0.0109701,0.651244
202093803,-0.536165,-0.260167,0.153254,-0.758256,0.0308321,0.0102656,0.651146
202097820,-0.267781,0.0348325,-0.0219922,-0.758373,0.0309675,0.0107172,0.650996
202100786,-0.418308,-0.352128,0.159518,-0.758338,0.0317914,0.0102323,0.651005
202104816,-0.439305,0.116182,-0.0275666,-0.758441,0.0319788,0.0105652,0.650871
202107820,-0.286579,-0.451415,0.148416,-0.758515,0.0327793,0.010208,0.65075
202110829,0.0941896,-0.0574765,0.0402063,-0.758514,0.0327609,0.0107616,0.650744
202114810,-0.206424,-0.493685,0.191923,-0.758587,0.0337762,0.0102728,0.650615
202118918,-0.622149,0.121768,-0.0239089,-0.758697,0.0339321,0.0104004,0.650476
202120809,-0.545084,-0.363718,0.132814,-0.758668,0.0345491,0.010172,0.650481
202125865,-0.75845,0.108239,-0.0411114,-0.758771,0.0349249,0.0102705,0.650339
202128748,0.195289,-0.423121,0.204927,-0.758869,0.0356102,0.010281,0.650188
202132788,-0.878738,0.0129861,-0.0438575,-0.758865,0.0359087,0.0100738,0.650179
202135863,0.287299,-0.348404,0.218041,-0.75883,0.0365647,0.0101798,0.650181
202139895,-0.871359,-0.0581383,-0.0227355,-0.758926,0.0370525,0.00975903,0.650049
202142790,0.345743,-0.242612,0.19311,-0.759008,0.0375092,0.00989152,0.649925
202145799,-0.689595,0.0307013,-0.0805108,-0.758999,0.0377056,0.00967649,0.649928
202149885,0.377517,-0.121966,0.176222,-0.759075,0.0383308,0.00973724,0.649801
202153759,-0.752659,-0.223582,-0.024038,-0.759141,0.0390632,0.00926587,0.649688
202156831,0.343893,-0.0213573,0.140001,-0.759129,0.0392515,0.00942845,0.649687
202160838,-0.717485,-0.276522,-0.00726473,-0.75916,0.0401376,0.00896565,0.649604
202163791,0.28818,0.0231799,0.119533,-0.759203,0.0402399,0.00915854,0.649545
202167869,-0.596879,-0.291966,0.0108311,-0.759205,0.0411558,0.00871514,0.64949
202169813,0.223027,-0.0741916,0.162742,-0.759203,0.0411864,0.00883274,0.649489
202174786,-0.513794,-0.254809,0.0265714,-0.759204,0.0422022,0.00844891,0.649429
202177844,0.0965715,0.0167721,0.0853952,-0.759238,0.0421829,0.00860429,0.649387
202180816,-0.712829,-0.24458,-0.0463532,-0.759191,0.0429897,0.00822362,0.649394
202184941,0.0467566,0.00209095,0.0600142,-0.759215,0.0430932,0.00835635,0.649358
202188811,-0.149571,-0.117172,0.0839111,-0.759223,0.0439295,0.00801891,0.649297
202191827,-0.016942,-0.0237388,0.0346914,-0.759234,0.0437294,0.00822468,0.649295
202195769,-0.082952,-0.065903,0.103765,-0.759251,0.04452,0.00791629,0.649225
202198858,-0.0473012,-0.0484887,0.02848,-0.759308,0.0443624,0.00810957,0.649167
202202819,-0.00173691,-0.000335414,0.125732,-0.759322,0.0449696,0.00782868,0.649112
202205813,-0.156723,-0.115509,-0.00228947,-0.759324,0.0449213,0.00798207,0.649111
202208859,-0.274309,-0.0262305,0.0408345,-0.759367,0.0455224,0.0076812,0.649023
202212790,-0.187263,-0.156743,0.000699591,-0.759453,0.0454407,0.00787418,0.648925
202215884,-0.239864,0.0393108,0.0582176,-0.759417,0.046021,0.0075712,0.64893
202218778,0.0893224,-0.0564767,0.103887,-0.759498,0.045783,0.00769453,0.648851
202223758,0.136352,0.177689,0.180736,-0.759534,0.0463816,0.00737906,0.64877
202226899,-0.326567,-0.269955,-0.03563,-0.759521,0.0465572,0.00752226,0.648771
202229785,-0.112435,0.190174,0.0675892,-0.75959,0.0468902,0.00722482,0.648669
202233850,-0.32076,-0.323295,-0.0488005,-0.759525,0.0470737,0.00735276,0.648731
202235794,-0.288928,0.0855515,0.00375122,-0.759508,0.0473384,0.00714729,0.648734
202237793,0.125529,0.195295,0.183127,-0.759565,0.0471483,0.00702154,0.648682
202242817,-0.226719,0.178535,0.0293344,-0.759604,0.047707,0.00695245,0.648597
202245774,0.110357,-0.149584,0.121725,-0.759616,0.04753,0.0069532,0.648595
202249894,-0.168701,0.257131,0.0329988,-0.7597,0.0479109,0.00676316,0.648472
202254760,-0.221464,-0.241887,-0.0448941,-0.759781,0.048063,0.00691924,0.648364
202256776,-0.118257,0.295335,0.0585485,-0.759784,0.0480381,0.00665865,0.648365
202260840,-0.0691172,-0.36539,-0.0104952,-0.759851,0.0481414,0.00685793,0.648277
202264780,0.00510617,0.166092,0.166492,-0.759952,0.0480434,0.00656383,0.648168
202268801,-0.129996,-0.0488749,-0.00224152,-0.760044,0.0483229,0.00684737,0.648036
202272809,0.11928,-0.261031,0.143344,-0.760173,0.0481541,0.00674937,0.647899
202275857,-0.121085,0.0801266,0.0170649,-0.760162,0.0483051,0.00691765,0.647899
202278850,0.00419341,-0.0259895,0.16395,-0.760302,0.0481253,0.00657494,0.647752
202283006,-0.0975237,0.177549,0.0485157,-0.76044,0.0482595,0.0067941,0.647577
202285912,0.000843582,-0.111763,0.161292,-0.760446,0.0481877,0.00659963,0.647578
202289993,-0.132259,0.279797,0.0721568,-0.760598,0.048281,0.00670333,0.64739
202292921,0.0185109,-0.271667,0.139387,-0.760758,0.0483485,0.00666211,0.647198
202296845,-0.175828,0.413407,0.0678583,-0.760758,0.0483421,0.00664807,0.647198
202299724,0.00905608,-0.363314,0.121912,-0.760912,0.0484456,0.0065868,0.647011
202303815,-0.227608,0.414371,0.0931583,-0.761065,0.0483891,0.00655937,0.646836
202306746,0.113354,-0.417385,0.106902,-0.761053,0.0485454,0.00663089,0.646836
202310791,-0.31251,0.344541,0.110827,-0.761214,0.0484219,0.00642907,0.646659
202314897,0.231348,-0.197028,0.078925,-0.761359,0.0486541,0.00674655,0.646467
202317820,-0.282035,0.276932,0.0930462,-0.761545,0.0484759,0.00630221,0.646266
202319831,0.0241767,-0.385476,0.119816,-0.761529,0.0486974,0.00641977,0.646267
202324930,-0.268221,0.147386,0.0862251,-0.761703,0.0485742,0.00619938,0.646073
202327816,0.295239,-0.249089,0.105207,-0.761841,0.0487053,0.00661884,0.645896
202331860,-0.25345,0.00178581,0.0823097,-0.761853,0.0485796,0.00617802,0.645897
202334853,0.283654,-0.091517,0.111847,-0.761998,0.0486128,0.00657319,0.645719
202338866,-0.167482,-0.136716,0.100271,-0.762092,0.048525,0.00610503,0.645618
202340958,0.298817,-0.222808,0.138178,-0.762089,0.0485459,0.00641855,0.645618
202345933,-0.150627,-0.224389,0.113595,-0.762259,0.0485754,0.00601589,0.645419
202348750,0.218681,0.227913,0.097548,-0.762439,0.0483252,0.00623166,0.645223
202352855,-0.0488717,-0.32359,0.129141,-0.762583,0.0485612,0.00596911,0.645038
202355746,0.0974948,0.319482,0.0817935,-0.762603,0.0482544,0.00604599,0.645036
202358738,-0.240134,-0.192583,0.0715676,-0.762752,0.048483,0.00570748,0.644846
202362788,-0.030398,0.316203,0.0421034,-0.762921,0.0481653,0.00588031,0.644668
202366803,0.14922,-0.171491,0.148637,-0.762896,0.0485513,0.00571384,0.644671
202369879,-0.113875,0.279309,0.0238584,-0.763045,0.0481437,0.00553048,0.644527
202373908,0.277372,-0.0472125,0.1516,-0.763139,0.0484006,0.00549327,0.644396
202376829,-0.314203,0.175624,-0.0325124,-0.763153,0.0482278,0.00519777,0.644395
202380809,0.337383,0.0673205,0.167973,-0.763258,0.0483647,0.00521644,0.64426
202383780,-0.389399,0.00922992,-0.045302,-0.763375,0.0482731,0.00497127,0.644131
202387794,0.357859,0.216534,0.141118,-0.763371,0.0483226,0.00497958,0.644131
202390861,-0.421908,-0.0918953,-0.0402369,-0.763457,0.0484642,0.00469379,0.64402
202394717,0.304951,0.230555,0.097548,-0.763557,0.0483003,0.00485018,0.643913
202398711,-0.0266001,-0.105084,0.0928556,-0.763635,0.0486065,0.00451183,0.6438
202401889,0.129858,0.21578,0.0678258,-0.763665,0.0481552,0.00461195,0.643798
202404798,-0.227543,-0.128346,0.0441979,-0.763746,0.0485057,0.00436889,0.643677
202408794,-0.0469881,0.152736,0.023808,-0.763877,0.0481658,0.00445719,0.643547
202411793,-0.0303734,-0.0558203,0.0968159,-0.763856,0.0484902,0.0042145,0.643548
202415731,-0.232168,0.0655491,-0.0392313,-0.763996,0.0479906,0.0043326,0.643419
202418826,0.119427,-0.00469176,0.126774,-0.764083,0.0483021,0.00417229,0.643293
202422829,-0.369466,-0.0119831,-0.0578955,-0.764101,0.0480435,0.00417435,0.643292
202425918,0.269885,0.0408548,0.137455,-0.764208,0.0481145,0.00414593,0.643159
202429890,-0.392832,-0.0398898,-0.0598965,-0.764306,0.0480687,0.00402323,0.643047
202432785,0.400889,0.140182,0.17721,-0.764319,0.047881,0.00406016,0.643046
202436801,-0.341001,-0.051046,-0.0315155,-0.764384,0.0479712,0.00391701,0.642962
202439895,0.387214,0.200491,0.164998,-0.764342,0.0476486,0.00397089,0.643036
