timestamp,x,y,z,yaw,vx,vy,vz,acc_x,acc_y,acc_z
1426761853,-8.4797,-11.6455,1.6781,-0.0660841,-2.09808e-05,2.28882e-05,0.118787,-0.0025022,0.00262006,-2.9257
1426761853,-8.4797,-11.6455,1.6781,-0.0660841,-2.09808e-05,2.28882e-05,0.118787,-0.0025022,0.00262006,-2.9257
1443337925,-8.41192,-11.5699,1.6853,-0.0660841,0.0080223,0.0107113,0.066383,-0.0915297,-0.108022,-2.91813
1443348085,-8.41192,-11.5699,1.68522,-0.0660841,-0.000331879,-0.00047493,0.117208,-0.09662,-0.116465,-2.8684
1443358308,-8.49956,-11.6552,1.45049,0.981236,3.66986e-09,7.09676e-09,-7.14e-08,3.10497e-06,5.99932e-06,-6.03595e-05
1443368457,-8.49956,-11.6552,1.45049,0.98124,5.39418e-07,1.03432e-06,-1.04074e-05,0.000129164,0.000246918,-0.00248462
1443378577,-8.49956,-11.6552,1.45049,0.981252,3.16668e-06,6.03069e-06,-6.06874e-05,0.000481462,0.000912471,-0.00918299
1443388707,-8.49956,-11.6552,1.45049,0.981277,1.07103e-05,2.02549e-05,-0.000203851,0.00118656,0.00222885,-0.0224344
1443398845,-8.49956,-11.6552,1.45048,0.98132,2.7054e-05,5.08001e-05,-0.000511333,0.00234895,0.00437218,-0.0440159
1443408981,-8.49956,-11.6552,1.45047,0.981404,6.71986e-05,0.000125041,-0.00125884,0.00457721,0.00842042,-0.0847926
1443419115,-8.49956,-11.6552,1.45046,0.981503,0.000122546,0.000226333,-0.00227896,0.00709423,0.0129248,-0.130182
1443429359,-8.49956,-11.6552,1.45043,0.981644,0.000212019,0.000388428,-0.00391188,0.0105597,0.0190357,-0.191788
1443439584,-8.49955,-11.6552,1.45037,0.981829,0.000343305,0.000623727,-0.00628297,0.0149515,0.026658,-0.268672
1443449726,-8.49955,-11.6551,1.45029,0.982063,0.000526373,0.000948199,-0.00955378,0.0203166,0.035815,-0.361095
1443459866,-8.49954,-11.6551,1.45017,0.982353,0.000773536,0.00138125,-0.0139209,0.0267343,0.0465777,-0.469804
1443470010,-8.49953,-11.6551,1.45003,0.982626,0.0010214,0.00181098,-0.0182561,0.0325581,0.0561852,-0.566917
1443480148,-8.49952,-11.6551,1.4498,0.983032,0.00141326,0.00248288,-0.0250374,0.0409315,0.0697604,-0.704256
1443490305,-8.4995,-11.6551,1.4495,0.983504,0.0018967,0.00330144,-0.0333035,0.0502917,0.0846316,-0.854874
1443500447,-8.49948,-11.655,1.44909,0.984056,0.00249258,0.00429745,-0.0433675,0.0608064,0.100986,-1.02073
1443510575,-8.49946,-11.655,1.44871,0.984511,0.00300538,0.00514481,-0.0519346,0.0691894,0.113776,-1.1506
1443520713,-8.49942,-11.6549,1.44808,0.985204,0.0038139,0.00646503,-0.0652908,0.0814674,0.132133,-1.33726
1443530849,-8.49938,-11.6548,1.44731,0.985977,0.00475229,0.00797615,-0.0805907,0.0946131,0.151314,-1.53267
1443540987,-8.49932,-11.6548,1.44635,0.986846,0.00584405,0.00970936,-0.0981546,0.108769,0.171447,-1.73821
1443551146,-8.49925,-11.6546,1.44518,0.987813,0.00709683,0.0116691,-0.118034,0.123841,0.192307,-1.95172
1443561424,-8.49919,-11.6545,1.44416,0.988607,0.00815178,0.0132977,-0.13457,0.135752,0.208383,-2.11667
1443571565,-8.49909,-11.6544,1.44255,0.989773,0.00973388,0.0157067,-0.159055,0.152526,0.230423,-2.34347
1443581697,-8.49898,-11.6542,1.4407,0.991018,0.0114635,0.0182985,-0.185431,0.169634,0.252187,-2.56827
1443591841,-8.49885,-11.654,1.43864,0.992323,0.0133106,0.0210225,-0.213193,0.186739,0.273233,-2.78658
1443601985,-8.4987,-11.6538,1.43624,0.993751,0.015365,0.0240035,-0.243619,0.204585,0.294431,-3.00753
1443612142,-8.49854,-11.6535,1.43374,0.995162,0.0174247,0.0269444,-0.273683,0.221422,0.313716,-3.20963
1443622383,-8.49836,-11.6532,1.43101,0.996632,0.0195964,0.0299972,-0.304942,0.238193,0.332229,-3.40481
1443632550,-8.49817,-11.6529,1.42793,0.998214,0.0219574,0.0332635,-0.338448,0.255433,0.350527,-3.59904
1443642675,-8.49788,-11.6525,1.42355,1.00036,0.0251952,0.0376593,-0.38364,0.277616,0.372956,-3.83931
1443652809,-8.49763,-11.6521,1.4197,1.00217,0.0279365,0.0413104,-0.421267,0.29525,0.389866,-4.02245
1443662944,-8.49735,-11.6517,1.41553,1.00405,0.0308149,0.0450779,-0.460185,0.312769,0.405833,-4.19736
1443673082,-8.49697,-11.6512,1.40989,1.0065,0.0345769,0.0499054,-0.510196,0.334302,0.42428,-4.4025
1443683250,-8.49663,-11.6507,1.40495,1.00857,0.0377648,0.0539145,-0.551855,0.351468,0.438012,-4.55803
1443693468,-8.49626,-11.6502,1.39961,1.01075,0.0411188,0.0580554,-0.595011,0.368565,0.450789,-4.70562
1443703600,-8.49576,-11.6495,1.39235,1.01361,0.0455357,0.0633927,-0.650843,0.389718,0.465281,-4.87771
1443713726,-8.49532,-11.6488,1.38607,1.01602,0.0492495,0.0677824,-0.696948,0.406413,0.475624,-5.00491
1443723859,-8.49484,-11.6482,1.37932,1.01855,0.0531338,0.0722816,-0.744389,0.4229,0.484821,-5.12267
1443733998,-8.4942,-11.6473,1.37038,1.02181,0.0581314,0.0779363,-0.804301,0.442764,0.494447,-5.25349
1443744272,-8.49362,-11.6466,1.36242,1.02464,0.062458,0.0827138,-0.85519,0.458827,0.500959,-5.34982
1443754418,-8.49301,-11.6457,1.35407,1.02755,0.0668792,0.087486,-0.906291,0.474233,0.506023,-5.43358
1443764543,-8.4922,-11.6447,1.34323,1.03126,0.0724683,0.093364,-0.969637,0.492344,0.510319,-5.52023
1443774676,-8.49151,-11.6438,1.33407,1.03434,0.0770653,0.0980723,-1.02073,0.50617,0.512231,-5.57685
1443784812,-8.49076,-11.6429,1.32413,1.03762,0.0819347,0.102938,-1.07389,0.519817,0.512784,-5.62364
1443794958,-8.48977,-11.6416,1.31124,1.04181,0.0880806,0.108903,-1.13963,0.535654,0.511476,-5.66499
1443805096,-8.48891,-11.6406,1.3002,1.04535,0.0932094,0.113734,-1.19337,0.547737,0.508793,-5.68562
1443815323,-8.48802,-11.6395,1.28887,1.04893,0.0983485,0.118441,-1.24622,0.558854,0.504747,-5.69464
1443825501,-8.48683,-11.6381,1.27385,1.05362,0.104983,0.124324,-1.31303,0.571793,0.497638,-5.69035
1443835635,-8.48582,-11.6369,1.26137,1.05748,0.110355,0.128929,-1.36599,0.581137,0.490415,-5.67471
1443845763,-8.48478,-11.6357,1.24853,1.06142,0.115755,0.133414,-1.41822,0.589531,0.481903,-5.64879
1443855893,-8.48338,-11.6341,1.23145,1.06661,0.12275,0.139012,-1.48444,0.598952,0.469095,-5.60104
1443866016,-8.48216,-11.6327,1.21675,1.07104,0.128606,0.143515,-1.53865,0.605592,0.456897,-5.54959
1443876149,-8.48092,-11.6313,1.20203,1.07546,0.13433,0.147752,-1.59059,0.610991,0.443725,-5.48982
1443886436,-8.47932,-11.6296,1.18327,1.08106,0.14143,0.152783,-1.65361,0.616194,0.425721,-5.4034
1443896563,-8.47797,-11.6281,1.16752,1.08573,0.147224,0.156702,-1.70392,0.619207,0.409699,-5.32335
1443906674,-8.47652,-11.6266,1.15078,1.09069,0.153228,0.160582,-1.75501,0.621146,0.391855,-5.23178
1443916809,-8.47469,-11.6247,1.12995,1.09684,0.16048,0.16502,-1.81535,0.621852,0.368637,-5.10999
1443926945,-8.47311,-11.6231,1.11216,1.10208,0.166492,0.168487,-1.86424,0.621045,0.348011,-5.0001
1443937076,-8.47155,-11.6215,1.09478,1.10721,0.172204,0.171597,-1.90979,0.619068,0.327246,-4.88838
1443947243,-8.46988,-11.6199,1.07643,1.11261,0.178065,0.174597,-1.95561,0.615767,0.304737,-4.76649
1443957479,-8.46775,-11.6178,1.05312,1.11949,0.185269,0.178008,-2.0107,0.609858,0.275355,-4.60666
1443967603,-8.46598,-11.6161,1.03403,1.12514,0.190972,0.18048,-2.05337,0.603646,0.250703,-4.47232
1443977722,-8.46416,-11.6144,1.01455,1.13091,0.196605,0.182715,-2.0947,0.59609,0.225084,-4.33274
1443987850,-8.46182,-11.6123,0.989721,1.13829,0.203524,0.185158,-2.1444,0.584731,0.191786,-4.15169
1443997986,-8.4599,-11.6105,0.969609,1.1443,0.208911,0.186814,-2.18231,0.574158,0.164345,-4.00302
1444008130,-8.45788,-11.6088,0.948606,1.1506,0.214332,0.188244,-2.21976,0.561843,0.135279,-3.84622
1444018436,-8.4553,-11.6065,0.922052,1.15861,0.220886,0.189626,-2.26413,0.544459,0.0979844,-3.64626
1444028583,-8.45322,-11.6047,0.900753,1.16508,0.225899,0.1904,-2.29743,0.529083,0.0676609,-3.48481
1444038716,-8.45102,-11.6029,0.878521,1.17188,0.2309,0.190897,-2.3301,0.511701,0.0356471,-3.31555
1444048881,-8.44834,-11.6007,0.851591,1.18018,0.236639,0.191082,-2.36694,0.488852,-0.00360039,-3.10979
1444059018,-8.44608,-11.5989,0.829056,1.18718,0.241168,0.190891,-2.39556,0.468243,-0.036818,-2.9372
1444069155,-8.4438,-11.5971,0.806485,1.19426,0.245454,0.190389,-2.42226,0.446257,-0.0704189,-2.76409
1444079293,-8.44089,-11.5949,0.777831,1.20333,0.250526,0.189309,-2.45346,0.416425,-0.113544,-2.54409
1444089527,-8.4385,-11.5931,0.754544,1.21078,0.254339,0.18807,-2.47665,0.390609,-0.148967,-2.3652
1444099654,-8.43603,-11.5913,0.730497,1.21855,0.25798,0.186452,-2.49862,0.362478,-0.185902,-2.18038
1444109772,-8.43297,-11.5891,0.700966,1.22821,0.26203,0.183997,-2.52293,0.325889,-0.231756,-1.95332
1444119901,-8.43037,-11.5873,0.675995,1.23649,0.265084,0.181519,-2.54124,0.293197,-0.270958,-1.76122
1444130037,-8.42785,-11.5856,0.651943,1.24456,0.267696,0.178783,-2.55699,0.260187,-0.309098,-1.57605
1444140182,-8.42529,-11.5839,0.627532,1.25286,0.270007,0.175654,-2.5711,0.225156,-0.348195,-1.38793
1444150410,-8.42213,-11.5819,0.59749,1.26322,0.27237,0.171315,-2.58592,0.179921,-0.396861,-1.15606
1444160540,-8.41955,-11.5803,0.572973,1.2718,0.27389,0.16737,-2.59596,0.141262,-0.437038,-0.966469
1444170678,-8.41693,-11.5787,0.548156,1.28062,0.275046,0.163004,-2.60427,0.100525,-0.478139,-0.774141
1444180816,-8.4143,-11.5772,0.523245,1.2896,0.275804,0.158237,-2.61074,0.0579996,-0.519844,-0.580604
1444190958,-8.41105,-11.5754,0.492524,1.30087,0.276167,0.151822,-2.61615,0.00328392,-0.571907,-0.341192
1444201092,-8.40837,-11.5739,0.467105,1.31037,0.275971,0.146056,-2.6185,-0.0438993,-0.615517,-0.142461
1444211295,-8.4058,-11.5726,0.442661,1.31967,0.275343,0.140114,-2.61894,-0.0909215,-0.657918,0.0492014
1444221476,-8.4026,-11.571,0.412195,1.33148,0.273933,0.132147,-2.61697,-0.151805,-0.711394,0.288746
1444231599,-8.40007,-11.5698,0.387967,1.34106,0.272296,0.125358,-2.61341,-0.202045,-0.754417,0.479672
1444241737,-8.39752,-11.5687,0.363441,1.35093,0.270152,0.118064,-2.608,-0.254558,-0.798405,0.673153
1444251881,-8.3944,-11.5673,0.333137,1.36341,0.2668,0.108452,-2.59877,-0.321759,-0.853331,0.912134
1444262015,-8.39186,-11.5663,0.308265,1.37388,0.263443,0.100052,-2.58908,-0.378842,-0.898856,1.1078
1444272164,-8.38936,-11.5654,0.283593,1.38449,0.259548,0.0912511,-2.57758,-0.437191,-0.944366,1.30097
1444282379,-8.38692,-11.5646,0.25927,1.39517,0.255133,0.0821036,-2.56437,-0.4964,-0.989522,1.4899
1444292515,-8.38393,-11.5637,0.228934,1.40884,0.248789,0.0700186,-2.5453,-0.572595,-1.04614,1.72231
1444302648,-8.3816,-11.5631,0.204864,1.41997,0.243061,0.0598786,-2.52809,-0.634898,-1.0912,1.90302
1444312786,-8.37932,-11.5626,0.181001,1.43127,0.236747,0.0493285,-2.50923,-0.69827,-1.13587,2.07771
1444322927,-8.37655,-11.5621,0.151191,1.44578,0.227924,0.0354348,-2.48316,-0.77967,-1.19152,2.28816
1444333064,-8.37444,-11.5618,0.127946,1.45741,0.220287,0.0240269,-2.46089,-0.844892,-1.23483,2.44633
1444343295,-8.3724,-11.5616,0.104794,1.46927,0.211986,0.0121501,-2.43704,-0.911405,-1.2779,2.59902
1444353478,-8.37043,-11.5616,0.0817716,1.48135,0.203011,-0.000188486,-2.41166,-0.979115,-1.32072,2.74631
1444363603,-8.36809,-11.5617,0.0533358,1.49669,0.190878,-0.016184,-2.378,-1.06494,-1.37359,2.9222
1444373730,-8.36635,-11.5619,0.0312664,1.50891,0.180618,-0.0291983,-2.3501,-1.13324,-1.41463,3.05422
1444383869,-8.36472,-11.5622,0.00951888,1.52125,0.169747,-0.0425586,-2.32107,-1.20202,-1.45507,3.18051
1444394005,-8.36277,-11.5628,-0.0181012,1.53735,0.154787,-0.0603286,-2.28196,-1.29148,-1.50645,3.33546
1444404236,-8.36137,-11.5635,-0.0394611,1.55014,0.14228,-0.0747161,-2.24998,-1.36231,-1.54618,3.45103
1444414403,-8.36009,-11.5642,-0.0604944,1.56304,0.129116,-0.0894611,-2.21695,-1.43347,-1.58528,3.5611
1444424540,-8.35893,-11.5652,-0.0814368,1.5762,0.115126,-0.104739,-2.18254,-1.50571,-1.62419,3.6669
1444434679,-8.35768,-11.5665,-0.10686,1.59263,0.0968828,-0.124127,-2.13867,-1.59527,-1.67134,3.78999
1444444806,-8.35685,-11.5677,-0.126523,1.60568,0.0817654,-0.139791,-2.10311,-1.66596,-1.70772,3.88096
1444454947,-8.35602,-11.5694,-0.150522,1.62205,0.0620414,-0.159746,-2.05772,-1.75388,-1.75198,3.98666
1444465070,-8.35553,-11.571,-0.16936,1.63526,0.0455142,-0.176092,-2.02052,-1.82417,-1.78658,4.06527
1444475262,-8.35518,-11.5728,-0.188335,1.6489,0.0278763,-0.193197,-1.98162,-1.89608,-1.82125,4.14031
1444485425,-8.355,-11.5747,-0.207296,1.66289,0.00919391,-0.21097,-1.94125,-1.96904,-1.8557,4.21086
1444495553,-8.35503,-11.5773,-0.230114,1.68021,-0.0147876,-0.233316,-1.89062,-2.05828,-1.8968,4.28945
1444505684,-8.35526,-11.5796,-0.247472,1.69379,-0.0342065,-0.251061,-1.85056,-2.12718,-1.92776,4.34427
1444515817,-8.35567,-11.582,-0.264521,1.70747,-0.0543407,-0.269159,-1.80986,-2.19567,-1.95786,4.39361
1444525949,-8.35646,-11.5853,-0.285496,1.7248,-0.0806605,-0.292396,-1.75787,-2.28102,-1.99439,4.44773
1444536079,-8.35733,-11.5882,-0.302013,1.73888,-0.102679,-0.3115,-1.71539,-2.349,-2.0227,4.48483
1444546237,-8.35838,-11.5911,-0.317603,1.75252,-0.124586,-0.330229,-1.67399,-2.41375,-2.04899,4.51504
1444556415,-8.36003,-11.5952,-0.337137,1.77016,-0.153698,-0.354721,-1.62026,-2.4956,-2.08125,4.54579
1444566544,-8.36157,-11.5986,-0.352057,1.78406,-0.17728,-0.374254,-1.57775,-2.55858,-2.10528,4.56352
1444576679,-8.3633,-11.6021,-0.366305,1.79772,-0.200973,-0.393625,-1.53593,-2.61902,-2.12768,4.57545
1444586813,-8.3659,-11.607,-0.384407,1.81563,-0.232867,-0.419324,-1.48097,-2.69612,-2.15523,4.58296
1444596946,-8.36824,-11.6111,-0.398281,1.82983,-0.258784,-0.439914,-1.43739,-2.75532,-2.17556,4.58247
1444607077,-8.37078,-11.6153,-0.411508,1.84378,-0.284787,-0.460324,-1.39461,-2.81176,-2.19421,4.57654
1444617225,-8.37429,-11.6208,-0.427431,1.86116,-0.317913,-0.485991,-1.34142,-2.87953,-2.21557,4.56174
1444627487,-8.37739,-11.6254,-0.439778,1.8751,-0.345091,-0.506787,-1.29883,-2.9318,-2.2312,4.54403
1444637625,-8.38072,-11.6302,-0.451652,1.88893,-0.37257,-0.527589,-1.2567,-2.9817,-2.24536,4.52144
1444647768,-8.38533,-11.6366,-0.466176,1.90646,-0.408134,-0.554196,-1.20352,-3.042,-2.26132,4.48575
1444657901,-8.38936,-11.642,-0.477443,1.92058,-0.437349,-0.575804,-1.16093,-3.08804,-2.27253,4.45144
1444668026,-8.39361,-11.6475,-0.488178,1.93448,-0.46663,-0.597248,-1.11919,-3.13109,-2.28213,4.41287
1444678178,-8.39934,-11.6547,-0.501091,1.95186,-0.503917,-0.624265,-1.06738,-3.18152,-2.29204,4.35818
1444688445,-8.40429,-11.6608,-0.511069,1.96582,-0.534428,-0.646147,-1.02607,-3.21921,-2.29831,4.30915
1444698575,-8.40949,-11.667,-0.520575,1.97961,-0.565018,-0.667891,-0.985587,-3.25381,-2.30297,4.25641
1444708712,-8.415,-11.6735,-0.529738,1.99338,-0.596054,-0.689765,-0.945456,-3.28569,-2.30609,4.1995
1444718846,-8.42221,-11.6817,-0.540528,2.01028,-0.634757,-0.716793,-0.896696,-3.32094,-2.30775,4.12407
1444728976,-8.42835,-11.6886,-0.548811,2.02382,-0.666233,-0.738582,-0.858059,-3.34595,-2.30731,4.05933
1444739118,-8.4346,-11.6954,-0.556508,2.03688,-0.697009,-0.759727,-0.821144,-3.36724,-2.30537,3.99329
1444749308,-8.44291,-11.7044,-0.565763,2.05327,-0.736188,-0.786434,-0.775346,-3.38982,-2.30074,3.90555
1444759477,-8.44993,-11.7118,-0.572832,2.06636,-0.767902,-0.807887,-0.73923,-3.40438,-2.29525,3.8317
1444769601,-8.4592,-11.7215,-0.581271,2.08273,-0.808064,-0.834855,-0.69469,-3.41801,-2.28606,3.73476
1444779727,-8.46705,-11.7296,-0.587713,2.09583,-0.840623,-0.856564,-0.659538,-3.42508,-2.27677,3.65353
1444789857,-8.4751,-11.7377,-0.593751,2.10865,-0.872831,-0.877911,-0.625588,-3.42853,-2.26597,3.57096
1444799992,-8.4835,-11.7461,-0.599508,2.12143,-0.90525,-0.899278,-0.592226,-3.42838,-2.25345,3.48569
1444810149,-8.4945,-11.757,-0.6063,2.1373,-0.945952,-0.925944,-0.551467,-3.42295,-2.23537,3.37568
1444820349,-8.50361,-11.7658,-0.61137,2.14979,-0.978316,-0.947029,-0.519936,-3.41437,-2.21908,3.28593
1444830473,-8.51308,-11.7749,-0.616174,2.16222,-1.01078,-0.968078,-0.489078,-3.40186,-2.20101,3.19392
1444840601,-8.52264,-11.784,-0.620593,2.17422,-1.0424,-0.988494,-0.459748,-3.38583,-2.18168,3.10238
1444850731,-8.53525,-11.7959,-0.625835,2.1893,-1.08244,-1.01423,-0.423625,-3.35987,-2.15471,2.98377
1444860867,-8.54535,-11.8053,-0.629604,2.2008,-1.11321,-1.03393,-0.396629,-3.33546,-2.13201,2.89055
1444871016,-8.55864,-11.8176,-0.634062,2.21526,-1.15215,-1.05878,-0.363409,-3.29877,-2.10071,2.76995
1444881158,-8.56958,-11.8276,-0.637349,2.22661,-1.18292,-1.07834,-0.337899,-3.26497,-2.07386,2.67254
1444891407,-8.58119,-11.8382,-0.640497,2.23814,-1.21434,-1.09828,-0.312514,-3.22584,-2.0444,2.57102
1444901576,-8.59271,-11.8486,-0.643314,2.24912,-1.24439,-1.1173,-0.288879,-3.18386,-2.01421,2.47201
1444911717,-8.6077,-11.862,-0.646571,2.26275,-1.28182,-1.14097,-0.260295,-3.12488,-1.97365,2.34579
1444921857,-8.61972,-11.8726,-0.648885,2.27317,-1.31056,-1.15911,-0.239008,-3.07426,-1.94016,2.24667
1444932002,-8.63239,-11.8838,-0.651069,2.28371,-1.33969,-1.17749,-0.218014,-3.01787,-1.90395,2.14408
1444942148,-8.64837,-11.8978,-0.65349,2.29639,-1.37478,-1.19963,-0.19352,-2.94262,-1.85709,2.01755
1444952394,-8.66123,-11.909,-0.655198,2.30613,-1.40176,-1.21666,-0.175283,-2.87886,-1.81845,1.91793
1444962535,-8.67457,-11.9205,-0.656766,2.31581,-1.42857,-1.23361,-0.157684,-2.80995,-1.7776,1.8168
1444972679,-8.69172,-11.9353,-0.658513,2.32766,-1.46138,-1.25439,-0.136874,-2.71737,-1.72395,1.69001
1444982806,-8.70577,-11.9473,-0.659742,2.33691,-1.4869,-1.27061,-0.121253,-2.63841,-1.67915,1.58897
1444992945,-8.71999,-11.9595,-0.660822,2.34586,-1.51153,-1.28632,-0.106655,-2.55573,-1.63305,1.48928
1445003075,-8.73456,-11.9718,-0.661776,2.35463,-1.53556,-1.30171,-0.0928879,-2.46831,-1.58509,1.38984
1445013228,-8.75311,-11.9875,-0.662791,2.36526,-1.56442,-1.3203,-0.0769935,-2.35325,-1.52302,1.26707
1445023446,-8.76792,-12.0,-0.66346,2.37333,-1.5861,-1.33439,-0.0655297,-2.2585,-1.47268,1.17199
1445033604,-8.7831,-12.0128,-0.664031,2.38126,-1.6071,-1.34814,-0.0548384,-2.15883,-1.42039,1.07715
1445043747,-8.79867,-12.0258,-0.664511,2.38904,-1.62737,-1.36155,-0.0449301,-2.0541,-1.36608,0.982612
1445053887,-8.81805,-12.042,-0.664976,2.39827,-1.65087,-1.3773,-0.0339893,-1.92021,-1.2975,0.868543
1445064015,-8.83402,-12.0553,-0.665264,2.40552,-1.66881,-1.38951,-0.0260699,-1.80709,-1.24021,0.777488
1445074148,-8.84986,-12.0685,-0.665477,2.41241,-1.68534,-1.40095,-0.0191414,-1.69253,-1.18274,0.689766
1445084420,-8.86983,-12.0851,-0.665657,2.42068,-1.70441,-1.41445,-0.0116495,-1.54494,-1.1094,0.582768
1445094568,-8.88595,-12.0984,-0.665742,2.42704,-1.71839,-1.42462,-0.00655687,-1.42327,-1.04948,0.499222
1445104677,-8.90234,-12.112,-0.665783,2.43325,-1.73132,-1.4343,-0.00220525,-1.29725,-0.987883,0.416743
1445114818,-8.91917,-12.126,-0.665786,2.43934,-1.74325,-1.44356,0.00143223,-1.16564,-0.924001,0.334676
1445124959,-8.93966,-12.1429,-0.665749,2.44642,-1.75595,-1.45393,0.004784,-1.00234,-0.845324,0.2382
1445135101,-8.95659,-12.1569,-0.665693,2.45198,-1.76493,-1.46174,0.00670283,-0.865053,-0.779622,0.161328
1445145303,-8.97335,-12.1708,-0.665623,2.45726,-1.77248,-1.46882,0.00788097,-0.726985,-0.713918,0.0876542
1445155451,-8.99397,-12.1879,-0.665528,2.46344,-1.77992,-1.47663,0.00838848,-0.554326,-0.632225,0.000312298
1445165584,-9.0107,-12.2018,-0.66545,2.46822,-1.78446,-1.48225,0.00806965,-0.412079,-0.565278,-0.0678955
1445175702,-9.02736,-12.2157,-0.665379,2.47277,-1.78763,-1.48721,0.00712853,-0.268462,-0.49798,-0.133526
1445185853,-9.04856,-12.2333,-0.665306,2.47828,-1.78972,-1.4926,0.0050679,-0.0830405,-0.411488,-0.213724
1445195990,-9.06544,-12.2474,-0.665268,2.48245,-1.78979,-1.49615,0.00276101,0.066821,-0.341875,-0.275004
1445206132,-9.08248,-12.2617,-0.665255,2.48647,-1.78843,-1.49907,-0.000143817,0.219998,-0.270964,-0.334539
1445216285,-9.09933,-12.2758,-0.665272,2.49025,-1.78563,-1.50129,-0.00356603,0.373286,-0.20022,-0.391116
1445226437,-9.12056,-12.2937,-0.665344,2.49477,-1.78003,-1.50314,-0.00863082,0.569019,-0.110172,-0.459194
1445236595,-9.13736,-12.3079,-0.665447,2.49815,-1.7739,-1.50384,-0.0132188,0.726071,-0.0381204,-0.510581
1445246738,-9.1541,-12.3221,-0.665596,2.50136,-1.76629,-1.50386,-0.0182797,0.884266,0.0342976,-0.559544
1445256875,-9.17434,-12.3394,-0.665844,2.50501,-1.75502,-1.50296,-0.0250372,1.07794,0.122771,-0.615801
1445267014,-9.19088,-12.3536,-0.666109,2.50783,-1.74407,-1.50145,-0.0310683,1.23823,0.195866,-0.659395
1445277161,-9.20697,-12.3675,-0.666425,2.51042,-1.73188,-1.49931,-0.0373614,1.39582,0.267637,-0.699716
1445287333,-9.22737,-12.3852,-0.666918,2.51349,-1.71416,-1.4956,-0.0459327,1.59802,0.359617,-0.747865
1445297471,-9.24321,-12.3991,-0.667377,2.51573,-1.69859,-1.49192,-0.0530398,1.75695,0.431855,-0.782952
1445307609,-9.25953,-12.4135,-0.667926,2.51788,-1.68082,-1.48739,-0.060767,1.92243,0.507036,-0.816966
1445317759,-9.27911,-12.4309,-0.668696,2.52027,-1.65709,-1.48091,-0.0705743,2.12334,0.598302,-0.854872
1445327900,-9.29449,-12.4447,-0.669393,2.522,-1.63652,-1.47498,-0.0786884,2.28309,0.670879,-0.882402
1445338039,-9.30981,-12.4586,-0.670174,2.5236,-1.61424,-1.46831,-0.0871284,2.44394,0.743991,-0.907818
1445348194,-9.32835,-12.4755,-0.671245,2.52535,-1.58478,-1.45917,-0.097813,2.64084,0.833567,-0.935816
1445358472,-9.34312,-12.4892,-0.672206,2.52661,-1.55921,-1.451,-0.106704,2.79969,0.90592,-0.95592
1445368605,-9.35789,-12.503,-0.67327,2.52774,-1.53169,-1.44199,-0.115926,2.96022,0.979143,-0.973993
1445378735,-9.37542,-12.5197,-0.674678,2.52892,-1.4963,-1.43014,-0.127316,3.15318,1.06734,-0.992733
1445388869,-9.38947,-12.5332,-0.67593,2.52972,-1.46566,-1.41968,-0.13679,3.30969,1.13904,-1.00553
1445399006,-9.40326,-12.5466,-0.677277,2.53039,-1.43342,-1.4085,-0.146411,3.46524,1.21049,-1.0161
1445409141,-9.4169,-12.5601,-0.678734,2.53093,-1.39931,-1.3965,-0.156236,3.62087,1.28218,-1.02451
1445419361,-9.43323,-12.5766,-0.680658,2.5314,-1.35527,-1.38079,-0.168426,3.80979,1.36954,-1.03177
1445429567,-9.44631,-12.59,-0.682356,2.53164,-1.31723,-1.36703,-0.178543,3.96332,1.44084,-1.03522
1445439674,-9.45837,-12.6027,-0.684059,2.53174,-1.27975,-1.35334,-0.188166,4.1068,1.50777,-1.03643
1445449805,-9.47031,-12.6154,-0.68589,2.53172,-1.24012,-1.33872,-0.19799,4.25082,1.57526,-1.03562
1445459943,-9.48456,-12.631,-0.688282,2.53152,-1.18927,-1.31977,-0.210112,4.42526,1.65751,-1.03182
1445470085,-9.49563,-12.6435,-0.69032,2.53123,-1.14666,-1.30375,-0.21987,4.56318,1.72297,-1.02655
1445480242,-9.50618,-12.6556,-0.692426,2.53083,-1.10325,-1.2873,-0.229462,4.69664,1.78673,-1.01945
1445490491,-9.51908,-12.6709,-0.695254,2.53015,-1.04586,-1.26536,-0.241633,4.863,1.86687,-1.00769
1445500657,-9.52866,-12.6827,-0.697562,2.5295,-0.999713,-1.24759,-0.251022,4.98909,1.92816,-0.996504
1445510803,-9.53801,-12.6946,-0.700013,2.52872,-0.951289,-1.22881,-0.260511,5.11453,1.9897,-0.983283
1445520938,-9.54877,-12.7088,-0.703122,2.52763,-0.890698,-1.20515,-0.271888,5.26225,2.06298,-0.964833
1445531074,-9.55695,-12.7201,-0.705734,2.52664,-0.840433,-1.18538,-0.280926,5.37747,2.12086,-0.948087
1445541219,-9.56465,-12.7312,-0.708432,2.52554,-0.78906,-1.16506,-0.289805,5.48877,2.17745,-0.92976
1445551459,-9.57355,-12.7447,-0.711903,2.52405,-0.723742,-1.13905,-0.300592,5.62134,2.2459,-0.904868
1445561676,-9.58012,-12.7554,-0.714776,2.52274,-0.670268,-1.11763,-0.309021,5.72279,2.29918,-0.883295
1445571816,-9.58615,-12.7658,-0.717713,2.52136,-0.616138,-1.09582,-0.3172,5.8193,2.35074,-0.860467
1445581958,-9.59165,-12.7759,-0.720711,2.51989,-0.56139,-1.07365,-0.32512,5.91082,2.40056,-0.836455
1445592115,-9.5981,-12.7889,-0.724772,2.51783,-0.487987,-1.04373,-0.335204,6.02429,2.46386,-0.802941
1445602448,-9.60243,-12.7986,-0.727963,2.51616,-0.430894,-1.02032,-0.342636,6.1055,2.51045,-0.775929
1445612579,-9.60614,-12.8079,-0.731158,2.51445,-0.374186,-0.996939,-0.349672,6.18026,2.55454,-0.748353
1445622726,-9.6102,-12.8198,-0.735427,2.5121,-0.299131,-0.965809,-0.358469,6.27041,2.60965,-0.71082
1445632875,-9.61274,-12.8287,-0.738833,2.51019,-0.239781,-0.941041,-0.365019,6.33479,2.65072,-0.68038
1445643007,-9.61473,-12.8376,-0.742334,2.50818,-0.179263,-0.915648,-0.371338,6.39429,2.69037,-0.648709
1445653153,-9.61618,-12.8464,-0.745983,2.50605,-0.116683,-0.889243,-0.377498,6.44941,2.72908,-0.615345
1445663396,-9.6171,-12.8567,-0.750496,2.50337,-0.039939,-0.856654,-0.38454,6.50826,2.77344,-0.573651
1445673541,-9.61719,-12.8647,-0.75415,2.50116,0.0216679,-0.830326,-0.389793,6.54861,2.80664,-0.539614
1445683676,-9.61668,-12.8725,-0.75794,2.49884,0.0851026,-0.803058,-0.394834,6.58381,2.83861,-0.504086
1445693818,-9.61556,-12.8801,-0.761733,2.49648,0.148126,-0.775803,-0.399479,6.61244,2.86818,-0.468342
1445703962,-9.61338,-12.889,-0.766431,2.49353,0.225544,-0.742096,-0.404691,6.63898,2.90156,-0.423877
1445714095,-9.61095,-12.8958,-0.770283,2.49108,0.288495,-0.714497,-0.408533,6.65355,2.92633,-0.387305
1445724256,-9.60797,-12.9024,-0.774098,2.48862,0.350416,-0.687177,-0.411966,6.66172,2.94862,-0.350998
1445734467,-9.60332,-12.9104,-0.779037,2.4854,0.429909,-0.651844,-0.415874,6.6632,2.97423,-0.30394
1445744600,-9.59903,-12.9163,-0.782919,2.48284,0.491881,-0.624088,-0.41853,6.65725,2.99186,-0.266934
1445754736,-9.59405,-12.9221,-0.786909,2.48019,0.555117,-0.595567,-0.420887,6.64468,3.00772,-0.228907
1445764898,-9.58703,-12.9289,-0.791898,2.47684,0.633507,-0.55992,-0.423312,6.61984,3.02437,-0.18142
1445775031,-9.58079,-12.934,-0.79588,2.47413,0.695539,-0.531472,-0.424837,6.59276,3.03515,-0.143592
1445785163,-9.57395,-12.9389,-0.799888,2.47139,0.757489,-0.502838,-0.426011,6.55903,3.04379,-0.105608
1445795307,-9.56638,-12.9436,-0.803977,2.46857,0.820198,-0.473615,-0.426838,6.5179,3.05031,-0.0669637
1445805551,-9.55624,-12.949,-0.809024,2.46505,0.896862,-0.437544,-0.427349,6.45777,3.05519,-0.0194702
1445815681,-9.54749,-12.953,-0.813056,2.46222,0.957522,-0.408716,-0.427354,6.40225,3.05656,0.0182905
1445825810,-9.53809,-12.9567,-0.81712,2.45934,1.01815,-0.379635,-0.427,6.33949,3.05568,0.0561805
1445835955,-9.52539,-12.9611,-0.82225,2.45567,1.09386,-0.34291,-0.426038,6.25044,3.05129,0.103703
1445846092,-9.51484,-12.9641,-0.826248,2.45279,1.15223,-0.31427,-0.424891,6.17334,3.04532,0.140481
1445856334,-9.5035,-12.967,-0.830318,2.44983,1.21107,-0.285082,-0.423364,6.08777,3.03691,0.177681
1445866505,-9.49191,-12.9696,-0.83427,2.44694,1.2676,-0.256722,-0.421534,5.99778,3.02647,0.213533
1445876640,-9.47636,-12.9724,-0.839284,2.44324,1.33843,-0.220705,-0.418716,5.87358,3.00996,0.258608
1445886771,-9.4635,-12.9744,-0.843212,2.44032,1.39321,-0.192453,-0.416118,5.76825,2.99442,0.293581
1445896899,-9.44978,-12.9761,-0.847216,2.43732,1.44837,-0.163622,-0.413112,5.65345,2.97616,0.328893
1445907037,-9.43571,-12.9775,-0.851143,2.43436,1.50174,-0.135319,-0.409809,5.53341,2.95585,0.363163
1445917243,-9.41773,-12.9789,-0.85592,2.43072,1.5657,-0.100831,-0.40531,5.37705,2.92782,0.404348
1445927442,-9.40257,-12.9797,-0.859763,2.42777,1.61629,-0.0730593,-0.401302,5.24287,2.90256,0.437024
1445937579,-9.38716,-12.9803,-0.863511,2.42488,1.66487,-0.0459296,-0.39705,5.10445,2.87551,0.468491
1445947717,-9.37025,-12.9806,-0.867461,2.42181,1.71519,-0.0173052,-0.392197,4.9503,2.84437,0.501172
1445957851,-9.34974,-12.9806,-0.872038,2.41822,1.77231,0.0159175,-0.386083,4.7606,2.80474,0.538389
1445967990,-9.33318,-12.9803,-0.875578,2.41541,1.81553,0.0416529,-0.380982,4.6054,2.77138,0.566664
1445978136,-9.31538,-12.9798,-0.879242,2.41248,1.85933,0.0683213,-0.375353,4.43667,2.73428,0.595427
1445988287,-9.29312,-12.9788,-0.883631,2.40893,1.91046,0.100322,-0.368122,4.22315,2.68621,0.629183
1445998441,-9.275,-12.9777,-0.887059,2.40612,1.9493,0.125357,-0.362092,4.04732,2.64579,0.654986
1446008592,-9.25594,-12.9764,-0.890533,2.40324,1.98757,0.150758,-0.355627,3.86067,2.60212,0.680592
1446018734,-9.23709,-12.9749,-0.893845,2.40045,2.02299,0.175009,-0.349118,3.67436,2.55784,0.704471
1446028858,-9.21235,-12.9726,-0.898018,2.39688,2.06597,0.205603,-0.340414,3.42742,2.49815,0.73376
1446039002,-9.19224,-12.9705,-0.901271,2.39404,2.09809,0.229489,-0.33322,3.22487,2.44841,0.755938
1446049152,-9.17187,-12.9681,-0.904448,2.39122,2.12819,0.25285,-0.325829,3.01799,2.39695,0.777008
1446059316,-9.15183,-12.9657,-0.907462,2.38849,2.15547,0.275036,-0.318468,2.81301,2.34535,0.796414
1446069458,-9.12644,-12.9623,-0.911131,2.38509,2.18684,0.302072,-0.30902,2.55126,2.27861,0.819214
1446079598,-9.10581,-12.9594,-0.913993,2.38238,2.20977,0.323187,-0.301255,2.33707,2.22335,0.836326
1446089733,-9.08505,-12.9562,-0.916773,2.37969,2.23061,0.343712,-0.29336,2.12005,2.16679,0.852332
1446099886,-9.05848,-12.952,-0.92019,2.37628,2.25408,0.368956,-0.283146,1.84027,2.09307,0.871102
1446110022,-9.03694,-12.9484,-0.922845,2.37356,2.27051,0.388592,-0.274787,1.61202,2.03228,0.884945
1446120179,-9.01545,-12.9447,-0.925398,2.37087,2.28464,0.407475,-0.266378,1.38295,1.97073,0.897577
1446130419,-8.98859,-12.9397,-0.928458,2.36753,2.29917,0.430116,-0.255774,1.09478,1.89254,0.911761
1446140636,-8.96689,-12.9356,-0.930826,2.36486,2.30838,0.447637,-0.247139,0.860642,1.8284,0.921945
1446150791,-8.94485,-12.9313,-0.93314,2.36217,2.31544,0.464757,-0.238303,0.621479,1.76235,0.93116
1446160930,-8.9212,-12.9264,-0.935523,2.35929,2.32047,0.482369,-0.228759,0.363573,1.69051,0.939798
1446171074,-8.89387,-12.9206,-0.93815,2.35598,2.32299,0.50177,-0.217648,0.0638163,1.60625,0.948204
1446181293,-8.87212,-12.9159,-0.940146,2.35335,2.32246,0.516495,-0.208741,-0.176086,1.53821,0.953706
1446191488,-8.84979,-12.9108,-0.94211,2.35066,2.31958,0.53095,-0.199546,-0.423448,1.46752,0.95827
1446201620,-8.82793,-12.9058,-0.943949,2.34802,2.31444,0.544462,-0.19049,-0.666726,1.39745,0.961685
1446211771,-8.80075,-12.8993,-0.946125,2.34474,2.3048,0.560391,-0.179153,-0.970876,1.30909,0.964486
1446221918,-8.77923,-12.894,-0.947758,2.34214,2.29459,0.572307,-0.170124,-1.21277,1.23822,0.96557
1446232065,-8.75776,-12.8885,-0.949312,2.33953,2.28207,0.583588,-0.161064,-1.45515,1.16665,0.965653
1446242207,-8.73061,-12.8815,-0.951167,2.33622,2.26285,0.596977,-0.149535,-1.76313,1.07492,0.964325
1446252452,-8.70978,-12.8759,-0.952507,2.33366,2.24546,0.606578,-0.140636,-2.00047,1.00361,0.962212
1446262586,-8.68881,-12.8702,-0.953784,2.33107,2.22557,0.615651,-0.131624,-2.24042,0.93095,0.959114
1446272728,-8.66256,-12.8628,-0.955279,2.32779,2.19718,0.626157,-0.120267,-2.54222,0.838725,0.953842
1446282866,-8.64187,-12.8569,-0.956375,2.32518,2.17198,0.633749,-0.11126,-2.78104,0.765061,0.948577
1446293009,-8.62141,-12.8508,-0.957388,2.32256,2.14449,0.640653,-0.102296,-3.01824,0.691277,0.942381
1446303153,-8.60066,-12.8445,-0.95834,2.31988,2.1139,0.647018,-0.0931497,-3.25964,0.615522,0.935073
1446313351,-8.57561,-12.8368,-0.959388,2.31658,2.07314,0.653828,-0.0820206,-3.55249,0.522676,0.924822
1446323495,-8.55617,-12.8306,-0.960122,2.31398,2.03847,0.658424,-0.0733186,-3.78068,0.449565,0.915754
1446333630,-8.53703,-12.8243,-0.960776,2.31137,2.00158,0.662337,-0.0646891,-4.00621,0.376613,0.905834
1446343773,-8.51361,-12.8164,-0.961478,2.30811,1.9525,0.666259,-0.0540411,-4.2833,0.28597,0.892297
1446353989,-8.49543,-12.8101,-0.961948,2.30552,1.91115,0.668614,-0.0456952,-4.49944,0.214434,0.880661
1446364114,-8.47776,-12.8039,-0.962337,2.30295,1.86811,0.670289,-0.0375206,-4.71013,0.143941,0.868367
1446374266,-8.45631,-12.7961,-0.962715,2.29974,1.8117,0.671458,-0.027493,-4.96703,0.0568891,0.852038
1446384437,-8.43966,-12.7898,-0.962935,2.29717,1.76451,0.671667,-0.0196218,-5.16733,-0.0118979,0.838224
1446394558,-8.4233,-12.7835,-0.963082,2.29458,1.71498,0.671232,-0.0118073,-5.36484,-0.0805902,0.823611
1446404688,-8.40716,-12.7771,-0.963158,2.29194,1.66278,0.670132,-0.00401044,-5.56041,-0.149531,0.808105
1446414826,-8.38788,-12.7692,-0.963149,2.28868,1.59559,0.667864,0.00543323,-5.795,-0.233582,0.78803
1446424966,-8.37271,-12.7627,-0.96306,2.286,1.53862,0.665276,0.0129752,-5.98031,-0.301143,0.770927
1446435105,-8.35822,-12.7563,-0.9629,2.28335,1.48036,0.662068,0.0202915,-6.15808,-0.367058,0.753381
1446445303,-8.34145,-12.7487,-0.962614,2.28013,1.40764,0.65735,0.0289131,-6.36469,-0.445211,0.731425
1446455450,-8.32828,-12.7424,-0.962304,2.27747,1.34597,0.652788,0.0358218,-6.52769,-0.508216,0.712772
1446465623,-8.31617,-12.7364,-0.961945,2.27491,1.28518,0.647836,0.0422992,-6.67815,-0.567594,0.69437
1446475758,-8.30142,-12.7288,-0.961396,2.27161,1.20499,0.640671,0.0503788,-6.86213,-0.642079,0.67009
1446485888,-8.29066,-12.723,-0.960906,2.26905,1.14143,0.634523,0.0564369,-6.997,-0.698232,0.650846
1446496025,-8.28035,-12.7171,-0.960353,2.26645,1.07577,0.627773,0.0623957,-7.1267,-0.753718,0.630981
1446506167,-8.26811,-12.7097,-0.95957,2.26313,0.990391,0.618433,0.0697205,-7.28148,-0.822264,0.605178
1446516405,-8.25917,-12.704,-0.958892,2.2605,0.921809,0.610503,0.0752794,-7.39499,-0.874532,0.584484
1446526542,-8.25076,-12.6982,-0.958152,2.25783,0.8511,0.601957,0.0807265,-7.50237,-0.925946,0.563183
1446536674,-8.24312,-12.6926,-0.957371,2.25518,0.780375,0.593054,0.0859013,-7.60031,-0.974966,0.54192
1446546814,-8.23419,-12.6855,-0.956287,2.25174,0.687211,0.58082,0.0923236,-7.71539,-1.03602,0.51398
1446556963,-8.22801,-12.68,-0.955387,2.24904,0.613551,0.570763,0.0971004,-7.79551,-1.08158,0.49195
1446567115,-8.2227,-12.6748,-0.954474,2.24642,0.541507,0.560617,0.101528,-7.86482,-1.12389,0.470459
1446577366,-8.21675,-12.6681,-0.953218,2.24298,0.446369,0.546771,0.107019,-7.94294,-1.17647,0.442167
1446587519,-8.21291,-12.663,-0.952193,2.24028,0.371483,0.535532,0.11107,-7.99388,-1.21529,0.419971
1446597660,-8.2098,-12.6581,-0.951141,2.2376,0.296843,0.524044,0.114878,-8.03552,-1.25178,0.397914
1446607807,-8.20734,-12.6532,-0.950032,2.23485,0.22034,0.511983,0.118552,-8.06884,-1.28694,0.375378
1446617956,-8.20528,-12.6472,-0.948587,2.23138,0.123538,0.496323,0.122876,-8.09747,-1.32823,0.346965
1446628092,-8.20447,-12.6425,-0.9474,2.22861,0.0462715,0.483513,0.126076,-8.10949,-1.35865,0.324371
1446638338,-8.20439,-12.638,-0.946208,2.22588,-0.0294978,0.470691,0.129003,-8.11191,-1.38631,0.302289
1446648494,-8.2053,-12.6326,-0.944676,2.22244,-0.124516,0.454256,0.132384,-8.10175,-1.41797,0.2747
1446658640,-8.20684,-12.6284,-0.943412,2.21965,-0.201052,0.440735,0.134877,-8.08276,-1.44102,0.252562
1446668784,-8.20912,-12.6242,-0.942115,2.21683,-0.278023,0.426887,0.13718,-8.05379,-1.46199,0.230372
1446678922,-8.21297,-12.6193,-0.940477,2.21331,-0.372957,0.409466,0.139742,-8.00415,-1.48477,0.203108
1446689072,-8.21679,-12.6155,-0.939167,2.21053,-0.447306,0.395558,0.141535,-7.95429,-1.5002,0.181834
1446699230,-8.22132,-12.6119,-0.937836,2.20772,-0.521432,0.381463,0.143137,-7.8947,-1.51344,0.160691
1446709473,-8.22801,-12.6075,-0.936139,2.20417,-0.613901,0.363557,0.144874,-7.80609,-1.52689,0.134409
1446719602,-8.23417,-12.6041,-0.934762,2.2013,-0.687435,0.349058,0.146048,-7.72387,-1.5351,0.11358
1446729737,-8.24101,-12.6009,-0.933376,2.19842,-0.760038,0.334514,0.147025,-7.63205,-1.54098,0.093074
1446739877,-8.25042,-12.5971,-0.931652,2.19484,-0.848529,0.316473,0.147967,-7.50517,-1.54504,0.0681565
1446750016,-8.25871,-12.5942,-0.930259,2.19195,-0.918481,0.30196,0.148514,-7.39261,-1.54574,0.0485148
1446760248,-8.26775,-12.5914,-0.928851,2.18902,-0.987936,0.287323,0.148881,-7.26953,-1.54415,0.0290578
1446770445,-8.27744,-12.5888,-0.927438,2.18607,-1.05625,0.272696,0.149066,-7.13682,-1.54026,0.00995958
1446780575,-8.29062,-12.5856,-0.925649,2.18231,-1.14079,0.254265,0.149043,-6.9555,-1.53207,-0.0136276
1446790700,-8.30169,-12.5833,-0.924244,2.17934,-1.20571,0.239849,0.148829,-6.80246,-1.52308,-0.0317109
1446800831,-8.31326,-12.5811,-0.922854,2.17639,-1.26856,0.225661,0.148451,-6.64194,-1.51199,-0.0492
1446810964,-8.32835,-12.5786,-0.921143,2.17271,-1.34407,0.208289,0.14776,-6.43158,-1.49534,-0.0702032
1446821113,-8.34152,-12.5767,-0.919731,2.16964,-1.40483,0.194036,0.147006,-6.24718,-1.47908,-0.0871009
1446831418,-8.35497,-12.5749,-0.918356,2.16662,-1.46255,0.180244,0.146114,-6.05819,-1.46106,-0.103164
1446841550,-8.37251,-12.5729,-0.916652,2.16281,-1.53208,0.163275,0.144791,-5.8107,-1.43571,-0.122542
1446851674,-8.38706,-12.5714,-0.915307,2.15975,-1.58533,0.149984,0.143578,-5.60472,-1.4133,-0.137423
1446861799,-8.40235,-12.5701,-0.91395,2.15659,-1.63751,0.136685,0.142204,-5.38732,-1.38854,-0.15205
1446871950,-8.42225,-12.5685,-0.912266,2.15256,-1.70006,0.120328,0.140285,-5.10345,-1.35471,-0.169678
1446882083,-8.43826,-12.5675,-0.91097,2.14936,-1.7464,0.107875,0.138647,-4.87427,-1.32633,-0.182828
1446892327,-8.45465,-12.5665,-0.909694,2.1461,-1.79049,0.0957218,0.136894,-4.63893,-1.2963,-0.195432
1446902474,-8.47596,-12.5655,-0.908102,2.14188,-1.8431,0.0807553,0.134513,-4.33197,-1.25597,-0.210634
1446912671,-8.49368,-12.5648,-0.906833,2.13837,-1.88308,0.0689754,0.132454,-4.07588,-1.22141,-0.222346
1446922813,-8.51177,-12.5642,-0.905583,2.13476,-1.9206,0.057528,0.130285,-3.81366,-1.18528,-0.233506
1446932953,-8.53453,-12.5636,-0.904073,2.13018,-1.96336,0.0439084,0.127472,-3.48274,-1.13871,-0.246489
1446943081,-8.55299,-12.5632,-0.902895,2.12642,-1.99459,0.03347,0.125128,-3.21368,-1.10013,-0.256211
1446953232,-8.57245,-12.563,-0.901695,2.1224,-2.02434,0.0230136,0.122599,-2.92913,-1.05872,-0.265741
1446963528,-8.59166,-12.5628,-0.900551,2.11836,-2.05064,0.0132259,0.120052,-2.64757,-1.01717,-0.274461
1446973694,-8.61608,-12.5627,-0.899151,2.11311,-2.07982,0.00151739,0.116747,-2.28879,-0.96351,-0.284619
1446983823,-8.63569,-12.5627,-0.898069,2.10879,-2.09994,-0.00731783,0.114041,-1.99989,-0.91977,-0.29207
1446993982,-8.65543,-12.5628,-0.897014,2.10433,-2.11729,-0.0157182,0.111275,-1.70847,-0.87522,-0.298967
1447004126,-8.68072,-12.5631,-0.895712,2.09845,-2.13539,-0.0257847,0.107671,-1.33407,-0.817423,-0.306965
1447014382,-8.70071,-12.5634,-0.89472,2.09365,-2.14646,-0.0332011,0.104778,-1.03746,-0.771235,-0.312648
1447024525,-8.72071,-12.5637,-0.89376,2.0887,-2.15473,-0.0401572,0.101846,-0.740046,-0.724607,-0.317794
1447034671,-8.74623,-12.5642,-0.892578,2.08215,-2.16123,-0.0483681,0.0980549,-0.359848,-0.664598,-0.3236
1447044807,-8.7669,-12.5647,-0.891656,2.07664,-2.1632,-0.0544876,0.0949412,-0.0510634,-0.61557,-0.327703
1447054951,-8.78715,-12.5653,-0.890781,2.07104,-2.16226,-0.0600245,0.0918564,0.251985,-0.567234,-0.331215
1447065084,-8.8128,-12.566,-0.889714,2.06365,-2.15698,-0.0663964,0.0878992,0.63677,-0.5056,-0.334962
1447075211,-8.83278,-12.5666,-0.888913,2.05765,-2.14968,-0.0708625,0.0847807,0.936989,-0.457343,-0.337346
1447085418,-8.85335,-12.5673,-0.888115,2.05121,-2.1392,-0.0750104,0.0815346,1.24674,-0.40743,-0.339322
1447095553,-8.87332,-12.5681,-0.887367,2.0447,-2.12613,-0.078596,0.0783518,1.54782,-0.358826,-0.340779
1447105692,-8.89824,-12.569,-0.886468,2.03617,-2.10567,-0.0824633,0.0743304,1.92447,-0.297937,-0.341967
1447115827,-8.91853,-12.5698,-0.885764,2.02887,-2.08556,-0.0851063,0.0710179,2.23159,-0.248256,-0.342418
1447125964,-8.93821,-12.5706,-0.885106,2.02145,-2.06297,-0.0872325,0.0677684,2.5301,-0.199972,-0.342412
1447136107,-8.958,-12.5715,-0.884468,2.01363,-2.0371,-0.0889272,0.0644663,2.83058,-0.151405,-0.341962
1447146265,-8.98196,-12.5726,-0.883727,2.00363,-2.00134,-0.0903739,0.060414,3.19525,-0.0925563,-0.340815
1447156506,-9.00078,-12.5734,-0.88317,1.99533,-1.9697,-0.0910315,0.0571913,3.48195,-0.0464002,-0.339444
1447166634,-9.01901,-12.5743,-0.882651,1.98686,-1.9359,-0.0912555,0.0540307,3.76013,-0.00174161,-0.337711
1447176774,-9.04135,-12.5753,-0.882042,1.97585,-1.88998,-0.0909555,0.0501014,4.10165,0.052862,-0.335026
1447186913,-9.05909,-12.5762,-0.881582,1.96657,-1.84979,-0.0902485,0.046936,4.37307,0.0960404,-0.332441
1447197052,-9.07621,-12.577,-0.881158,1.9571,-1.80763,-0.0891545,0.0438376,4.63534,0.137538,-0.329547
1447207192,-9.09747,-12.5781,-0.880657,1.94454,-1.75028,-0.0872028,0.0399239,4.96147,0.188769,-0.325379
1447217421,-9.11368,-12.5789,-0.880297,1.9343,-1.70252,-0.0852476,0.0368861,5.21036,0.227531,-0.32175
1447227562,-9.12944,-12.5797,-0.879964,1.92372,-1.65242,-0.0829329,0.0338811,5.45258,0.264927,-0.317821
1447237706,-9.14833,-12.5806,-0.879591,1.91011,-1.58716,-0.0795843,0.0302069,5.74296,0.309248,-0.312553
1447247847,-9.16305,-12.5814,-0.879319,1.89869,-1.53187,-0.0765023,0.0272774,5.96951,0.343369,-0.307986
1447257994,-9.1772,-12.5821,-0.879076,1.88694,-1.47465,-0.073117,0.0244011,6.18728,0.375716,-0.303179
1447268136,-9.19094,-12.5828,-0.878858,1.8747,-1.41482,-0.0693967,0.0215428,6.39868,0.406621,-0.298083
1447278364,-9.20698,-12.5835,-0.878627,1.85917,-1.33884,-0.0644523,0.0181089,6.64545,0.44195,-0.291531
1447288535,-9.21967,-12.5841,-0.878465,1.84577,-1.27332,-0.0600243,0.0153039,6.84058,0.4692,-0.285824
1447298667,-9.23131,-12.5847,-0.878334,1.83242,-1.20828,-0.0555056,0.0126484,7.01944,0.493527,-0.280121
1447308819,-9.24259,-12.5852,-0.878225,1.81834,-1.14004,-0.0506556,0.00998739,7.19237,0.516325,-0.274105
1447318957,-9.25586,-12.5858,-0.878124,1.79998,-1.05172,-0.0442457,0.0067159,7.39541,0.541956,-0.266284
1447329094,-9.26555,-12.5862,-0.878072,1.78502,-0.980459,-0.0389899,0.00420588,7.54323,0.559631,-0.259957
1447339250,-9.27445,-12.5865,-0.878044,1.76983,-0.908811,-0.0336488,0.0017888,7.6783,0.574837,-0.253586
1447349412,-9.28462,-12.5869,-0.87804,1.7502,-0.817431,-0.0267798,-0.00115097,7.83188,0.590666,-0.245456
1447359544,-9.29182,-12.5871,-0.878061,1.73435,-0.744675,-0.0212837,-0.00338553,7.93984,0.600524,-0.238987
1447369675,-9.29859,-12.5873,-0.878104,1.71742,-0.668137,-0.0154924,-0.00564205,8.04028,0.608358,-0.232189
1447379812,-9.30584,-12.5874,-0.878186,1.69613,-0.573589,-0.00834703,-0.00830517,8.14639,0.614547,-0.22381
1447389955,-9.31084,-12.5874,-0.878273,1.67859,-0.497191,-0.00259723,-0.0103632,8.21804,0.6168,-0.217058
1447400088,-9.31514,-12.5874,-0.87838,1.66051,-0.419897,0.00318329,-0.0123651,8.27802,0.616626,-0.210247
1447410217,-9.31951,-12.5874,-0.87854,1.6371,-0.322045,0.0104273,-0.0147907,8.33624,0.612917,-0.201659
1447420361,-9.32215,-12.5872,-0.878687,1.61797,-0.243974,0.0161307,-0.0166435,8.36868,0.607188,-0.194837
1447430509,-9.32411,-12.5871,-0.878855,1.59782,-0.163584,0.021917,-0.018479,8.38918,0.598733,-0.187844
1447440655,-9.32543,-12.5868,-0.87908,1.57294,-0.0669728,0.0287333,-0.0205927,8.39656,0.585142,-0.179483
1447450782,-9.32569,-12.5865,-0.879284,1.55184,0.0127157,0.034224,-0.0222642,8.38843,0.571101,-0.172626
1447460917,-9.32521,-12.5861,-0.879499,1.53052,0.0910525,0.0394888,-0.0238467,8.36781,0.554783,-0.165922
1447471061,-9.32355,-12.5856,-0.879792,1.50285,0.189611,0.0459006,-0.0257561,8.32387,0.530661,-0.15754
1447481342,-9.32139,-12.5852,-0.880042,1.4801,0.267973,0.0508083,-0.0272121,8.27435,0.508576,-0.15092
1447491515,-9.31844,-12.5847,-0.88031,1.45644,0.346982,0.055565,-0.0286267,8.21104,0.483642,-0.144286
1447501660,-9.31484,-12.5841,-0.880583,1.4328,0.423376,0.0599616,-0.0299452,8.1367,0.456925,-0.137912
1447511801,-9.3093,-12.5834,-0.880945,1.40226,0.51843,0.0651214,-0.0315206,8.02559,0.419985,-0.130037
1447521938,-9.30411,-12.5827,-0.881245,1.37735,0.592954,0.0688984,-0.0327069,7.92346,0.388054,-0.123908
1447532079,-9.29823,-12.5821,-0.881556,1.35188,0.666427,0.0723647,-0.033836,7.80928,0.353913,-0.117906
1447542303,-9.29006,-12.5812,-0.881952,1.3198,0.75531,0.0761774,-0.0351497,7.65233,0.308919,-0.110697
1447552548,-9.28265,-12.5805,-0.882286,1.2931,0.826308,0.0788889,-0.0361592,7.51132,0.269926,-0.10498
1447562694,-9.27243,-12.5796,-0.882718,1.25893,0.913455,0.0817595,-0.0373517,7.31795,0.218128,-0.0980153
1447572834,-9.26338,-12.5788,-0.883079,1.23068,0.982473,0.0836309,-0.0382606,7.1478,0.173831,-0.0925392
1447582975,-9.25393,-12.578,-0.883439,1.20273,1.04816,0.0850401,-0.0390974,6.9708,0.128791,-0.0873601
1447593119,-9.2411,-12.577,-0.883906,1.16681,1.12894,0.08621,-0.0400896,6.73124,0.0692521,-0.0810349
1447603388,-9.22984,-12.5761,-0.884298,1.13688,1.19316,0.0866358,-0.0408506,6.52188,0.0183585,-0.0760393
1447613518,-9.21836,-12.5753,-0.884685,1.10758,1.25341,0.0865706,-0.0415425,6.3087,-0.0325113,-0.0713802
1447623659,-9.20621,-12.5745,-0.885081,1.07776,1.31209,0.086014,-0.042197,6.08371,-0.0852685,-0.0668653
1447633798,-9.19041,-12.5735,-0.885581,1.0405,1.38175,0.0846217,-0.0429497,5.79169,-0.152457,-0.0615354
1447643933,-9.17711,-12.5727,-0.885989,1.01029,1.43528,0.0829216,-0.0435112,5.54636,-0.207883,-0.0574597
1447654071,-9.16335,-12.5719,-0.886401,0.98,1.4863,0.0807003,-0.0440338,5.29302,-0.264212,-0.0535889
1447664293,-9.1454,-12.571,-0.886926,0.94174,1.54701,0.0771475,-0.0446406,4.96279,-0.336349,-0.0489995
1447674471,-9.13092,-12.5703,-0.88734,0.91182,1.59157,0.0737819,-0.045077,4.69684,-0.393438,-0.0456388
1447684616,-9.11497,-12.5696,-0.887787,0.879712,1.63654,0.0695893,-0.045511,4.40417,-0.455276,-0.0422508
1447694747,-9.0992,-12.569,-0.888222,0.848758,1.67709,0.0649704,-0.0458985,4.11508,-0.515376,-0.0391955
1447704888,-9.07876,-12.5682,-0.888776,0.809709,1.72429,0.0583208,-0.0463476,3.7409,-0.591759,-0.0356318
1447715019,-9.06228,-12.5677,-0.889217,0.779,1.75827,0.0524346,-0.0466724,3.4394,-0.652175,-0.0330542
1447725177,-9.04572,-12.5672,-0.889654,0.748791,1.78897,0.0460682,-0.0469699,3.13671,-0.711824,-0.0307103
1447735525,-9.02859,-12.5668,-0.890101,0.718158,1.81729,0.0390162,-0.0472512,2.82372,-0.772456,-0.0285262
1447745681,-9.00649,-12.5664,-0.890673,0.679528,1.84889,0.0292456,-0.0475797,2.42044,-0.849,-0.0260477
1447755817,-8.98866,-12.5662,-0.89113,0.649021,1.87054,0.020818,-0.0478209,2.0953,-0.909413,-0.0243075
1447765951,-8.97091,-12.566,-0.891583,0.619194,1.8888,0.0119526,-0.048043,1.77177,-0.968358,-0.0227916
1447776082,-8.95232,-12.566,-0.892055,0.588497,1.90451,0.00216279,-0.0482596,1.43305,-1.0288,-0.021424
1447786233,-8.9295,-12.566,-0.892632,0.551564,1.91913,-0.0105436,-0.0485066,1.01778,-1.10109,-0.0200397
1447796475,-8.91134,-12.5662,-0.893091,0.522707,1.92718,-0.0212044,-0.0486915,0.687442,-1.15713,-0.0191588
1447806604,-8.89286,-12.5664,-0.893558,0.493809,1.93215,-0.0325523,-0.0488715,0.351434,-1.21274,-0.0184558
1447816744,-8.87016,-12.5669,-0.894133,0.458934,1.93386,-0.0471837,-0.0490844,-0.0610562,-1.27903,-0.017851
1447826881,-8.85224,-12.5674,-0.894589,0.431872,1.93178,-0.0592778,-0.0492484,-0.38648,-1.32972,-0.0175696
1447837021,-8.83399,-12.568,-0.895056,0.404721,1.92656,-0.0720965,-0.049414,-0.717758,-1.37979,-0.0174569
1447847163,-8.81561,-12.5687,-0.895529,0.377809,1.91811,-0.0855161,-0.0495809,-1.05098,-1.42852,-0.0175179
1447857332,-8.79349,-12.5698,-0.896104,0.34595,1.90362,-0.102379,-0.0497852,-1.45191,-1.48484,-0.0178209
1447867471,-8.77578,-12.5709,-0.896569,0.320866,1.88856,-0.11645,-0.0499535,-1.77269,-1.52798,-0.0182433
1447877600,-8.75392,-12.5723,-0.897152,0.290427,1.86561,-0.134542,-0.05017,-2.16835,-1.57865,-0.018985
1447887743,-8.73631,-12.5737,-0.897629,0.266338,1.84351,-0.149713,-0.0503538,-2.48673,-1.61724,-0.0197606
1447897888,-8.71906,-12.5751,-0.898105,0.243113,1.81861,-0.165118,-0.0505442,-2.7984,-1.65297,-0.0206763
1447908029,-8.70189,-12.5768,-0.898587,0.220373,1.79051,-0.181007,-0.0507459,-3.10838,-1.68636,-0.0217438
1447918165,-8.68087,-12.5791,-0.89919,0.193087,1.75138,-0.201238,-0.0510126,-3.48723,-1.72397,-0.0232668
1447928426,-8.66434,-12.5811,-0.899677,0.172058,1.71672,-0.2178,-0.0512408,-3.78489,-1.75081,-0.0246381
1447938560,-8.64806,-12.5832,-0.90017,0.151742,1.67902,-0.234705,-0.0514842,-4.07775,-1.77465,-0.0261439
1447948711,-8.62884,-12.5861,-0.90077,0.128316,1.62964,-0.255463,-0.0517992,-4.42283,-1.79909,-0.0281283
1447958862,-8.61332,-12.5886,-0.901271,0.109862,1.58558,-0.272919,-0.0520793,-4.70115,-1.8156,-0.0299047
1447969005,-8.59869,-12.5913,-0.90176,0.0929013,1.54036,-0.289971,-0.0523676,-4.96288,-1.82816,-0.0317288
1447979158,-8.58428,-12.5941,-0.902259,0.0766371,1.49195,-0.307394,-0.0526784,-5.22024,-1.83737,-0.0336788
1447989425,-8.56693,-12.5979,-0.902887,0.0577296,1.42811,-0.329258,-0.0530934,-5.52909,-1.84371,-0.0362427
1447999576,-8.55363,-12.6011,-0.903393,0.0437886,1.37451,-0.346764,-0.0534475,-5.76525,-1.84454,-0.0383857
1448009708,-8.54073,-12.6045,-0.903907,0.0308003,1.31814,-0.364432,-0.0538261,-5.99366,-1.84146,-0.040627
1448019855,-8.52588,-12.6088,-0.904532,0.0166309,1.24727,-0.385691,-0.0543123,-6.25528,-1.8324,-0.0434259
1448029992,-8.51444,-12.6125,-0.905045,0.00637277,1.18752,-0.402863,-0.0547315,-6.45604,-1.82065,-0.0457669
1448040139,-8.50337,-12.6165,-0.905571,-0.00287768,1.12482,-0.420208,-0.0551809,-6.64911,-1.80459,-0.0482039
1448050377,-8.49063,-12.6215,-0.906222,-0.0125408,1.04543,-0.441254,-0.0557648,-6.87003,-1.77914,-0.0512592
1448060551,-8.48101,-12.6258,-0.906754,-0.0189574,0.979349,-0.458045,-0.0562639,-7.03547,-1.75385,-0.0537754
1448070684,-8.4721,-12.6302,-0.907286,-0.0240412,0.912378,-0.474425,-0.0567821,-7.1873,-1.72462,-0.0562993
1448080822,-8.46355,-12.6349,-0.907843,-0.0279332,0.84161,-0.491069,-0.0573437,-7.33147,-1.68994,-0.0589369
1448090969,-8.45417,-12.6408,-0.908521,-0.0307222,0.7545,-0.510658,-0.0580552,-7.48736,-1.64211,-0.0621404
1448101100,-8.44737,-12.6457,-0.909072,-0.0314143,0.683188,-0.52598,-0.0586548,-7.59817,-1.59887,-0.0647264
1448111361,-8.44136,-12.6506,-0.90962,-0.0307137,0.612161,-0.540617,-0.0592678,-7.69418,-1.55223,-0.0672682
1448121546,-8.43471,-12.6571,-0.91032,-0.027826,0.521316,-0.558445,-0.0600754,-7.7969,-1.48747,-0.0704682
1448131683,-8.43002,-12.6626,-0.910906,-0.0237062,0.445331,-0.572595,-0.0607718,-7.86608,-1.42896,-0.0730994
1448141813,-8.4262,-12.668,-0.911478,-0.0182088,0.37143,-0.585692,-0.0614679,-7.91912,-1.36828,-0.0756171
1448151960,-8.42308,-12.6735,-0.912055,-0.0112097,0.297335,-0.598163,-0.0621852,-7.95847,-1.30371,-0.0780991
1448162106,-8.42008,-12.6808,-0.912806,6.18468e-05,0.201691,-0.61327,-0.0631406,-7.98909,-1.21481,-0.0812374
1448172263,-8.41853,-12.6867,-0.913408,0.0108196,0.125944,-0.624429,-0.0639219,-7.99735,-1.13994,-0.0836681
1448182509,-8.4177,-12.6926,-0.914018,0.0232466,0.0501936,-0.634858,-0.0647259,-7.99153,-1.06105,-0.0860481
1448192640,-8.41766,-12.7002,-0.914787,0.0411021,-0.0439292,-0.646768,-0.0657579,-7.96461,-0.957331,-0.0889307
1448202784,-8.41841,-12.7062,-0.915402,0.0570732,-0.117815,-0.655271,-0.066595,-7.92806,-0.871386,-0.0911322
1448212916,-8.41989,-12.7125,-0.916041,0.0751465,-0.193081,-0.663135,-0.0674733,-7.87669,-0.779626,-0.093316
1448223050,-8.42276,-12.7205,-0.916852,0.100157,-0.286586,-0.671727,-0.0686025,-7.7926,-0.659509,-0.0959407
1448233203,-8.4258,-12.7268,-0.917503,0.121713,-0.359672,-0.677481,-0.0695164,-7.71082,-0.560716,-0.0979193
1448243473,-8.42963,-12.7334,-0.918178,0.145344,-0.433576,-0.682387,-0.0704701,-7.61332,-0.456244,-0.0998498
1448253613,-8.43406,-12.7398,-0.918848,0.169945,-0.504875,-0.686196,-0.0714203,-7.50464,-0.350895,-0.10164
1448263749,-8.44065,-12.7481,-0.919713,0.203319,-0.594068,-0.689583,-0.0726538,-7.34756,-0.212448,-0.103772
1448273901,-8.44654,-12.7546,-0.920398,0.230895,-0.662291,-0.691055,-0.0736335,-7.21071,-0.101248,-0.105313
1448284064,-8.45304,-12.761,-0.921091,0.259674,-0.72899,-0.691473,-0.0746244,-7.06209,0.0122153,-0.106737
1448294339,-8.46223,-12.7693,-0.921988,0.298143,-0.811929,-0.690448,-0.0759063,-6.85544,0.160343,-0.108383
1448304524,-8.47044,-12.776,-0.922731,0.330929,-0.877694,-0.688291,-0.0769658,-6.67306,0.283805,-0.109577
1448314652,-8.47893,-12.7824,-0.923455,0.363585,-0.939203,-0.685076,-0.0779949,-6.48638,0.404522,-0.110594
1448324787,-8.48798,-12.7888,-0.924188,0.397253,-0.998842,-0.68073,-0.0790315,-6.28924,0.526849,-0.111476
1448334947,-8.50036,-12.7969,-0.92514,0.441813,-1.07242,-0.673487,-0.0803695,-6.02184,0.685708,-0.112405
1448345099,-8.51093,-12.8033,-0.925917,0.478717,-1.12914,-0.666287,-0.0814513,-5.7954,0.814849,-0.112983
1448355352,-8.52188,-12.8096,-0.926693,0.51606,-1.18295,-0.657958,-0.0825238,-5.56216,0.943441,-0.1134
1448365527,-8.53346,-12.8158,-0.927489,0.554677,-1.23505,-0.648298,-0.0836111,-5.31704,1.07431,-0.113664
1448375648,-8.54852,-12.8235,-0.928491,0.603765,-1.2964,-0.634553,-0.0849635,-5.00029,1.23772,-0.113764
1448385786,-8.56086,-12.8293,-0.929291,0.643191,-1.34196,-0.622375,-0.0860271,-4.74212,1.36665,-0.113661
1448395927,-8.57405,-12.8353,-0.930128,0.684653,-1.38649,-0.608516,-0.0871248,-4.46737,1.50007,-0.113383
1448406065,-8.59088,-12.8424,-0.931174,0.736634,-1.43765,-0.589665,-0.0884725,-4.11869,1.66425,-0.112795
1448416290,-8.60461,-12.8479,-0.932013,0.778394,-1.47514,-0.573368,-0.0895327,-3.83553,1.79368,-0.112134
1448426523,-8.61873,-12.8532,-0.932865,0.820819,-1.51007,-0.555784,-0.0905899,-3.54538,1.92292,-0.111293
1448436671,-8.63326,-12.8584,-0.933732,0.863956,-1.5424,-0.536864,-0.0916445,-3.24806,2.052,-0.110265
1448446808,-8.65169,-12.8646,-0.934822,0.918025,-1.57855,-0.511695,-0.0929379,-2.87249,2.21045,-0.108733
1448456963,-8.66688,-12.8694,-0.935714,0.962098,-1.60449,-0.489998,-0.0939686,-2.56428,2.33681,-0.107283
1448467189,-8.68201,-12.8739,-0.936598,1.00561,-1.62707,-0.467552,-0.0949654,-2.25843,2.45904,-0.105675
1448477439,-8.70162,-12.8793,-0.937741,1.0615,-1.65171,-0.437227,-0.0962155,-1.86351,2.61233,-0.10335
1448487575,-8.71713,-12.8833,-0.938645,1.10538,-1.66768,-0.412257,-0.0971723,-1.5522,2.72963,-0.10132
1448497713,-8.73324,-12.8871,-0.939585,1.15064,-1.68106,-0.385431,-0.098136,-1.23015,2.84773,-0.0990338
1448507864,-8.7492,-12.8906,-0.940518,1.19523,-1.6912,-0.357938,-0.099062,-0.912136,2.96112,-0.0965881
1448518004,-8.76963,-12.8947,-0.941718,1.25195,-1.69975,-0.321427,-0.100205,-0.506797,3.10099,-0.0931932
1448528150,-8.78462,-12.8974,-0.942604,1.29338,-1.70291,-0.293666,-0.101015,-0.21042,3.1999,-0.0905082
1448538476,-8.80482,-12.9007,-0.943809,1.34898,-1.70304,-0.254949,-0.102065,0.187391,3.32813,-0.0866247
1448548607,-8.82068,-12.9029,-0.944763,1.39246,-1.69985,-0.223485,-0.102857,0.498359,3.42465,-0.0833566
1448558748,-8.83719,-12.9049,-0.945768,1.43761,-1.69342,-0.189686,-0.103651,0.820977,3.52122,-0.0797397
1448568913,-8.85321,-12.9066,-0.946755,1.48133,-1.68416,-0.155862,-0.10439,1.13273,3.61095,-0.0760146
1448579053,-8.87305,-12.9082,-0.947995,1.53537,-1.66847,-0.112502,-0.10526,1.51711,3.7165,-0.0710909
1448589222,-8.88887,-12.9091,-0.949001,1.57841,-1.65256,-0.0767117,-0.105918,1.8222,3.79605,-0.0669051
1448599480,-8.90429,-12.9096,-0.949997,1.62032,-1.63409,-0.0407685,-0.106525,2.11807,3.86938,-0.0625933
1448609631,-8.92358,-12.9098,-0.951269,1.67276,-1.60668,0.00580322,-0.107236,2.48648,3.95507,-0.0568486
1448619744,-8.93881,-12.9096,-0.952297,1.7142,-1.58153,0.0439014,-0.107757,2.77583,4.01765,-0.0520181
1448629875,-8.95348,-12.909,-0.953307,1.75414,-1.55425,0.0817636,-0.108221,3.05307,4.07336,-0.0471015
1448640017,-8.96814,-12.908,-0.95434,1.79408,-1.52387,0.120789,-0.108644,3.32838,4.12421,-0.0419131
1448650166,-8.98626,-12.9063,-0.955652,1.84355,-1.4817,0.170843,-0.109109,3.66642,4.17986,-0.0350781
1448660474,-8.99997,-12.9045,-0.956676,1.88108,-1.44616,0.210175,-0.109412,3.92045,4.2162,-0.0295637
1448670618,-9.01328,-12.9024,-0.957696,1.91758,-1.40848,0.24961,-0.109661,4.1651,4.24619,-0.0239063
1448680755,-9.0295,-12.8991,-0.958984,1.96224,-1.35788,0.299593,-0.109898,4.46094,4.27498,-0.0165471
1448690928,-9.0421,-12.8961,-0.960021,1.99703,-1.31474,0.339973,-0.110026,4.68844,4.29074,-0.0104439
1448701080,-9.0541,-12.8928,-0.961043,2.0303,-1.27021,0.379859,-0.110094,4.90312,4.29971,-0.00427283
1448711312,-9.06898,-12.8879,-0.962363,2.07168,-1.20982,0.431438,-0.110097,5.16598,4.3015,0.00392464
1448721615,-9.08017,-12.8837,-0.963403,2.10298,-1.16009,0.472045,-0.110028,5.36116,4.29502,0.0105574
1448731797,-9.09103,-12.8789,-0.964455,2.13346,-1.10787,0.513097,-0.109894,5.54788,4.28126,0.0174305
1448741935,-9.10351,-12.8727,-0.96573,2.16867,-1.04223,0.562655,-0.109643,5.75887,4.25477,0.0259635
1448752073,-9.11296,-12.8673,-0.966749,2.19546,-0.987899,0.60212,-0.109369,5.91542,4.2257,0.0329531
1448762221,-9.12199,-12.8614,-0.967776,2.22117,-0.931548,0.641709,-0.109025,6.062,4.18918,0.0401481
1448772455,-9.13239,-12.8537,-0.969039,2.25093,-0.860196,0.690037,-0.108507,6.22633,4.13419,0.0491964
1448782617,-9.14019,-12.847,-0.970056,2.27335,-0.801155,0.72862,-0.10801,6.3456,4.08167,0.0566442
1448792753,-9.14757,-12.8399,-0.971087,2.29462,-0.739884,0.767404,-0.107431,6.45438,4.02074,0.0643465
1448802893,-9.15576,-12.8306,-0.972336,2.31831,-0.663885,0.813837,-0.106624,6.56926,3.93639,0.0738756
1448813044,-9.1619,-12.8225,-0.973369,2.33611,-0.599589,0.851746,-0.105867,6.64997,3.85766,0.0819266
1448823184,-9.16719,-12.8145,-0.97435,2.35142,-0.537449,0.887236,-0.105069,6.71422,3.7753,0.0897064
1448833378,-9.17192,-12.806,-0.975328,2.3651,-0.474453,0.922103,-0.104194,6.76601,3.68558,0.097599
1448843517,-9.17712,-12.7947,-0.976569,2.38019,-0.393069,0.965529,-0.102963,6.81359,3.56051,0.107814
1448853644,-9.18049,-12.7855,-0.977525,2.39006,-0.329391,0.99826,-0.10192,6.83597,3.45545,0.115829
1448863778,-9.18332,-12.7758,-0.978493,2.39851,-0.263996,1.03075,-0.100774,6.8456,3.34096,0.124086
1448873910,-9.186,-12.7632,-0.979696,2.40679,-0.181712,1.07,-0.099219,6.83869,3.1873,0.134524
1448884043,-9.18741,-12.753,-0.980621,2.41147,-0.117615,1.09932,-0.0979181,6.81866,3.06006,0.142699
1448894210,-9.18822,-12.7423,-0.981556,2.41468,-0.0521707,1.12811,-0.096505,6.78492,2.9232,0.151091
1448904435,-9.18841,-12.7314,-0.982473,2.41632,0.0125885,1.15542,-0.0950181,6.73821,2.78065,0.159447
1448914573,-9.18779,-12.7175,-0.983588,2.41622,0.0920338,1.1873,-0.0930668,6.66248,2.59579,0.169776
1448924720,-9.18652,-12.7053,-0.984522,2.41433,0.159098,1.21275,-0.0913033,6.58237,2.43079,0.178572
1448934855,-9.18469,-12.6936,-0.98539,2.41104,0.221904,1.23532,-0.0895482,6.49349,2.26848,0.186878
1448945003,-9.18228,-12.6817,-0.986236,2.40634,0.283376,1.25617,-0.0877264,6.39305,2.10194,0.195081
1448955148,-9.1793,-12.6697,-0.987059,2.4003,0.343513,1.27531,-0.085837,6.28137,1.93125,0.203181
1448965459,-9.17487,-12.6547,-0.988047,2.39104,0.415971,1.2966,-0.0834071,6.12826,1.71469,0.213051
1448975597,-9.17067,-12.6424,-0.988825,2.38212,0.473164,1.31193,-0.0813595,5.99221,1.5347,0.220935
1448985743,-9.16586,-12.6297,-0.989595,2.37176,0.529928,1.32576,-0.0792025,5.84301,1.3475,0.22885
1448995889,-9.15934,-12.6143,-0.990496,2.35758,0.596457,1.34002,-0.0764987,5.64877,1.11627,0.238255
1449006029,-9.15331,-12.6013,-0.991224,2.34437,0.650233,1.34986,-0.0741581,5.47514,0.91908,0.245969
1449016162,-9.14687,-12.5884,-0.99192,2.33015,0.701572,1.35768,-0.0717776,5.29414,0.721301,0.253437
1449026413,-9.13995,-12.5754,-0.992592,2.31481,0.751075,1.3636,-0.0693299,5.10411,0.520804,0.260747
1449036553,-9.13071,-12.5592,-0.993394,2.29418,0.810039,1.36827,-0.0661905,4.85549,0.267791,0.26961
1449046689,-9.12289,-12.5464,-0.994003,2.27664,0.85465,1.36983,-0.0636277,4.64916,0.0646439,0.276444
1449056821,-9.11442,-12.5332,-0.994605,2.25753,0.898499,1.36944,-0.0609243,4.42881,-0.146405,0.283286
1449066972,-9.10368,-12.5172,-0.995294,2.23312,0.94844,1.36624,-0.0575814,4.15323,-0.402859,0.291253
1449077113,-9.0946,-12.5044,-0.995822,2.21238,0.986337,1.36149,-0.0548193,3.92347,-0.611027,0.297444
1449087325,-9.08512,-12.4916,-0.996325,2.19061,1.02223,1.35474,-0.0519856,3.68626,-0.821144,0.303445
1449097464,-9.0727,-12.4756,-0.996923,2.16185,1.06428,1.34338,-0.04833,3.3786,-1.08712,0.310684
1449107611,-9.0624,-12.4628,-0.997369,2.13782,1.09531,1.33199,-0.0453405,3.12606,-1.3004,0.316199
1449117756,-9.0521,-12.4505,-0.997777,2.11361,1.12318,1.31895,-0.0423797,2.87546,-1.50793,0.321315
1449127892,-9.03868,-12.4351,-0.998253,2.08179,1.15515,1.29965,-0.0385588,2.55183,-1.77032,0.327424
1449138033,-9.02766,-12.4229,-0.998603,2.05542,1.178,1.28194,-0.0354451,2.28823,-1.97967,0.332004
1449148236,-9.01594,-12.4103,-0.998936,2.02713,1.19918,1.26136,-0.0321516,2.00986,-2.19674,0.336468
1449158494,-9.00472,-12.3987,-0.99922,1.99974,1.21663,1.24,-0.0290061,1.74469,-2.39987,0.340374
1449168646,-8.99019,-12.3842,-0.99954,1.96389,1.23528,1.21004,-0.0249456,1.40376,-2.65607,0.34491
1449178771,-8.97832,-12.3728,-0.999762,1.93425,1.24738,1.18369,-0.0216337,1.1271,-2.85999,0.348193
1449188910,-8.96663,-12.3618,-0.999949,1.90469,1.25664,1.15606,-0.0183686,0.855837,-3.05658,0.351068
1449199060,-8.95444,-12.3508,-1.00011,1.87347,1.26355,1.12551,-0.014959,0.574367,-3.25713,0.353689
1449209205,-8.93939,-12.3377,-1.00026,1.83436,1.26833,1.08538,-0.0107402,0.228944,-3.49854,0.356397
1449219434,-8.92733,-12.3275,-1.00035,1.80251,1.26919,1.05123,-0.00734508,-0.0464934,-3.68734,0.358148
1449229561,-8.91501,-12.3175,-1.0004,1.76945,1.26738,1.01449,-0.00385892,-0.326736,-3.87607,0.359545
1449239708,-8.90019,-12.3059,-1.00042,1.72897,1.26158,0.967786,0.000360102,-0.662097,-4.09742,0.360693
1449249839,-8.88822,-12.2968,-1.0004,1.69563,1.254,0.927961,0.00379511,-0.931832,-4.27183,0.361184
1449259976,-8.8768,-12.2885,-1.00035,1.66324,1.2443,0.888161,0.00709776,-1.18818,-4.43451,0.361276
