timestamp,ref_timestamp,ref_lat,ref_lon,surface_bottom_timestamp,x,y,z,delta_xy[0],delta_xy[1],delta_z,vx,vy,vz,delta_vxy[0],delta_vxy[1],delta_vz,ax,ay,az,yaw,ref_alt,dist_bottom,dist_bottom_rate,eph,epv,estimator_type,xy_valid,z_valid,v_xy_valid,v_z_valid,xy_reset_counter,z_reset_counter,vxy_reset_counter,vz_reset_counter,xy_global,z_global,dist_bottom_valid
1437078360,0,0.0,0.0,0,-8.47767,-11.648,1.67683,0.0,0.0,0.0,0.0043327,-0.0011275,0.0198398,0.0,0.0,0.0,0.0,0.0,0.0,0.955592,0.0,0.0,0.0,0.0,0.0,0,1,1,1,1,0,0,0,0,0,0,0
1437083750,0,0.0,0.0,0,-8.47765,-11.648,1.67693,0.0,0.0,0.0,0.00439491,-0.00121755,0.0202235,0.0,0.0,0.0,0.0,0.0,0.0,0.955594,0.0,0.0,0.0,0.0,0.0,0,1,1,1,1,0,0,0,0,0,0,0
1437088691,0,0.0,0.0,0,-8.47762,-11.648,1.67703,0.0,0.0,0.0,0.00440912,-0.00126822,0.0206723,0.0,0.0,0.0,0.0,0.0,0.0,0.955601,0.0,0.0,0.0,0.0,0.0,0,1,1,1,1,0,0,0,0,0,0,0
1437093447,0,0.0,0.0,0,-8.4776,-11.648,1.67714,0.0,0.0,0.0,0.00445466,-0.00135252,0.021041,0.0,0.0,0.0,0.0,0.0,0.0,0.955609,0.0,0.0,0.0,0.0,0.0,0,1,1,1,1,0,0,0,0,0,0,0
1437098397,0,0.0,0.0,0,-8.478,-11.6479,1.67578,0.0,0.0,0.0,0.00280296,-0.000456227,0.0136637,0.0,0.0,0.0,0.0,0.0,0.0,0.955611,0.0,0.0,0.0,0.0,0.0,0,1,1,1,1,0,0,0,0,0,0,0
1437103354,0,0.0,0.0,0,-8.47798,-11.6479,1.67585,0.0,0.0,0.0,0.00290133,-0.000483527,0.0139023,0.0,0.0,0.0,0.0,0.0,0.0,0.955611,0.0,0.0,0.0,0.0,0.0,0,1,1,1,1,0,0,0,0,0,0,0
1437108391,0,0.0,0.0,0,-8.47797,-11.6479,1.67592,0.0,0.0,0.0,0.00294906,-0.000553916,0.0143573,0.0,0.0,0.0,0.0,0.0,0.0,0.955608,0.0,0.0,0.0,0.0,0.0,0,1,1,1,1,0,0,0,0,0,0,0
1437113383,0,0.0,0.0,0,-8.47795,-11.6479,1.67599,0.0,0.0,0.0,0.00291111,-0.000654896,0.0148994,0.0,0.0,0.0,0.0,0.0,0.0,0.955601,0.0,0.0,0.0,0.0,0.0,0,1,1,1,1,0,0,0,0,0,0,0
1437118400,0,0.0,0.0,0,-8.47794,-11.6479,1.67607,0.0,0.0,0.0,0.00295556,-0.000702638,0.0153622,0.0,0.0,0.0,0.0,0.0,0.0,0.955601,0.0,0.0,0.0,0.0,0.0,0,1,1,1,1,0,0,0,0,0,0,0
1437123601,0,0.0,0.0,0,-8.47792,-11.6479,1.67615,0.0,0.0,0.0,0.0030873,-0.000752287,0.0158725,0.0,0.0,0.0,0.0,0.0,0.0,0.955609,0.0,0.0,0.0,0.0,0.0,0,1,1,1,1,0,0,0,0,0,0,0
1437128556,0,0.0,0.0,0,-8.47791,-11.6479,1.67623,0.0,0.0,0.0,0.00317483,-0.000703778,0.0163522,0.0,0.0,0.0,0.0,0.0,0.0,0.955613,0.0,0.0,0.0,0.0,0.0,0,1,1,1,1,0,0,0,0,0,0,0
1437133418,0,0.0,0.0,0,-8.47789,-11.6479,1.67632,0.0,0.0,0.0,0.00324392,-0.000714006,0.0166555,0.0,0.0,0.0,0.0,0.0,0.0,0.955613,0.0,0.0,0.0,0.0,0.0,0,1,1,1,1,0,0,0,0,0,0,0
1437138470,0,0.0,0.0,0,-8.47787,-11.6479,1.6764,0.0,0.0,0.0,0.00337227,-0.000705682,0.0170309,0.0,0.0,0.0,0.0,0.0,0.0,0.95561,0.0,0.0,0.0,0.0,0.0,0,1,1,1,1,0,0,0,0,0,0,0
1437143623,0,0.0,0.0,0,-8.47786,-11.6479,1.67649,0.0,0.0,0.0,0.00347009,-0.000703853,0.0174788,0.0,0.0,0.0,0.0,0.0,0.0,0.955609,0.0,0.0,0.0,0.0,0.0,0,1,1,1,1,0,0,0,0,0,0,0
1437148432,0,0.0,0.0,0,-8.47784,-11.6479,1.67658,0.0,0.0,0.0,0.00356353,-0.000768137,0.0178684,0.0,0.0,0.0,0.0,0.0,0.0,0.955609,0.0,0.0,0.0,0.0,0.0,0,1,1,1,1,0,0,0,0,0,0,0
1437153404,0,0.0,0.0,0,-8.47782,-11.6479,1.67667,0.0,0.0,0.0,0.00376563,-0.000907702,0.0182853,0.0,0.0,0.0,0.0,0.0,0.0,0.955603,0.0,0.0,0.0,0.0,0.0,0,1,1,1,1,0,0,0,0,0,0,0
1437158444,0,0.0,0.0,0,-8.4778,-11.6479,1.67676,0.0,0.0,0.0,0.00387533,-0.000907274,0.018804,0.0,0.0,0.0,0.0,0.0,0.0,0.955602,0.0,0.0,0.0,0.0,0.0,0,1,1,1,1,0,0,0,0,0,0,0
1437163561,0,0.0,0.0,0,-8.47778,-11.6479,1.67686,0.0,0.0,0.0,0.00389771,-0.000780002,0.0191715,0.0,0.0,0.0,0.0,0.0,0.0,0.955603,0.0,0.0,0.0,0.0,0.0,0,1,1,1,1,0,0,0,0,0,0,0
1437168487,0,0.0,0.0,0,-8.47776,-11.6479,1.67696,0.0,0.0,0.0,0.00396229,-0.000682033,0.0195333,0.0,0.0,0.0,0.0,0.0,0.0,0.9556,0.0,0.0,0.0,0.0,0.0,0,1,1,1,1,0,0,0,0,0,0,0
1437174490,0,0.0,0.0,0,-8.47774,-11.6479,1.67706,0.0,0.0,0.0,0.00409709,-0.000639459,0.0200745,0.0,0.0,0.0,0.0,0.0,0.0,0.955597,0.0,0.0,0.0,0.0,0.0,0,1,1,1,1,0,0,0,0,0,0,0
1437178593,0,0.0,0.0,0,-8.47772,-11.6479,1.67716,0.0,0.0,0.0,0.00420378,-0.000723025,0.0206653,0.0,0.0,0.0,0.0,0.0,0.0,0.955594,0.0,0.0,0.0,0.0,0.0,0,1,1,1,1,0,0,0,0,0,0,0
1437183522,0,0.0,0.0,0,-8.4777,-11.648,1.67727,0.0,0.0,0.0,0.00424929,-0.000990846,0.0211218,0.0,0.0,0.0,0.0,0.0,0.0,0.955591,0.0,0.0,0.0,0.0,0.0,0,1,1,1,1,0,0,0,0,0,0,0
1437188620,0,0.0,0.0,0,-8.47768,-11.648,1.67737,0.0,0.0,0.0,0.00426807,-0.0012276,0.0214451,0.0,0.0,0.0,0.0,0.0,0.0,0.95559,0.0,0.0,0.0,0.0,0.0,0,1,1,1,1,0,0,0,0,0,0,0
1437197111,0,0.0,0.0,0,-8.47766,-11.648,1.67748,0.0,0.0,0.0,0.00425992,-0.00139898,0.0218916,0.0,0.0,0.0,0.0,0.0,0.0,0.955593,0.0,0.0,0.0,0.0,0.0,0,1,1,1,1,0,0,0,0,0,0,0
1437198582,0,0.0,0.0,0,-8.47763,-11.648,1.6776,0.0,0.0,0.0,0.00432389,-0.00160981,0.0224024,0.0,0.0,0.0,0.0,0.0,0.0,0.955597,0.0,0.0,0.0,0.0,0.0,0,1,1,1,1,0,0,0,0,0,0,0
1437203997,0,0.0,0.0,0,-8.47765,-11.6478,1.67627,0.0,0.0,0.0,0.00372708,-0.000735231,0.0155386,0.0,0.0,0.0,0.0,0.0,0.0,0.955595,0.0,0.0,0.0,0.0,0.0,0,1,1,1,1,0,0,0,0,0,0,0
1437208589,0,0.0,0.0,0,-8.47763,-11.6478,1.67635,0.0,0.0,0.0,0.00382971,-0.000780883,0.0158376,0.0,0.0,0.0,0.0,0.0,0.0,0.955592,0.0,0.0,0.0,0.0,0.0,0,1,1,1,1,0,0,0,0,0,0,0
1437213549,0,0.0,0.0,0,-8.47761,-11.6478,1.67643,0.0,0.0,0.0,0.00400708,-0.000776235,0.0161527,0.0,0.0,0.0,0.0,0.0,0.0,0.955592,0.0,0.0,0.0,0.0,0.0,0,1,1,1,1,0,0,0,0,0,0,0
1437218660,0,0.0,0.0,0,-8.47759,-11.6478,1.67651,0.0,0.0,0.0,0.00413619,-0.000820384,0.0164702,0.0,0.0,0.0,0.0,0.0,0.0,0.955597,0.0,0.0,0.0,0.0,0.0,0,1,1,1,1,0,0,0,0,0,0,0
1437223550,0,0.0,0.0,0,-8.47757,-11.6478,1.6766,0.0,0.0,0.0,0.00426581,-0.000900492,0.0169421,0.0,0.0,0.0,0.0,0.0,0.0,0.955599,0.0,0.0,0.0,0.0,0.0,0,1,1,1,1,0,0,0,0,0,0,0
1437228518,0,0.0,0.0,0,-8.47754,-11.6478,1.67668,0.0,0.0,0.0,0.00440286,-0.00100336,0.017505,0.0,0.0,0.0,0.0,0.0,0.0,0.955601,0.0,0.0,0.0,0.0,0.0,0,1,1,1,1,0,0,0,0,0,0,0
1437233555,0,0.0,0.0,0,-8.47752,-11.6478,1.67677,0.0,0.0,0.0,0.00452169,-0.00103697,0.0179654,0.0,0.0,0.0,0.0,0.0,0.0,0.955603,0.0,0.0,0.0,0.0,0.0,0,1,1,1,1,0,0,0,0,0,0,0
1437238621,0,0.0,0.0,0,-8.4775,-11.6478,1.67687,0.0,0.0,0.0,0.00467361,-0.00113705,0.0184683,0.0,0.0,0.0,0.0,0.0,0.0,0.9556,0.0,0.0,0.0,0.0,0.0,0,1,1,1,1,0,0,0,0,0,0,0
1437243704,0,0.0,0.0,0,-8.47747,-11.6479,1.67696,0.0,0.0,0.0,0.00479028,-0.00132243,0.018843,0.0,0.0,0.0,0.0,0.0,0.0,0.9556,0.0,0.0,0.0,0.0,0.0,0,1,1,1,1,0,0,0,0,0,0,0
1437248563,0,0.0,0.0,0,-8.47745,-11.6479,1.67706,0.0,0.0,0.0,0.00487957,-0.00147838,0.0192385,0.0,0.0,0.0,0.0,0.0,0.0,0.955601,0.0,0.0,0.0,0.0,0.0,0,1,1,1,1,0,0,0,0,0,0,0
1437253701,0,0.0,0.0,0,-8.47742,-11.6479,1.67716,0.0,0.0,0.0,0.00503351,-0.00156575,0.0196979,0.0,0.0,0.0,0.0,0.0,0.0,0.955601,0.0,0.0,0.0,0.0,0.0,0,1,1,1,1,0,0,0,0,0,0,0
1437258671,0,0.0,0.0,0,-8.4774,-11.6479,1.67726,0.0,0.0,0.0,0.00518776,-0.0017016,0.0201654,0.0,0.0,0.0,0.0,0.0,0.0,0.955597,0.0,0.0,0.0,0.0,0.0,0,1,1,1,1,0,0,0,0,0,0,0
1437263669,0,0.0,0.0,0,-8.47737,-11.6479,1.67736,0.0,0.0,0.0,0.00533706,-0.00178434,0.0206799,0.0,0.0,0.0,0.0,0.0,0.0,0.955591,0.0,0.0,0.0,0.0,0.0,0,1,1,1,1,0,0,0,0,0,0,0
1437268689,0,0.0,0.0,0,-8.47734,-11.6479,1.67747,0.0,0.0,0.0,0.00545385,-0.00176867,0.0210806,0.0,0.0,0.0,0.0,0.0,0.0,0.955583,0.0,0.0,0.0,0.0,0.0,0,1,1,1,1,0,0,0,0,0,0,0
1437274916,0,0.0,0.0,0,-8.47732,-11.6479,1.67757,0.0,0.0,0.0,0.00550978,-0.00170425,0.021543,0.0,0.0,0.0,0.0,0.0,0.0,0.955571,0.0,0.0,0.0,0.0,0.0,0,1,1,1,1,0,0,0,0,0,0,0
1437278732,0,0.0,0.0,0,-8.47729,-11.6479,1.67768,0.0,0.0,0.0,0.00561099,-0.00177232,0.0220716,0.0,0.0,0.0,0.0,0.0,0.0,0.95556,0.0,0.0,0.0,0.0,0.0,0,1,1,1,1,0,0,0,0,0,0,0
1437283850,0,0.0,0.0,0,-8.47726,-11.6479,1.6778,0.0,0.0,0.0,0.0057948,-0.00191,0.0224903,0.0,0.0,0.0,0.0,0.0,0.0,0.955551,0.0,0.0,0.0,0.0,0.0,0,1,1,1,1,0,0,0,0,0,0,0
1437288684,0,0.0,0.0,0,-8.47723,-11.6479,1.67791,0.0,0.0,0.0,0.00588819,-0.00206709,0.0229291,0.0,0.0,0.0,0.0,0.0,0.0,0.955545,0.0,0.0,0.0,0.0,0.0,0,1,1,1,1,0,0,0,0,0,0,0
1437294031,0,0.0,0.0,0,-8.4772,-11.6479,1.67803,0.0,0.0,0.0,0.00586617,-0.002204,0.0235353,0.0,0.0,0.0,0.0,0.0,0.0,0.955545,0.0,0.0,0.0,0.0,0.0,0,1,1,1,1,0,0,0,0,0,0,0
1437298694,0,0.0,0.0,0,-8.47735,-11.6478,1.67656,0.0,0.0,0.0,0.00497257,-0.00138015,0.0164052,0.0,0.0,0.0,0.0,0.0,0.0,0.955543,0.0,0.0,0.0,0.0,0.0,0,1,1,1,1,0,0,0,0,0,0,0
1437303928,0,0.0,0.0,0,-8.47732,-11.6478,1.67664,0.0,0.0,0.0,0.00512151,-0.00144103,0.0167295,0.0,0.0,0.0,0.0,0.0,0.0,0.955539,0.0,0.0,0.0,0.0,0.0,0,1,1,1,1,0,0,0,0,0,0,0
1437308762,0,0.0,0.0,0,-8.4773,-11.6478,1.67673,0.0,0.0,0.0,0.00517757,-0.00145,0.0171052,0.0,0.0,0.0,0.0,0.0,0.0,0.955527,0.0,0.0,0.0,0.0,0.0,0,1,1,1,1,0,0,0,0,0,0,0
1437313648,0,0.0,0.0,0,-8.47727,-11.6478,1.67681,0.0,0.0,0.0,0.00515558,-0.00147064,0.0175518,0.0,0.0,0.0,0.0,0.0,0.0,0.955521,0.0,0.0,0.0,0.0,0.0,0,1,1,1,1,0,0,0,0,0,0,0
1437318724,0,0.0,0.0,0,-8.47725,-11.6478,1.6769,0.0,0.0,0.0,0.00523557,-0.00146252,0.0178472,0.0,0.0,0.0,0.0,0.0,0.0,0.955523,0.0,0.0,0.0,0.0,0.0,0,1,1,1,1,0,0,0,0,0,0,0
1437323678,0,0.0,0.0,0,-8.47722,-11.6478,1.67699,0.0,0.0,0.0,0.00533448,-0.00149655,0.0181422,0.0,0.0,0.0,0.0,0.0,0.0,0.955522,0.0,0.0,0.0,0.0,0.0,0,1,1,1,1,0,0,0,0,0,0,0
1437328728,0,0.0,0.0,0,-8.47719,-11.6478,1.67709,0.0,0.0,0.0,0.00533912,-0.00156009,0.0185444,0.0,0.0,0.0,0.0,0.0,0.0,0.955519,0.0,0.0,0.0,0.0,0.0,0,1,1,1,1,0,0,0,0,0,0,0
1437334159,0,0.0,0.0,0,-8.47717,-11.6479,1.67718,0.0,0.0,0.0,0.00528822,-0.00156163,0.0188974,0.0,0.0,0.0,0.0,0.0,0.0,0.955516,0.0,0.0,0.0,0.0,0.0,0,1,1,1,1,0,0,0,0,0,0,0
1437339439,0,0.0,0.0,0,-8.47714,-11.6479,1.67728,0.0,0.0,0.0,0.00534077,-0.00155502,0.0191348,0.0,0.0,0.0,0.0,0.0,0.0,0.955513,0.0,0.0,0.0,0.0,0.0,0,1,1,1,1,0,0,0,0,0,0,0
1437343996,0,0.0,0.0,0,-8.47711,-11.6479,1.67737,0.0,0.0,0.0,0.00548102,-0.00149083,0.0194625,0.0,0.0,0.0,0.0,0.0,0.0,0.955518,0.0,0.0,0.0,0.0,0.0,0,1,1,1,1,0,0,0,0,0,0,0
1437349065,0,0.0,0.0,0,-8.47708,-11.6479,1.67747,0.0,0.0,0.0,0.0056588,-0.00155864,0.0198728,0.0,0.0,0.0,0.0,0.0,0.0,0.955526,0.0,0.0,0.0,0.0,0.0,0,1,1,1,1,0,0,0,0,0,0,0
1437354017,0,0.0,0.0,0,-8.47705,-11.6479,1.67758,0.0,0.0,0.0,0.00582983,-0.00173959,0.0202725,0.0,0.0,0.0,0.0,0.0,0.0,0.955528,0.0,0.0,0.0,0.0,0.0,0,1,1,1,1,0,0,0,0,0,0,0
1437358948,0,0.0,0.0,0,-8.47702,-11.6479,1.67768,0.0,0.0,0.0,0.00595498,-0.00187409,0.0206739,0.0,0.0,0.0,0.0,0.0,0.0,0.95553,0.0,0.0,0.0,0.0,0.0,0,1,1,1,1,0,0,0,0,0,0,0
1437364077,0,0.0,0.0,0,-8.47699,-11.6479,1.67778,0.0,0.0,0.0,0.00598385,-0.00194195,0.0210316,0.0,0.0,0.0,0.0,0.0,0.0,0.955532,0.0,0.0,0.0,0.0,0.0,0,1,1,1,1,0,0,0,0,0,0,0
1437369015,0,0.0,0.0,0,-8.47696,-11.6479,1.67789,0.0,0.0,0.0,0.00601499,-0.00200284,0.0213179,0.0,0.0,0.0,0.0,0.0,0.0,0.955531,0.0,0.0,0.0,0.0,0.0,0,1,1,1,1,0,0,0,0,0,0,0
1437374017,0,0.0,0.0,0,-8.47693,-11.6479,1.678,0.0,0.0,0.0,0.00612157,-0.00193929,0.0216751,0.0,0.0,0.0,0.0,0.0,0.0,0.955531,0.0,0.0,0.0,0.0,0.0,0,1,1,1,1,0,0,0,0,0,0,0
1437378761,0,0.0,0.0,0,-8.4769,-11.6479,1.67811,0.0,0.0,0.0,0.00619439,-0.0018836,0.0221642,0.0,0.0,0.0,0.0,0.0,0.0,0.955528,0.0,0.0,0.0,0.0,0.0,0,1,1,1,1,0,0,0,0,0,0,0
1437383808,0,0.0,0.0,0,-8.47687,-11.6479,1.67822,0.0,0.0,0.0,0.00617215,-0.00193686,0.0226544,0.0,0.0,0.0,0.0,0.0,0.0,0.955524,0.0,0.0,0.0,0.0,0.0,0,1,1,1,1,0,0,0,0,0,0,0
1437388889,0,0.0,0.0,0,-8.47684,-11.648,1.67834,0.0,0.0,0.0,0.00621751,-0.00201781,0.023142,0.0,0.0,0.0,0.0,0.0,0.0,0.955526,0.0,0.0,0.0,0.0,0.0,0,1,1,1,1,0,0,0,0,0,0,0
1437393845,0,0.0,0.0,0,-8.47754,-11.6478,1.6766,0.0,0.0,0.0,0.00412917,-0.000983591,0.0152996,0.0,0.0,0.0,0.0,0.0,0.0,0.955533,0.0,0.0,0.0,0.0,0.0,0,1,1,1,1,0,0,0,0,0,0,0
1437398904,0,0.0,0.0,0,-8.47752,-11.6478,1.67668,0.0,0.0,0.0,0.00418815,-0.00114258,0.015855,0.0,0.0,0.0,0.0,0.0,0.0,0.955532,0.0,0.0,0.0,0.0,0.0,0,1,1,1,1,0,0,0,0,0,0,0
1437403852,0,0.0,0.0,0,-8.4775,-11.6478,1.67676,0.0,0.0,0.0,0.00426134,-0.00125293,0.0164055,0.0,0.0,0.0,0.0,0.0,0.0,0.955532,0.0,0.0,0.0,0.0,0.0,0,1,1,1,1,0,0,0,0,0,0,0
1437408827,0,0.0,0.0,0,-8.47748,-11.6478,1.67684,0.0,0.0,0.0,0.0043293,-0.0012704,0.0167695,0.0,0.0,0.0,0.0,0.0,0.0,0.955531,0.0,0.0,0.0,0.0,0.0,0,1,1,1,1,0,0,0,0,0,0,0
1437413825,0,0.0,0.0,0,-8.47745,-11.6478,1.67693,0.0,0.0,0.0,0.00432085,-0.0012928,0.0171253,0.0,0.0,0.0,0.0,0.0,0.0,0.95553,0.0,0.0,0.0,0.0,0.0,0,1,1,1,1,0,0,0,0,0,0,0
1437418904,0,0.0,0.0,0,-8.47743,-11.6478,1.67702,0.0,0.0,0.0,0.00437153,-0.00131461,0.0173794,0.0,0.0,0.0,0.0,0.0,0.0,0.955529,0.0,0.0,0.0,0.0,0.0,0,1,1,1,1,0,0,0,0,0,0,0
1437424007,0,0.0,0.0,0,-8.47741,-11.6479,1.67711,0.0,0.0,0.0,0.00451651,-0.00138978,0.0177877,0.0,0.0,0.0,0.0,0.0,0.0,0.955534,0.0,0.0,0.0,0.0,0.0,0,1,1,1,1,0,0,0,0,0,0,0
1437428902,0,0.0,0.0,0,-8.47739,-11.6479,1.6772,0.0,0.0,0.0,0.00462605,-0.00158766,0.0183689,0.0,0.0,0.0,0.0,0.0,0.0,0.955541,0.0,0.0,0.0,0.0,0.0,0,1,1,1,1,0,0,0,0,0,0,0
1437433924,0,0.0,0.0,0,-8.47736,-11.6479,1.67729,0.0,0.0,0.0,0.00464747,-0.00169133,0.0188623,0.0,0.0,0.0,0.0,0.0,0.0,0.955544,0.0,0.0,0.0,0.0,0.0,0,1,1,1,1,0,0,0,0,0,0,0
1437438954,0,0.0,0.0,0,-8.47734,-11.6479,1.67739,0.0,0.0,0.0,0.00467836,-0.00170638,0.0192596,0.0,0.0,0.0,0.0,0.0,0.0,0.955543,0.0,0.0,0.0,0.0,0.0,0,1,1,1,1,0,0,0,0,0,0,0
1437444478,0,0.0,0.0,0,-8.47731,-11.6479,1.67749,0.0,0.0,0.0,0.00479404,-0.00171247,0.0196885,0.0,0.0,0.0,0.0,0.0,0.0,0.955543,0.0,0.0,0.0,0.0,0.0,0,1,1,1,1,0,0,0,0,0,0,0
1437448899,0,0.0,0.0,0,-8.47729,-11.6479,1.67759,0.0,0.0,0.0,0.00492356,-0.00163032,0.0201477,0.0,0.0,0.0,0.0,0.0,0.0,0.955547,0.0,0.0,0.0,0.0,0.0,0,1,1,1,1,0,0,0,0,0,0,0
1437453963,0,0.0,0.0,0,-8.47726,-11.6479,1.67769,0.0,0.0,0.0,0.00509945,-0.00165384,0.0205743,0.0,0.0,0.0,0.0,0.0,0.0,0.955552,0.0,0.0,0.0,0.0,0.0,0,1,1,1,1,0,0,0,0,0,0,0
1437458980,0,0.0,0.0,0,-8.47724,-11.6479,1.6778,0.0,0.0,0.0,0.00525625,-0.00173565,0.0210455,0.0,0.0,0.0,0.0,0.0,0.0,0.955549,0.0,0.0,0.0,0.0,0.0,0,1,1,1,1,0,0,0,0,0,0,0
1437463910,0,0.0,0.0,0,-8.47721,-11.6479,1.67791,0.0,0.0,0.0,0.00536363,-0.00188775,0.0216183,0.0,0.0,0.0,0.0,0.0,0.0,0.955545,0.0,0.0,0.0,0.0,0.0,0,1,1,1,1,0,0,0,0,0,0,0
1437468945,0,0.0,0.0,0,-8.47718,-11.6479,1.67802,0.0,0.0,0.0,0.00550536,-0.00202513,0.0221778,0.0,0.0,0.0,0.0,0.0,0.0,0.955545,0.0,0.0,0.0,0.0,0.0,0,1,1,1,1,0,0,0,0,0,0,0
1437474187,0,0.0,0.0,0,-8.47716,-11.6479,1.67813,0.0,0.0,0.0,0.00571603,-0.0021348,0.0226429,0.0,0.0,0.0,0.0,0.0,0.0,0.955542,0.0,0.0,0.0,0.0,0.0,0,1,1,1,1,0,0,0,0,0,0,0
1437478917,0,0.0,0.0,0,-8.47713,-11.648,1.67825,0.0,0.0,0.0,0.00588119,-0.00211158,0.0230418,0.0,0.0,0.0,0.0,0.0,0.0,0.955536,0.0,0.0,0.0,0.0,0.0,0,1,1,1,1,0,0,0,0,0,0,0
1437483938,0,0.0,0.0,0,-8.4771,-11.648,1.67836,0.0,0.0,0.0,0.00604652,-0.00209031,0.0233457,0.0,0.0,0.0,0.0,0.0,0.0,0.955533,0.0,0.0,0.0,0.0,0.0,0,1,1,1,1,0,0,0,0,0,0,0
1437489130,0,0.0,0.0,0,-8.47706,-11.648,1.67848,0.0,0.0,0.0,0.00618839,-0.00208756,0.0236232,0.0,0.0,0.0,0.0,0.0,0.0,0.955527,0.0,0.0,0.0,0.0,0.0,0,1,1,1,1,0,0,0,0,0,0,0
1437493959,0,0.0,0.0,0,-8.47777,-11.6478,1.67669,0.0,0.0,0.0,0.00405916,-0.000966225,0.0157982,0.0,0.0,0.0,0.0,0.0,0.0,0.955529,0.0,0.0,0.0,0.0,0.0,0,1,1,1,1,0,0,0,0,0,0,0
1437499060,0,0.0,0.0,0,-8.47775,-11.6478,1.67677,0.0,0.0,0.0,0.00407129,-0.00105557,0.0163239,0.0,0.0,0.0,0.0,0.0,0.0,0.955523,0.0,0.0,0.0,0.0,0.0,0,1,1,1,1,0,0,0,0,0,0,0
1437509028,0,0.0,0.0,0,-8.47771,-11.6478,1.67694,0.0,0.0,0.0,0.00454047,-0.00126088,0.0172091,0.0,0.0,0.0,0.0,0.0,0.0,0.955514,0.0,0.0,0.0,0.0,0.0,0,1,1,1,1,0,0,0,0,0,0,0
1437514017,0,0.0,0.0,0,-8.47768,-11.6478,1.67703,0.0,0.0,0.0,0.00470769,-0.00138503,0.0177479,0.0,0.0,0.0,0.0,0.0,0.0,0.955511,0.0,0.0,0.0,0.0,0.0,0,1,1,1,1,0,0,0,0,0,0,0
1437518976,0,0.0,0.0,0,-8.47766,-11.6478,1.67712,0.0,0.0,0.0,0.00493706,-0.00155783,0.0182606,0.0,0.0,0.0,0.0,0.0,0.0,0.955513,0.0,0.0,0.0,0.0,0.0,0,1,1,1,1,0,0,0,0,0,0,0
1437524211,0,0.0,0.0,0,-8.47763,-11.6478,1.67722,0.0,0.0,0.0,0.00512345,-0.0016735,0.0186363,0.0,0.0,0.0,0.0,0.0,0.0,0.955517,0.0,0.0,0.0,0.0,0.0,0,1,1,1,1,0,0,0,0,0,0,0
1437529047,0,0.0,0.0,0,-8.4776,-11.6478,1.67731,0.0,0.0,0.0,0.00522978,-0.00165437,0.0190383,0.0,0.0,0.0,0.0,0.0,0.0,0.955527,0.0,0.0,0.0,0.0,0.0,0,1,1,1,1,0,0,0,0,0,0,0
1437534125,0,0.0,0.0,0,-8.47758,-11.6478,1.67741,0.0,0.0,0.0,0.00534022,-0.00170067,0.0194882,0.0,0.0,0.0,0.0,0.0,0.0,0.955537,0.0,0.0,0.0,0.0,0.0,0,1,1,1,1,0,0,0,0,0,0,0
1437539157,0,0.0,0.0,0,-8.47755,-11.6479,1.67751,0.0,0.0,0.0,0.00544705,-0.00179714,0.0197447,0.0,0.0,0.0,0.0,0.0,0.0,0.955539,0.0,0.0,0.0,0.0,0.0,0,1,1,1,1,0,0,0,0,0,0,0
1437544035,0,0.0,0.0,0,-8.47752,-11.6479,1.67761,0.0,0.0,0.0,0.00545821,-0.00180405,0.0201747,0.0,0.0,0.0,0.0,0.0,0.0,0.955539,0.0,0.0,0.0,0.0,0.0,0,1,1,1,1,0,0,0,0,0,0,0
1437549083,0,0.0,0.0,0,-8.4775,-11.6479,1.67771,0.0,0.0,0.0,0.00538497,-0.00178091,0.0206282,0.0,0.0,0.0,0.0,0.0,0.0,0.955542,0.0,0.0,0.0,0.0,0.0,0,1,1,1,1,0,0,0,0,0,0,0
1437554150,0,0.0,0.0,0,-8.47747,-11.6479,1.67782,0.0,0.0,0.0,0.00536864,-0.00180243,0.0210953,0.0,0.0,0.0,0.0,0.0,0.0,0.955544,0.0,0.0,0.0,0.0,0.0,0,1,1,1,1,0,0,0,0,0,0,0
1437559257,0,0.0,0.0,0,-8.47744,-11.6479,1.67793,0.0,0.0,0.0,0.00536244,-0.00183451,0.0216371,0.0,0.0,0.0,0.0,0.0,0.0,0.955546,0.0,0.0,0.0,0.0,0.0,0,1,1,1,1,0,0,0,0,0,0,0
1437564048,0,0.0,0.0,0,-8.47742,-11.6479,1.67804,0.0,0.0,0.0,0.00533854,-0.00194532,0.0222596,0.0,0.0,0.0,0.0,0.0,0.0,0.955551,0.0,0.0,0.0,0.0,0.0,0,1,1,1,1,0,0,0,0,0,0,0
1437569079,0,0.0,0.0,0,-8.47739,-11.6479,1.67815,0.0,0.0,0.0,0.00536329,-0.00211235,0.0227696,0.0,0.0,0.0,0.0,0.0,0.0,0.955556,0.0,0.0,0.0,0.0,0.0,0,1,1,1,1,0,0,0,0,0,0,0
1437574415,0,0.0,0.0,0,-8.47736,-11.6479,1.67827,0.0,0.0,0.0,0.00542535,-0.00228875,0.0231595,0.0,0.0,0.0,0.0,0.0,0.0,0.955558,0.0,0.0,0.0,0.0,0.0,0,1,1,1,1,0,0,0,0,0,0,0
1437579077,0,0.0,0.0,0,-8.47733,-11.6479,1.67838,0.0,0.0,0.0,0.00546741,-0.00243158,0.0235538,0.0,0.0,0.0,0.0,0.0,0.0,0.955558,0.0,0.0,0.0,0.0,0.0,0,1,1,1,1,0,0,0,0,0,0,0
1437584079,0,0.0,0.0,0,-8.47731,-11.6479,1.6785,0.0,0.0,0.0,0.00551806,-0.00251616,0.0239905,0.0,0.0,0.0,0.0,0.0,0.0,0.955555,0.0,0.0,0.0,0.0,0.0,0,1,1,1,1,0,0,0,0,0,0,0
1437589210,0,0.0,0.0,0,-8.47728,-11.648,1.67863,0.0,0.0,0.0,0.00566638,-0.00264015,0.0243957,0.0,0.0,0.0,0.0,0.0,0.0,0.955548,0.0,0.0,0.0,0.0,0.0,0,1,1,1,1,0,0,0,0,0,0,0
1437594150,0,0.0,0.0,0,-8.47786,-11.6478,1.6768,0.0,0.0,0.0,0.00381108,-0.00177569,0.0164004,0.0,0.0,0.0,0.0,0.0,0.0,0.95555,0.0,0.0,0.0,0.0,0.0,0,1,1,1,1,0,0,0,0,0,0,0
1437599045,0,0.0,0.0,0,-8.47784,-11.6479,1.67689,0.0,0.0,0.0,0.00391751,-0.00189571,0.0168471,0.0,0.0,0.0,0.0,0.0,0.0,0.955547,0.0,0.0,0.0,0.0,0.0,0,1,1,1,1,0,0,0,0,0,0,0
1437604241,0,0.0,0.0,0,-8.47782,-11.6479,1.67697,0.0,0.0,0.0,0.00399816,-0.00214542,0.017217,0.0,0.0,0.0,0.0,0.0,0.0,0.955549,0.0,0.0,0.0,0.0,0.0,0,1,1,1,1,0,0,0,0,0,0,0
1437609204,0,0.0,0.0,0,-8.4778,-11.6479,1.67706,0.0,0.0,0.0,0.00418771,-0.00231009,0.0176208,0.0,0.0,0.0,0.0,0.0,0.0,0.955552,0.0,0.0,0.0,0.0,0.0,0,1,1,1,1,0,0,0,0,0,0,0
1437614165,0,0.0,0.0,0,-8.47778,-11.6479,1.67715,0.0,0.0,0.0,0.00430749,-0.00242904,0.0181422,0.0,0.0,0.0,0.0,0.0,0.0,0.955549,0.0,0.0,0.0,0.0,0.0,0,1,1,1,1,0,0,0,0,0,0,0
1437619232,0,0.0,0.0,0,-8.47776,-11.6479,1.67725,0.0,0.0,0.0,0.00440669,-0.00251112,0.0185731,0.0,0.0,0.0,0.0,0.0,0.0,0.955546,0.0,0.0,0.0,0.0,0.0,0,1,1,1,1,0,0,0,0,0,0,0
1437624191,0,0.0,0.0,0,-8.47774,-11.6479,1.67734,0.0,0.0,0.0,0.00450234,-0.00262904,0.0190478,0.0,0.0,0.0,0.0,0.0,0.0,0.955549,0.0,0.0,0.0,0.0,0.0,0,1,1,1,1,0,0,0,0,0,0,0
1437629236,0,0.0,0.0,0,-8.47771,-11.6479,1.67744,0.0,0.0,0.0,0.00464137,-0.00273748,0.0195879,0.0,0.0,0.0,0.0,0.0,0.0,0.955557,0.0,0.0,0.0,0.0,0.0,0,1,1,1,1,0,0,0,0,0,0,0
1437634165,0,0.0,0.0,0,-8.47769,-11.6479,1.67754,0.0,0.0,0.0,0.00485052,-0.00279875,0.020069,0.0,0.0,0.0,0.0,0.0,0.0,0.955556,0.0,0.0,0.0,0.0,0.0,0,1,1,1,1,0,0,0,0,0,0,0
1437639473,0,0.0,0.0,0,-8.47766,-11.648,1.67764,0.0,0.0,0.0,0.00496666,-0.00292779,0.0204798,0.0,0.0,0.0,0.0,0.0,0.0,0.955548,0.0,0.0,0.0,0.0,0.0,0,1,1,1,1,0,0,0,0,0,0,0
1437644157,0,0.0,0.0,0,-8.47764,-11.648,1.67775,0.0,0.0,0.0,0.00499013,-0.00300886,0.0210209,0.0,0.0,0.0,0.0,0.0,0.0,0.955544,0.0,0.0,0.0,0.0,0.0,0,1,1,1,1,0,0,0,0,0,0,0
1437649327,0,0.0,0.0,0,-8.47762,-11.648,1.67786,0.0,0.0,0.0,0.00498953,-0.00313485,0.0216307,0.0,0.0,0.0,0.0,0.0,0.0,0.955546,0.0,0.0,0.0,0.0,0.0,0,1,1,1,1,0,0,0,0,0,0,0
1437654213,0,0.0,0.0,0,-8.47759,-11.648,1.67797,0.0,0.0,0.0,0.004981,-0.00332285,0.0220162,0.0,0.0,0.0,0.0,0.0,0.0,0.955548,0.0,0.0,0.0,0.0,0.0,0,1,1,1,1,0,0,0,0,0,0,0
1437659343,0,0.0,0.0,0,-8.47756,-11.648,1.67808,0.0,0.0,0.0,0.00507921,-0.00350452,0.0222938,0.0,0.0,0.0,0.0,0.0,0.0,0.955545,0.0,0.0,0.0,0.0,0.0,0,1,1,1,1,0,0,0,0,0,0,0
1437664220,0,0.0,0.0,0,-8.47754,-11.648,1.67819,0.0,0.0,0.0,0.00523563,-0.00349763,0.022571,0.0,0.0,0.0,0.0,0.0,0.0,0.955541,0.0,0.0,0.0,0.0,0.0,0,1,1,1,1,0,0,0,0,0,0,0
1437669308,0,0.0,0.0,0,-8.47751,-11.6481,1.67831,0.0,0.0,0.0,0.00539649,-0.00351284,0.0228641,0.0,0.0,0.0,0.0,0.0,0.0,0.955543,0.0,0.0,0.0,0.0,0.0,0,1,1,1,1,0,0,0,0,0,0,0
1437679215,0,0.0,0.0,0,-8.47746,-11.6481,1.67854,0.0,0.0,0.0,0.00566552,-0.00360921,0.023651,0.0,0.0,0.0,0.0,0.0,0.0,0.955556,0.0,0.0,0.0,0.0,0.0,0,1,1,1,1,0,0,0,0,0,0,0
1437684255,0,0.0,0.0,0,-8.47743,-11.6481,1.67866,0.0,0.0,0.0,0.00581999,-0.00369769,0.024218,0.0,0.0,0.0,0.0,0.0,0.0,0.955561,0.0,0.0,0.0,0.0,0.0,0,1,1,1,1,0,0,0,0,0,0,0
1437689567,0,0.0,0.0,0,-8.4774,-11.6481,1.67878,0.0,0.0,0.0,0.00600247,-0.00377984,0.0246333,0.0,0.0,0.0,0.0,0.0,0.0,0.955558,0.0,0.0,0.0,0.0,0.0,0,1,1,1,1,0,0,0,0,0,0,0
1437694472,0,0.0,0.0,0,-8.47796,-11.648,1.67695,0.0,0.0,0.0,0.00418002,-0.00276935,0.016628,0.0,0.0,0.0,0.0,0.0,0.0,0.955563,0.0,0.0,0.0,0.0,0.0,0,1,1,1,1,0,0,0,0,0,0,0
1437699316,0,0.0,0.0,0,-8.47794,-11.648,1.67703,0.0,0.0,0.0,0.00422629,-0.00307899,0.0170555,0.0,0.0,0.0,0.0,0.0,0.0,0.95556,0.0,0.0,0.0,0.0,0.0,0,1,1,1,1,0,0,0,0,0,0,0
1437704426,0,0.0,0.0,0,-8.47792,-11.648,1.67712,0.0,0.0,0.0,0.0042979,-0.0033235,0.0174732,0.0,0.0,0.0,0.0,0.0,0.0,0.955562,0.0,0.0,0.0,0.0,0.0,0,1,1,1,1,0,0,0,0,0,0,0
1437709366,0,0.0,0.0,0,-8.4779,-11.648,1.67721,0.0,0.0,0.0,0.00438449,-0.00341347,0.0178812,0.0,0.0,0.0,0.0,0.0,0.0,0.955567,0.0,0.0,0.0,0.0,0.0,0,1,1,1,1,0,0,0,0,0,0,0
1437714304,0,0.0,0.0,0,-8.47787,-11.648,1.6773,0.0,0.0,0.0,0.00447519,-0.00340322,0.0183592,0.0,0.0,0.0,0.0,0.0,0.0,0.955567,0.0,0.0,0.0,0.0,0.0,0,1,1,1,1,0,0,0,0,0,0,0
1437719283,0,0.0,0.0,0,-8.47785,-11.6481,1.67739,0.0,0.0,0.0,0.00460845,-0.0033705,0.0187955,0.0,0.0,0.0,0.0,0.0,0.0,0.955555,0.0,0.0,0.0,0.0,0.0,0,1,1,1,1,0,0,0,0,0,0,0
1437724367,0,0.0,0.0,0,-8.47783,-11.6481,1.67749,0.0,0.0,0.0,0.00473646,-0.00340748,0.0192288,0.0,0.0,0.0,0.0,0.0,0.0,0.955544,0.0,0.0,0.0,0.0,0.0,0,1,1,1,1,0,0,0,0,0,0,0
1437729275,0,0.0,0.0,0,-8.4778,-11.6481,1.67759,0.0,0.0,0.0,0.00485544,-0.00349012,0.0197419,0.0,0.0,0.0,0.0,0.0,0.0,0.955544,0.0,0.0,0.0,0.0,0.0,0,1,1,1,1,0,0,0,0,0,0,0
1437734356,0,0.0,0.0,0,-8.47778,-11.6481,1.67769,0.0,0.0,0.0,0.00488581,-0.0034843,0.0203653,0.0,0.0,0.0,0.0,0.0,0.0,0.955547,0.0,0.0,0.0,0.0,0.0,0,1,1,1,1,0,0,0,0,0,0,0
1437739330,0,0.0,0.0,0,-8.47775,-11.6481,1.6778,0.0,0.0,0.0,0.00494706,-0.00346905,0.0208447,0.0,0.0,0.0,0.0,0.0,0.0,0.955544,0.0,0.0,0.0,0.0,0.0,0,1,1,1,1,0,0,0,0,0,0,0
1437744466,0,0.0,0.0,0,-8.47773,-11.6482,1.6779,0.0,0.0,0.0,0.00506777,-0.0036165,0.0211446,0.0,0.0,0.0,0.0,0.0,0.0,0.955546,0.0,0.0,0.0,0.0,0.0,0,1,1,1,1,0,0,0,0,0,0,0
1437749306,0,0.0,0.0,0,-8.4777,-11.6482,1.67801,0.0,0.0,0.0,0.00508267,-0.00376488,0.0216037,0.0,0.0,0.0,0.0,0.0,0.0,0.955548,0.0,0.0,0.0,0.0,0.0,0,1,1,1,1,0,0,0,0,0,0,0
1437754449,0,0.0,0.0,0,-8.47768,-11.6482,1.67812,0.0,0.0,0.0,0.00509378,-0.00388333,0.0221696,0.0,0.0,0.0,0.0,0.0,0.0,0.955542,0.0,0.0,0.0,0.0,0.0,0,1,1,1,1,0,0,0,0,0,0,0
1437759283,0,0.0,0.0,0,-8.47765,-11.6482,1.67823,0.0,0.0,0.0,0.00524206,-0.00404146,0.0225951,0.0,0.0,0.0,0.0,0.0,0.0,0.955542,0.0,0.0,0.0,0.0,0.0,0,1,1,1,1,0,0,0,0,0,0,0
1437764472,0,0.0,0.0,0,-8.47762,-11.6482,1.67835,0.0,0.0,0.0,0.0054448,-0.00407047,0.0230962,0.0,0.0,0.0,0.0,0.0,0.0,0.955547,0.0,0.0,0.0,0.0,0.0,0,1,1,1,1,0,0,0,0,0,0,0
1437769413,0,0.0,0.0,0,-8.4776,-11.6482,1.67847,0.0,0.0,0.0,0.00552547,-0.00411072,0.0236503,0.0,0.0,0.0,0.0,0.0,0.0,0.955554,0.0,0.0,0.0,0.0,0.0,0,1,1,1,1,0,0,0,0,0,0,0
1437774835,0,0.0,0.0,0,-8.47757,-11.6483,1.67859,0.0,0.0,0.0,0.00557766,-0.00426626,0.0240328,0.0,0.0,0.0,0.0,0.0,0.0,0.955562,0.0,0.0,0.0,0.0,0.0,0,1,1,1,1,0,0,0,0,0,0,0
1437779472,0,0.0,0.0,0,-8.47754,-11.6483,1.67871,0.0,0.0,0.0,0.00572962,-0.00448319,0.0243401,0.0,0.0,0.0,0.0,0.0,0.0,0.955564,0.0,0.0,0.0,0.0,0.0,0,1,1,1,1,0,0,0,0,0,0,0
1437784478,0,0.0,0.0,0,-8.47751,-11.6483,1.67883,0.0,0.0,0.0,0.00592015,-0.00474855,0.0247724,0.0,0.0,0.0,0.0,0.0,0.0,0.955563,0.0,0.0,0.0,0.0,0.0,0,1,1,1,1,0,0,0,0,0,0,0
1437789399,0,0.0,0.0,0,-8.47748,-11.6483,1.67896,0.0,0.0,0.0,0.00611898,-0.00490661,0.0252353,0.0,0.0,0.0,0.0,0.0,0.0,0.955559,0.0,0.0,0.0,0.0,0.0,0,1,1,1,1,0,0,0,0,0,0,0
1437794466,0,0.0,0.0,0,-8.47745,-11.6484,1.67909,0.0,0.0,0.0,0.00625806,-0.00506107,0.0257166,0.0,0.0,0.0,0.0,0.0,0.0,0.955561,0.0,0.0,0.0,0.0,0.0,0,1,1,1,1,0,0,0,0,0,0,0
1437799436,0,0.0,0.0,0,-8.47798,-11.6482,1.67718,0.0,0.0,0.0,0.00439423,-0.0038683,0.0178125,0.0,0.0,0.0,0.0,0.0,0.0,0.955577,0.0,0.0,0.0,0.0,0.0,0,1,1,1,1,0,0,0,0,0,0,0
1437804493,0,0.0,0.0,0,-8.47796,-11.6482,1.67727,0.0,0.0,0.0,0.00437582,-0.00385376,0.0183905,0.0,0.0,0.0,0.0,0.0,0.0,0.955579,0.0,0.0,0.0,0.0,0.0,0,1,1,1,1,0,0,0,0,0,0,0
1437810166,0,0.0,0.0,0,-8.47794,-11.6482,1.67737,0.0,0.0,0.0,0.00441425,-0.00392337,0.0186858,0.0,0.0,0.0,0.0,0.0,0.0,0.955581,0.0,0.0,0.0,0.0,0.0,0,1,1,1,1,0,0,0,0,0,0,0
1437814437,0,0.0,0.0,0,-8.47792,-11.6482,1.67746,0.0,0.0,0.0,0.0044871,-0.00396151,0.0190508,0.0,0.0,0.0,0.0,0.0,0.0,0.955583,0.0,0.0,0.0,0.0,0.0,0,1,1,1,1,0,0,0,0,0,0,0
1437819444,0,0.0,0.0,0,-8.47789,-11.6482,1.67756,0.0,0.0,0.0,0.00455018,-0.00400522,0.019507,0.0,0.0,0.0,0.0,0.0,0.0,0.955583,0.0,0.0,0.0,0.0,0.0,0,1,1,1,1,0,0,0,0,0,0,0
1437824435,0,0.0,0.0,0,-8.47787,-11.6483,1.67766,0.0,0.0,0.0,0.00458802,-0.00401822,0.0198731,0.0,0.0,0.0,0.0,0.0,0.0,0.95558,0.0,0.0,0.0,0.0,0.0,0,1,1,1,1,0,0,0,0,0,0,0
1437829452,0,0.0,0.0,0,-8.47785,-11.6483,1.67776,0.0,0.0,0.0,0.00468677,-0.00403839,0.0203077,0.0,0.0,0.0,0.0,0.0,0.0,0.955577,0.0,0.0,0.0,0.0,0.0,0,1,1,1,1,0,0,0,0,0,0,0
1437834397,0,0.0,0.0,0,-8.47782,-11.6483,1.67787,0.0,0.0,0.0,0.0047372,-0.00399596,0.0207361,0.0,0.0,0.0,0.0,0.0,0.0,0.955574,0.0,0.0,0.0,0.0,0.0,0,1,1,1,1,0,0,0,0,0,0,0
1437839505,0,0.0,0.0,0,-8.4778,-11.6483,1.67797,0.0,0.0,0.0,0.00477815,-0.00402651,0.0211023,0.0,0.0,0.0,0.0,0.0,0.0,0.955573,0.0,0.0,0.0,0.0,0.0,0,1,1,1,1,0,0,0,0,0,0,0
1437844411,0,0.0,0.0,0,-8.47777,-11.6483,1.67808,0.0,0.0,0.0,0.0048391,-0.0041772,0.021524,0.0,0.0,0.0,0.0,0.0,0.0,0.955578,0.0,0.0,0.0,0.0,0.0,0,1,1,1,1,0,0,0,0,0,0,0
1437849799,0,0.0,0.0,0,-8.47775,-11.6484,1.67819,0.0,0.0,0.0,0.00496015,-0.00427685,0.0219465,0.0,0.0,0.0,0.0,0.0,0.0,0.955577,0.0,0.0,0.0,0.0,0.0,0,1,1,1,1,0,0,0,0,0,0,0
1437854489,0,0.0,0.0,0,-8.47773,-11.6484,1.6783,0.0,0.0,0.0,0.00503484,-0.0042902,0.0223587,0.0,0.0,0.0,0.0,0.0,0.0,0.955577,0.0,0.0,0.0,0.0,0.0,0,1,1,1,1,0,0,0,0,0,0,0
1437859435,0,0.0,0.0,0,-8.4777,-11.6484,1.67841,0.0,0.0,0.0,0.00505531,-0.00448492,0.0227549,0.0,0.0,0.0,0.0,0.0,0.0,0.955581,0.0,0.0,0.0,0.0,0.0,0,1,1,1,1,0,0,0,0,0,0,0
1437864480,0,0.0,0.0,0,-8.47767,-11.6484,1.67853,0.0,0.0,0.0,0.00517721,-0.00466173,0.0231977,0.0,0.0,0.0,0.0,0.0,0.0,0.955584,0.0,0.0,0.0,0.0,0.0,0,1,1,1,1,0,0,0,0,0,0,0
1437869554,0,0.0,0.0,0,-8.47765,-11.6485,1.67865,0.0,0.0,0.0,0.00528,-0.00464465,0.0236517,0.0,0.0,0.0,0.0,0.0,0.0,0.955583,0.0,0.0,0.0,0.0,0.0,0,1,1,1,1,0,0,0,0,0,0,0
1437875093,0,0.0,0.0,0,-8.47762,-11.6485,1.67877,0.0,0.0,0.0,0.00539387,-0.00463804,0.0239471,0.0,0.0,0.0,0.0,0.0,0.0,0.955582,0.0,0.0,0.0,0.0,0.0,0,1,1,1,1,0,0,0,0,0,0,0
1437879577,0,0.0,0.0,0,-8.47759,-11.6485,1.67889,0.0,0.0,0.0,0.0055478,-0.00473596,0.0242891,0.0,0.0,0.0,0.0,0.0,0.0,0.955581,0.0,0.0,0.0,0.0,0.0,0,1,1,1,1,0,0,0,0,0,0,0
1437884765,0,0.0,0.0,0,-8.47756,-11.6485,1.67901,0.0,0.0,0.0,0.00561784,-0.0048178,0.0246901,0.0,0.0,0.0,0.0,0.0,0.0,0.955581,0.0,0.0,0.0,0.0,0.0,0,1,1,1,1,0,0,0,0,0,0,0
1437889601,0,0.0,0.0,0,-8.47754,-11.6486,1.67914,0.0,0.0,0.0,0.00561349,-0.00499547,0.025028,0.0,0.0,0.0,0.0,0.0,0.0,0.95558,0.0,0.0,0.0,0.0,0.0,0,1,1,1,1,0,0,0,0,0,0,0
1437894758,0,0.0,0.0,0,-8.47751,-11.6486,1.67927,0.0,0.0,0.0,0.00565473,-0.00513121,0.0254269,0.0,0.0,0.0,0.0,0.0,0.0,0.955582,0.0,0.0,0.0,0.0,0.0,0,1,1,1,1,0,0,0,0,0,0,0
1437899568,0,0.0,0.0,0,-8.47808,-11.6488,1.67747,0.0,0.0,0.0,0.0040165,-0.00459187,0.0175022,0.0,0.0,0.0,0.0,0.0,0.0,0.955568,0.0,0.0,0.0,0.0,0.0,0,1,1,1,1,0,0,0,0,0,0,0
1437904825,0,0.0,0.0,0,-8.47806,-11.6488,1.67756,0.0,0.0,0.0,0.00413313,-0.00453341,0.0179555,0.0,0.0,0.0,0.0,0.0,0.0,0.955575,0.0,0.0,0.0,0.0,0.0,0,1,1,1,1,0,0,0,0,0,0,0
1437909535,0,0.0,0.0,0,-8.47803,-11.6488,1.67765,0.0,0.0,0.0,0.00429019,-0.00455833,0.0183129,0.0,0.0,0.0,0.0,0.0,0.0,0.955575,0.0,0.0,0.0,0.0,0.0,0,1,1,1,1,0,0,0,0,0,0,0
1437914583,0,0.0,0.0,0,-8.47801,-11.6488,1.67774,0.0,0.0,0.0,0.00442532,-0.00461801,0.0186005,0.0,0.0,0.0,0.0,0.0,0.0,0.955577,0.0,0.0,0.0,0.0,0.0,0,1,1,1,1,0,0,0,0,0,0,0
1437919595,0,0.0,0.0,0,-8.47799,-11.6488,1.67784,0.0,0.0,0.0,0.00455342,-0.00472192,0.0191418,0.0,0.0,0.0,0.0,0.0,0.0,0.955579,0.0,0.0,0.0,0.0,0.0,0,1,1,1,1,0,0,0,0,0,0,0
1437924617,0,0.0,0.0,0,-8.47797,-11.6489,1.67794,0.0,0.0,0.0,0.00470138,-0.00487032,0.0196194,0.0,0.0,0.0,0.0,0.0,0.0,0.955584,0.0,0.0,0.0,0.0,0.0,0,1,1,1,1,0,0,0,0,0,0,0
1437930089,0,0.0,0.0,0,-8.47794,-11.6489,1.67804,0.0,0.0,0.0,0.0048074,-0.00495117,0.0200429,0.0,0.0,0.0,0.0,0.0,0.0,0.955589,0.0,0.0,0.0,0.0,0.0,0,1,1,1,1,0,0,0,0,0,0,0
1437934640,0,0.0,0.0,0,-8.47792,-11.6489,1.67814,0.0,0.0,0.0,0.0048409,-0.00504692,0.0206045,0.0,0.0,0.0,0.0,0.0,0.0,0.955586,0.0,0.0,0.0,0.0,0.0,0,1,1,1,1,0,0,0,0,0,0,0
1437939628,0,0.0,0.0,0,-8.47789,-11.6489,1.67824,0.0,0.0,0.0,0.00490847,-0.00510466,0.0211008,0.0,0.0,0.0,0.0,0.0,0.0,0.95558,0.0,0.0,0.0,0.0,0.0,0,1,1,1,1,0,0,0,0,0,0,0
1437944551,0,0.0,0.0,0,-8.47787,-11.649,1.67835,0.0,0.0,0.0,0.00502873,-0.00526771,0.0213463,0.0,0.0,0.0,0.0,0.0,0.0,0.955577,0.0,0.0,0.0,0.0,0.0,0,1,1,1,1,0,0,0,0,0,0,0
1437949612,0,0.0,0.0,0,-8.47784,-11.649,1.67846,0.0,0.0,0.0,0.00515884,-0.00541609,0.0217179,0.0,0.0,0.0,0.0,0.0,0.0,0.955579,0.0,0.0,0.0,0.0,0.0,0,1,1,1,1,0,0,0,0,0,0,0
1437954699,0,0.0,0.0,0,-8.47782,-11.649,1.67857,0.0,0.0,0.0,0.00534482,-0.00555287,0.0222134,0.0,0.0,0.0,0.0,0.0,0.0,0.955582,0.0,0.0,0.0,0.0,0.0,0,1,1,1,1,0,0,0,0,0,0,0
1437959683,0,0.0,0.0,0,-8.47779,-11.6491,1.67868,0.0,0.0,0.0,0.00544795,-0.00579329,0.0226937,0.0,0.0,0.0,0.0,0.0,0.0,0.955579,0.0,0.0,0.0,0.0,0.0,0,1,1,1,1,0,0,0,0,0,0,0
1437964698,0,0.0,0.0,0,-8.47776,-11.6491,1.6788,0.0,0.0,0.0,0.00550512,-0.00592786,0.0232147,0.0,0.0,0.0,0.0,0.0,0.0,0.955575,0.0,0.0,0.0,0.0,0.0,0,1,1,1,1,0,0,0,0,0,0,0
1437969691,0,0.0,0.0,0,-8.47773,-11.6491,1.67892,0.0,0.0,0.0,0.00555663,-0.00599839,0.0238185,0.0,0.0,0.0,0.0,0.0,0.0,0.955575,0.0,0.0,0.0,0.0,0.0,0,1,1,1,1,0,0,0,0,0,0,0
1437975007,0,0.0,0.0,0,-8.47771,-11.6491,1.67904,0.0,0.0,0.0,0.00573445,-0.00619561,0.0242042,0.0,0.0,0.0,0.0,0.0,0.0,0.955571,0.0,0.0,0.0,0.0,0.0,0,1,1,1,1,0,0,0,0,0,0,0
1437979704,0,0.0,0.0,0,-8.47768,-11.6492,1.67916,0.0,0.0,0.0,0.00587747,-0.00638401,0.0245439,0.0,0.0,0.0,0.0,0.0,0.0,0.955568,0.0,0.0,0.0,0.0,0.0,0,1,1,1,1,0,0,0,0,0,0,0
1437984761,0,0.0,0.0,0,-8.47764,-11.6492,1.67929,0.0,0.0,0.0,0.00598713,-0.00651551,0.0248765,0.0,0.0,0.0,0.0,0.0,0.0,0.955563,0.0,0.0,0.0,0.0,0.0,0,1,1,1,1,0,0,0,0,0,0,0
1437989724,0,0.0,0.0,0,-8.47762,-11.6492,1.67942,0.0,0.0,0.0,0.00605639,-0.00668299,0.0251876,0.0,0.0,0.0,0.0,0.0,0.0,0.955551,0.0,0.0,0.0,0.0,0.0,0,1,1,1,1,0,0,0,0,0,0,0
1437994793,0,0.0,0.0,0,-8.47817,-11.6488,1.67741,0.0,0.0,0.0,0.00413671,-0.0053866,0.0169353,0.0,0.0,0.0,0.0,0.0,0.0,0.955557,0.0,0.0,0.0,0.0,0.0,0,1,1,1,1,0,0,0,0,0,0,0
1437999700,0,0.0,0.0,0,-8.47815,-11.6489,1.6775,0.0,0.0,0.0,0.00430533,-0.00546994,0.0173868,0.0,0.0,0.0,0.0,0.0,0.0,0.955557,0.0,0.0,0.0,0.0,0.0,0,1,1,1,1,0,0,0,0,0,0,0
1438004730,0,0.0,0.0,0,-8.47813,-11.6489,1.67759,0.0,0.0,0.0,0.00445558,-0.00554749,0.0177481,0.0,0.0,0.0,0.0,0.0,0.0,0.955554,0.0,0.0,0.0,0.0,0.0,0,1,1,1,1,0,0,0,0,0,0,0
1438009732,0,0.0,0.0,0,-8.4781,-11.6489,1.67768,0.0,0.0,0.0,0.00455541,-0.00570106,0.0181756,0.0,0.0,0.0,0.0,0.0,0.0,0.955548,0.0,0.0,0.0,0.0,0.0,0,1,1,1,1,0,0,0,0,0,0,0
1438014689,0,0.0,0.0,0,-8.47808,-11.649,1.67777,0.0,0.0,0.0,0.00470122,-0.00571879,0.0184734,0.0,0.0,0.0,0.0,0.0,0.0,0.955547,0.0,0.0,0.0,0.0,0.0,0,1,1,1,1,0,0,0,0,0,0,0
1438019660,0,0.0,0.0,0,-8.47806,-11.649,1.67786,0.0,0.0,0.0,0.00495477,-0.00569429,0.0187896,0.0,0.0,0.0,0.0,0.0,0.0,0.955549,0.0,0.0,0.0,0.0,0.0,0,1,1,1,1,0,0,0,0,0,0,0
1438024795,0,0.0,0.0,0,-8.47803,-11.649,1.67796,0.0,0.0,0.0,0.00507208,-0.00578705,0.0191919,0.0,0.0,0.0,0.0,0.0,0.0,0.955551,0.0,0.0,0.0,0.0,0.0,0,1,1,1,1,0,0,0,0,0,0,0
1438029692,0,0.0,0.0,0,-8.47801,-11.649,1.67806,0.0,0.0,0.0,0.00514372,-0.00588228,0.0195767,0.0,0.0,0.0,0.0,0.0,0.0,0.955554,0.0,0.0,0.0,0.0,0.0,0,1,1,1,1,0,0,0,0,0,0,0
1438034730,0,0.0,0.0,0,-8.47798,-11.6491,1.67816,0.0,0.0,0.0,0.00528842,-0.00597917,0.0199978,0.0,0.0,0.0,0.0,0.0,0.0,0.955556,0.0,0.0,0.0,0.0,0.0,0,1,1,1,1,0,0,0,0,0,0,0
1438039748,0,0.0,0.0,0,-8.47795,-11.6491,1.67826,0.0,0.0,0.0,0.00550809,-0.00610334,0.0204672,0.0,0.0,0.0,0.0,0.0,0.0,0.955558,0.0,0.0,0.0,0.0,0.0,0,1,1,1,1,0,0,0,0,0,0,0
1438044760,0,0.0,0.0,0,-8.47792,-11.6491,1.67836,0.0,0.0,0.0,0.0056692,-0.00620829,0.0208361,0.0,0.0,0.0,0.0,0.0,0.0,0.955555,0.0,0.0,0.0,0.0,0.0,0,1,1,1,1,0,0,0,0,0,0,0
1438049701,0,0.0,0.0,0,-8.47789,-11.6492,1.67847,0.0,0.0,0.0,0.00576422,-0.00628579,0.0212593,0.0,0.0,0.0,0.0,0.0,0.0,0.95555,0.0,0.0,0.0,0.0,0.0,0,1,1,1,1,0,0,0,0,0,0,0
1438054884,0,0.0,0.0,0,-8.47787,-11.6492,1.67858,0.0,0.0,0.0,0.00583487,-0.00634578,0.0217231,0.0,0.0,0.0,0.0,0.0,0.0,0.955547,0.0,0.0,0.0,0.0,0.0,0,1,1,1,1,0,0,0,0,0,0,0
1438059799,0,0.0,0.0,0,-8.47784,-11.6492,1.67869,0.0,0.0,0.0,0.00590377,-0.00646887,0.0221359,0.0,0.0,0.0,0.0,0.0,0.0,0.955549,0.0,0.0,0.0,0.0,0.0,0,1,1,1,1,0,0,0,0,0,0,0
1438064917,0,0.0,0.0,0,-8.47781,-11.6493,1.6788,0.0,0.0,0.0,0.0059396,-0.00660332,0.0225226,0.0,0.0,0.0,0.0,0.0,0.0,0.955554,0.0,0.0,0.0,0.0,0.0,0,1,1,1,1,0,0,0,0,0,0,0
1438070038,0,0.0,0.0,0,-8.47778,-11.6493,1.67892,0.0,0.0,0.0,0.00597967,-0.00662659,0.0230229,0.0,0.0,0.0,0.0,0.0,0.0,0.955558,0.0,0.0,0.0,0.0,0.0,0,1,1,1,1,0,0,0,0,0,0,0
1438077784,0,0.0,0.0,0,-8.47775,-11.6493,1.67904,0.0,0.0,0.0,0.0061168,-0.00656655,0.023526,0.0,0.0,0.0,0.0,0.0,0.0,0.955563,0.0,0.0,0.0,0.0,0.0,0,1,1,1,1,0,0,0,0,0,0,0
1438080032,0,0.0,0.0,0,-8.47771,-11.6494,1.67916,0.0,0.0,0.0,0.00630406,-0.00667427,0.0239571,0.0,0.0,0.0,0.0,0.0,0.0,0.955571,0.0,0.0,0.0,0.0,0.0,0,1,1,1,1,0,0,0,0,0,0,0
1438084828,0,0.0,0.0,0,-8.47768,-11.6494,1.67928,0.0,0.0,0.0,0.00648687,-0.00683542,0.0244799,0.0,0.0,0.0,0.0,0.0,0.0,0.955575,0.0,0.0,0.0,0.0,0.0,0,1,1,1,1,0,0,0,0,0,0,0
1438089932,0,0.0,0.0,0,-8.47765,-11.6494,1.6794,0.0,0.0,0.0,0.00653746,-0.00694661,0.0250635,0.0,0.0,0.0,0.0,0.0,0.0,0.955569,0.0,0.0,0.0,0.0,0.0,0,1,1,1,1,0,0,0,0,0,0,0
1438094845,0,0.0,0.0,0,-8.47811,-11.649,1.67742,0.0,0.0,0.0,0.00468316,-0.00551557,0.0168683,0.0,0.0,0.0,0.0,0.0,0.0,0.955572,0.0,0.0,0.0,0.0,0.0,0,1,1,1,1,0,0,0,0,0,0,0
1438099853,0,0.0,0.0,0,-8.47809,-11.649,1.6775,0.0,0.0,0.0,0.00465828,-0.00567563,0.017222,0.0,0.0,0.0,0.0,0.0,0.0,0.955577,0.0,0.0,0.0,0.0,0.0,0,1,1,1,1,0,0,0,0,0,0,0
1438104955,0,0.0,0.0,0,-8.47806,-11.6491,1.67759,0.0,0.0,0.0,0.00472468,-0.00578572,0.0176737,0.0,0.0,0.0,0.0,0.0,0.0,0.955576,0.0,0.0,0.0,0.0,0.0,0,1,1,1,1,0,0,0,0,0,0,0
1438109921,0,0.0,0.0,0,-8.47804,-11.6491,1.67768,0.0,0.0,0.0,0.0047997,-0.00584817,0.0181248,0.0,0.0,0.0,0.0,0.0,0.0,0.955573,0.0,0.0,0.0,0.0,0.0,0,1,1,1,1,0,0,0,0,0,0,0
1438114786,0,0.0,0.0,0,-8.47802,-11.6491,1.67777,0.0,0.0,0.0,0.00489878,-0.005793,0.0184631,0.0,0.0,0.0,0.0,0.0,0.0,0.955572,0.0,0.0,0.0,0.0,0.0,0,1,1,1,1,0,0,0,0,0,0,0
1438119869,0,0.0,0.0,0,-8.47799,-11.6492,1.67787,0.0,0.0,0.0,0.00494473,-0.00564694,0.0188068,0.0,0.0,0.0,0.0,0.0,0.0,0.955574,0.0,0.0,0.0,0.0,0.0,0,1,1,1,1,0,0,0,0,0,0,0
1438129993,0,0.0,0.0,0,-8.47794,-11.6492,1.67806,0.0,0.0,0.0,0.00500032,-0.00551549,0.019711,0.0,0.0,0.0,0.0,0.0,0.0,0.955579,0.0,0.0,0.0,0.0,0.0,0,1,1,1,1,0,0,0,0,0,0,0
1438134917,0,0.0,0.0,0,-8.47792,-11.6492,1.67817,0.0,0.0,0.0,0.00501305,-0.00554879,0.0201807,0.0,0.0,0.0,0.0,0.0,0.0,0.955581,0.0,0.0,0.0,0.0,0.0,0,1,1,1,1,0,0,0,0,0,0,0
1438140182,0,0.0,0.0,0,-8.47789,-11.6493,1.67827,0.0,0.0,0.0,0.00495516,-0.00563305,0.0207526,0.0,0.0,0.0,0.0,0.0,0.0,0.95558,0.0,0.0,0.0,0.0,0.0,0,1,1,1,1,0,0,0,0,0,0,0
1438145246,0,0.0,0.0,0,-8.47787,-11.6493,1.67838,0.0,0.0,0.0,0.00489032,-0.00570541,0.0211743,0.0,0.0,0.0,0.0,0.0,0.0,0.955582,0.0,0.0,0.0,0.0,0.0,0,1,1,1,1,0,0,0,0,0,0,0
1438150118,0,0.0,0.0,0,-8.47784,-11.6493,1.67848,0.0,0.0,0.0,0.00489453,-0.00579326,0.021522,0.0,0.0,0.0,0.0,0.0,0.0,0.955585,0.0,0.0,0.0,0.0,0.0,0,1,1,1,1,0,0,0,0,0,0,0
1438155091,0,0.0,0.0,0,-8.47782,-11.6494,1.67859,0.0,0.0,0.0,0.00500576,-0.00584799,0.0219082,0.0,0.0,0.0,0.0,0.0,0.0,0.955587,0.0,0.0,0.0,0.0,0.0,0,1,1,1,1,0,0,0,0,0,0,0
1438159984,0,0.0,0.0,0,-8.47779,-11.6494,1.6787,0.0,0.0,0.0,0.00504734,-0.00581135,0.0222373,0.0,0.0,0.0,0.0,0.0,0.0,0.955589,0.0,0.0,0.0,0.0,0.0,0,1,1,1,1,0,0,0,0,0,0,0
1438165475,0,0.0,0.0,0,-8.47777,-11.6494,1.67882,0.0,0.0,0.0,0.00508992,-0.00584689,0.0226421,0.0,0.0,0.0,0.0,0.0,0.0,0.955588,0.0,0.0,0.0,0.0,0.0,0,1,1,1,1,0,0,0,0,0,0,0
1438170099,0,0.0,0.0,0,-8.47774,-11.6494,1.67893,0.0,0.0,0.0,0.0050511,-0.00587042,0.0232246,0.0,0.0,0.0,0.0,0.0,0.0,0.955585,0.0,0.0,0.0,0.0,0.0,0,1,1,1,1,0,0,0,0,0,0,0
1438175230,0,0.0,0.0,0,-8.47772,-11.6495,1.67905,0.0,0.0,0.0,0.00504309,-0.00596358,0.0238421,0.0,0.0,0.0,0.0,0.0,0.0,0.955579,0.0,0.0,0.0,0.0,0.0,0,1,1,1,1,0,0,0,0,0,0,0
1438179943,0,0.0,0.0,0,-8.47769,-11.6495,1.67917,0.0,0.0,0.0,0.00508406,-0.0061056,0.0242124,0.0,0.0,0.0,0.0,0.0,0.0,0.955571,0.0,0.0,0.0,0.0,0.0,0,1,1,1,1,0,0,0,0,0,0,0
1438185092,0,0.0,0.0,0,-8.47766,-11.6495,1.6793,0.0,0.0,0.0,0.00514217,-0.00615788,0.0245336,0.0,0.0,0.0,0.0,0.0,0.0,0.955562,0.0,0.0,0.0,0.0,0.0,0,1,1,1,1,0,0,0,0,0,0,0
1438190101,0,0.0,0.0,0,-8.47817,-11.649,1.6774,0.0,0.0,0.0,0.00325091,-0.00441578,0.016498,0.0,0.0,0.0,0.0,0.0,0.0,0.955568,0.0,0.0,0.0,0.0,0.0,0,1,1,1,1,0,0,0,0,0,0,0
1438194942,0,0.0,0.0,0,-8.47815,-11.6491,1.67748,0.0,0.0,0.0,0.00342236,-0.00446593,0.0169366,0.0,0.0,0.0,0.0,0.0,0.0,0.955564,0.0,0.0,0.0,0.0,0.0,0,1,1,1,1,0,0,0,0,0,0,0
1438200725,0,0.0,0.0,0,-8.47813,-11.6491,1.67757,0.0,0.0,0.0,0.00348178,-0.0045952,0.0172822,0.0,0.0,0.0,0.0,0.0,0.0,0.955569,0.0,0.0,0.0,0.0,0.0,0,1,1,1,1,0,0,0,0,0,0,0
1438204974,0,0.0,0.0,0,-8.47812,-11.6491,1.67766,0.0,0.0,0.0,0.0035093,-0.00468715,0.0176329,0.0,0.0,0.0,0.0,0.0,0.0,0.955579,0.0,0.0,0.0,0.0,0.0,0,1,1,1,1,0,0,0,0,0,0,0
1438210152,0,0.0,0.0,0,-8.4781,-11.6491,1.67775,0.0,0.0,0.0,0.00356901,-0.00472978,0.0179223,0.0,0.0,0.0,0.0,0.0,0.0,0.955584,0.0,0.0,0.0,0.0,0.0,0,1,1,1,1,0,0,0,0,0,0,0
1438214997,0,0.0,0.0,0,-8.47808,-11.6491,1.67784,0.0,0.0,0.0,0.00362996,-0.00472404,0.0182431,0.0,0.0,0.0,0.0,0.0,0.0,0.955579,0.0,0.0,0.0,0.0,0.0,0,1,1,1,1,0,0,0,0,0,0,0
1438220037,0,0.0,0.0,0,-8.47806,-11.6492,1.67793,0.0,0.0,0.0,0.0036996,-0.00468369,0.0186539,0.0,0.0,0.0,0.0,0.0,0.0,0.955579,0.0,0.0,0.0,0.0,0.0,0,1,1,1,1,0,0,0,0,0,0,0
1438225055,0,0.0,0.0,0,-8.47804,-11.6492,1.67803,0.0,0.0,0.0,0.0036931,-0.00471181,0.0190648,0.0,0.0,0.0,0.0,0.0,0.0,0.955589,0.0,0.0,0.0,0.0,0.0,0,1,1,1,1,0,0,0,0,0,0,0
1438230040,0,0.0,0.0,0,-8.47802,-11.6492,1.67813,0.0,0.0,0.0,0.00361919,-0.00487994,0.0193653,0.0,0.0,0.0,0.0,0.0,0.0,0.955591,0.0,0.0,0.0,0.0,0.0,0,1,1,1,1,0,0,0,0,0,0,0
1438235107,0,0.0,0.0,0,-8.47801,-11.6492,1.67822,0.0,0.0,0.0,0.00355314,-0.00506536,0.0198041,0.0,0.0,0.0,0.0,0.0,0.0,0.95558,0.0,0.0,0.0,0.0,0.0,0,1,1,1,1,0,0,0,0,0,0,0
1438240304,0,0.0,0.0,0,-8.47799,-11.6493,1.67833,0.0,0.0,0.0,0.00354261,-0.00509278,0.0203261,0.0,0.0,0.0,0.0,0.0,0.0,0.955566,0.0,0.0,0.0,0.0,0.0,0,1,1,1,1,0,0,0,0,0,0,0
1438245201,0,0.0,0.0,0,-8.47797,-11.6493,1.67843,0.0,0.0,0.0,0.00358194,-0.0050357,0.0207185,0.0,0.0,0.0,0.0,0.0,0.0,0.955563,0.0,0.0,0.0,0.0,0.0,0,1,1,1,1,0,0,0,0,0,0,0
1438250204,0,0.0,0.0,0,-8.47795,-11.6493,1.67854,0.0,0.0,0.0,0.00367197,-0.00506368,0.021058,0.0,0.0,0.0,0.0,0.0,0.0,0.955562,0.0,0.0,0.0,0.0,0.0,0,1,1,1,1,0,0,0,0,0,0,0
1438255080,0,0.0,0.0,0,-8.47793,-11.6493,1.67864,0.0,0.0,0.0,0.00376846,-0.00508168,0.0216267,0.0,0.0,0.0,0.0,0.0,0.0,0.955559,0.0,0.0,0.0,0.0,0.0,0,1,1,1,1,0,0,0,0,0,0,0
1438260098,0,0.0,0.0,0,-8.47791,-11.6494,1.67876,0.0,0.0,0.0,0.00379755,-0.00505547,0.022273,0.0,0.0,0.0,0.0,0.0,0.0,0.955561,0.0,0.0,0.0,0.0,0.0,0,1,1,1,1,0,0,0,0,0,0,0
1438265080,0,0.0,0.0,0,-8.47789,-11.6494,1.67887,0.0,0.0,0.0,0.00385198,-0.00521506,0.0227733,0.0,0.0,0.0,0.0,0.0,0.0,0.955561,0.0,0.0,0.0,0.0,0.0,0,1,1,1,1,0,0,0,0,0,0,0
1438270162,0,0.0,0.0,0,-8.47788,-11.6494,1.67898,0.0,0.0,0.0,0.00391593,-0.00532567,0.0231345,0.0,0.0,0.0,0.0,0.0,0.0,0.955558,0.0,0.0,0.0,0.0,0.0,0,1,1,1,1,0,0,0,0,0,0,0
1438275862,0,0.0,0.0,0,-8.47786,-11.6494,1.6791,0.0,0.0,0.0,0.0039774,-0.0053367,0.0235306,0.0,0.0,0.0,0.0,0.0,0.0,0.95556,0.0,0.0,0.0,0.0,0.0,0,1,1,1,1,0,0,0,0,0,0,0
1438280216,0,0.0,0.0,0,-8.47784,-11.6495,1.67922,0.0,0.0,0.0,0.00396574,-0.00541478,0.0238869,0.0,0.0,0.0,0.0,0.0,0.0,0.955564,0.0,0.0,0.0,0.0,0.0,0,1,1,1,1,0,0,0,0,0,0,0
1438285214,0,0.0,0.0,0,-8.47782,-11.6495,1.67934,0.0,0.0,0.0,0.0039152,-0.00546197,0.0241973,0.0,0.0,0.0,0.0,0.0,0.0,0.955569,0.0,0.0,0.0,0.0,0.0,0,1,1,1,1,0,0,0,0,0,0,0
1438290121,0,0.0,0.0,0,-8.4778,-11.6495,1.67947,0.0,0.0,0.0,0.00384188,-0.00545166,0.0246427,0.0,0.0,0.0,0.0,0.0,0.0,0.955572,0.0,0.0,0.0,0.0,0.0,0,1,1,1,1,0,0,0,0,0,0,0
1438295211,0,0.0,0.0,0,-8.47778,-11.6496,1.67959,0.0,0.0,0.0,0.00384801,-0.00546018,0.0252233,0.0,0.0,0.0,0.0,0.0,0.0,0.955574,0.0,0.0,0.0,0.0,0.0,0,1,1,1,1,0,0,0,0,0,0,0
1438300678,0,0.0,0.0,0,-8.47776,-11.6496,1.67972,0.0,0.0,0.0,0.00391483,-0.00556238,0.0256713,0.0,0.0,0.0,0.0,0.0,0.0,0.955573,0.0,0.0,0.0,0.0,0.0,0,1,1,1,1,0,0,0,0,0,0,0
1438305437,0,0.0,0.0,0,-8.47774,-11.6496,1.67985,0.0,0.0,0.0,0.00395659,-0.00571479,0.0261285,0.0,0.0,0.0,0.0,0.0,0.0,0.955564,0.0,0.0,0.0,0.0,0.0,0,1,1,1,1,0,0,0,0,0,0,0
1438310600,0,0.0,0.0,0,-8.47823,-11.6491,1.67777,0.0,0.0,0.0,0.00215992,-0.00417796,0.0179501,0.0,0.0,0.0,0.0,0.0,0.0,0.955558,0.0,0.0,0.0,0.0,0.0,0,1,1,1,1,0,0,0,0,0,0,0
1438315227,0,0.0,0.0,0,-8.47822,-11.6491,1.67786,0.0,0.0,0.0,0.00226637,-0.00429635,0.0181786,0.0,0.0,0.0,0.0,0.0,0.0,0.955552,0.0,0.0,0.0,0.0,0.0,0,1,1,1,1,0,0,0,0,0,0,0
1438320356,0,0.0,0.0,0,-8.47821,-11.6491,1.67795,0.0,0.0,0.0,0.00234993,-0.00446534,0.0184838,0.0,0.0,0.0,0.0,0.0,0.0,0.955557,0.0,0.0,0.0,0.0,0.0,0,1,1,1,1,0,0,0,0,0,0,0
1438325316,0,0.0,0.0,0,-8.4782,-11.6492,1.67804,0.0,0.0,0.0,0.00234581,-0.00455987,0.0189504,0.0,0.0,0.0,0.0,0.0,0.0,0.955567,0.0,0.0,0.0,0.0,0.0,0,1,1,1,1,0,0,0,0,0,0,0
1438330297,0,0.0,0.0,0,-8.47819,-11.6492,1.67814,0.0,0.0,0.0,0.00236664,-0.00462371,0.019384,0.0,0.0,0.0,0.0,0.0,0.0,0.955574,0.0,0.0,0.0,0.0,0.0,0,1,1,1,1,0,0,0,0,0,0,0
1438335268,0,0.0,0.0,0,-8.47817,-11.6492,1.67824,0.0,0.0,0.0,0.00250558,-0.00473197,0.0197812,0.0,0.0,0.0,0.0,0.0,0.0,0.955574,0.0,0.0,0.0,0.0,0.0,0,1,1,1,1,0,0,0,0,0,0,0
1438340289,0,0.0,0.0,0,-8.47816,-11.6492,1.67834,0.0,0.0,0.0,0.00263459,-0.00479361,0.0202138,0.0,0.0,0.0,0.0,0.0,0.0,0.95557,0.0,0.0,0.0,0.0,0.0,0,1,1,1,1,0,0,0,0,0,0,0
1438345256,0,0.0,0.0,0,-8.47815,-11.6493,1.67844,0.0,0.0,0.0,0.00275786,-0.00485783,0.0205477,0.0,0.0,0.0,0.0,0.0,0.0,0.955567,0.0,0.0,0.0,0.0,0.0,0,1,1,1,1,0,0,0,0,0,0,0
1438350900,0,0.0,0.0,0,-8.47813,-11.6493,1.67855,0.0,0.0,0.0,0.00285447,-0.00487637,0.0207363,0.0,0.0,0.0,0.0,0.0,0.0,0.955566,0.0,0.0,0.0,0.0,0.0,0,1,1,1,1,0,0,0,0,0,0,0
1438356167,0,0.0,0.0,0,-8.47812,-11.6493,1.67865,0.0,0.0,0.0,0.00297371,-0.00483113,0.0209787,0.0,0.0,0.0,0.0,0.0,0.0,0.955571,0.0,0.0,0.0,0.0,0.0,0,1,1,1,1,0,0,0,0,0,0,0
1438360685,0,0.0,0.0,0,-8.4781,-11.6493,1.67876,0.0,0.0,0.0,0.00311947,-0.00477345,0.0213107,0.0,0.0,0.0,0.0,0.0,0.0,0.955568,0.0,0.0,0.0,0.0,0.0,0,1,1,1,1,0,0,0,0,0,0,0
1438365684,0,0.0,0.0,0,-8.47809,-11.6493,1.67887,0.0,0.0,0.0,0.00317171,-0.00480879,0.021537,0.0,0.0,0.0,0.0,0.0,0.0,0.955562,0.0,0.0,0.0,0.0,0.0,0,1,1,1,1,0,0,0,0,0,0,0
1438370689,0,0.0,0.0,0,-8.47807,-11.6494,1.67898,0.0,0.0,0.0,0.00330649,-0.00494109,0.0217683,0.0,0.0,0.0,0.0,0.0,0.0,0.955564,0.0,0.0,0.0,0.0,0.0,0,1,1,1,1,0,0,0,0,0,0,0
1438379249,0,0.0,0.0,0,-8.47805,-11.6494,1.67909,0.0,0.0,0.0,0.00340342,-0.00514209,0.0221326,0.0,0.0,0.0,0.0,0.0,0.0,0.955567,0.0,0.0,0.0,0.0,0.0,0,1,1,1,1,0,0,0,0,0,0,0
1438382185,0,0.0,0.0,0,-8.47804,-11.6494,1.6792,0.0,0.0,0.0,0.003381,-0.00540001,0.022558,0.0,0.0,0.0,0.0,0.0,0.0,0.955561,0.0,0.0,0.0,0.0,0.0,0,1,1,1,1,0,0,0,0,0,0,0
1438385738,0,0.0,0.0,0,-8.47802,-11.6495,1.67932,0.0,0.0,0.0,0.0034196,-0.00553711,0.0228727,0.0,0.0,0.0,0.0,0.0,0.0,0.955556,0.0,0.0,0.0,0.0,0.0,0,1,1,1,1,0,0,0,0,0,0,0
1438391072,0,0.0,0.0,0,-8.478,-11.6495,1.67943,0.0,0.0,0.0,0.00352306,-0.00557726,0.0232351,0.0,0.0,0.0,0.0,0.0,0.0,0.955558,0.0,0.0,0.0,0.0,0.0,0,1,1,1,1,0,0,0,0,0,0,0
1438395865,0,0.0,0.0,0,-8.47858,-11.6489,1.67739,0.0,0.0,0.0,0.00189637,-0.0040354,0.0150075,0.0,0.0,0.0,0.0,0.0,0.0,0.955497,0.0,0.0,0.0,0.0,0.0,0,1,1,1,1,0,0,0,0,0,0,0
1438400794,0,0.0,0.0,0,-8.47857,-11.649,1.67747,0.0,0.0,0.0,0.0020268,-0.00407501,0.0153641,0.0,0.0,0.0,0.0,0.0,0.0,0.955496,0.0,0.0,0.0,0.0,0.0,0,1,1,1,1,0,0,0,0,0,0,0
1438405693,0,0.0,0.0,0,-8.47856,-11.649,1.67755,0.0,0.0,0.0,0.00209168,-0.00418821,0.0158548,0.0,0.0,0.0,0.0,0.0,0.0,0.955488,0.0,0.0,0.0,0.0,0.0,0,1,1,1,1,0,0,0,0,0,0,0
1438410764,0,0.0,0.0,0,-8.47855,-11.649,1.67763,0.0,0.0,0.0,0.00200731,-0.00429426,0.0163601,0.0,0.0,0.0,0.0,0.0,0.0,0.955479,0.0,0.0,0.0,0.0,0.0,0,1,1,1,1,0,0,0,0,0,0,0
1438415757,0,0.0,0.0,0,-8.47854,-11.649,1.67771,0.0,0.0,0.0,0.00196155,-0.00448183,0.016821,0.0,0.0,0.0,0.0,0.0,0.0,0.955473,0.0,0.0,0.0,0.0,0.0,0,1,1,1,1,0,0,0,0,0,0,0
1438421388,0,0.0,0.0,0,-8.47853,-11.649,1.6778,0.0,0.0,0.0,0.00202075,-0.00457965,0.017126,0.0,0.0,0.0,0.0,0.0,0.0,0.955469,0.0,0.0,0.0,0.0,0.0,0,1,1,1,1,0,0,0,0,0,0,0
1438425745,0,0.0,0.0,0,-8.47852,-11.6491,1.67789,0.0,0.0,0.0,0.00208957,-0.00454838,0.0173739,0.0,0.0,0.0,0.0,0.0,0.0,0.955469,0.0,0.0,0.0,0.0,0.0,0,1,1,1,1,0,0,0,0,0,0,0
1438430516,0,0.0,0.0,0,-8.47851,-11.6491,1.67797,0.0,0.0,0.0,0.00214712,-0.00457694,0.0176704,0.0,0.0,0.0,0.0,0.0,0.0,0.955471,0.0,0.0,0.0,0.0,0.0,0,1,1,1,1,0,0,0,0,0,0,0
1438435299,0,0.0,0.0,0,-8.4785,-11.6491,1.67806,0.0,0.0,0.0,0.00220264,-0.00468678,0.0180033,0.0,0.0,0.0,0.0,0.0,0.0,0.955473,0.0,0.0,0.0,0.0,0.0,0,1,1,1,1,0,0,0,0,0,0,0
1438440287,0,0.0,0.0,0,-8.47849,-11.6491,1.67816,0.0,0.0,0.0,0.00222755,-0.00477056,0.0183176,0.0,0.0,0.0,0.0,0.0,0.0,0.95547,0.0,0.0,0.0,0.0,0.0,0,1,1,1,1,0,0,0,0,0,0,0
1438445278,0,0.0,0.0,0,-8.47848,-11.6492,1.67825,0.0,0.0,0.0,0.00218375,-0.00491272,0.0186434,0.0,0.0,0.0,0.0,0.0,0.0,0.955464,0.0,0.0,0.0,0.0,0.0,0,1,1,1,1,0,0,0,0,0,0,0
1438450396,0,0.0,0.0,0,-8.47847,-11.6492,1.67834,0.0,0.0,0.0,0.00217011,-0.00503196,0.0189558,0.0,0.0,0.0,0.0,0.0,0.0,0.955461,0.0,0.0,0.0,0.0,0.0,0,1,1,1,1,0,0,0,0,0,0,0
1438455373,0,0.0,0.0,0,-8.47846,-11.6492,1.67844,0.0,0.0,0.0,0.00220628,-0.0050992,0.0192459,0.0,0.0,0.0,0.0,0.0,0.0,0.955466,0.0,0.0,0.0,0.0,0.0,0,1,1,1,1,0,0,0,0,0,0,0
1438460329,0,0.0,0.0,0,-8.47845,-11.6492,1.67854,0.0,0.0,0.0,0.0022639,-0.00518447,0.0196733,0.0,0.0,0.0,0.0,0.0,0.0,0.955471,0.0,0.0,0.0,0.0,0.0,0,1,1,1,1,0,0,0,0,0,0,0
1438465298,0,0.0,0.0,0,-8.47843,-11.6493,1.67864,0.0,0.0,0.0,0.0022904,-0.00528329,0.0200468,0.0,0.0,0.0,0.0,0.0,0.0,0.955467,0.0,0.0,0.0,0.0,0.0,0,1,1,1,1,0,0,0,0,0,0,0
1438470391,0,0.0,0.0,0,-8.47842,-11.6493,1.67874,0.0,0.0,0.0,0.00233183,-0.00541289,0.0203568,0.0,0.0,0.0,0.0,0.0,0.0,0.955461,0.0,0.0,0.0,0.0,0.0,0,1,1,1,1,0,0,0,0,0,0,0
1438476600,0,0.0,0.0,0,-8.47841,-11.6493,1.67885,0.0,0.0,0.0,0.00245299,-0.0055034,0.0207696,0.0,0.0,0.0,0.0,0.0,0.0,0.955458,0.0,0.0,0.0,0.0,0.0,0,1,1,1,1,0,0,0,0,0,0,0
1438480365,0,0.0,0.0,0,-8.4784,-11.6493,1.67895,0.0,0.0,0.0,0.00261082,-0.00558157,0.0211451,0.0,0.0,0.0,0.0,0.0,0.0,0.955461,0.0,0.0,0.0,0.0,0.0,0,1,1,1,1,0,0,0,0,0,0,0
1438485426,0,0.0,0.0,0,-8.47838,-11.6494,1.67906,0.0,0.0,0.0,0.00280065,-0.00571723,0.0214919,0.0,0.0,0.0,0.0,0.0,0.0,0.955463,0.0,0.0,0.0,0.0,0.0,0,1,1,1,1,0,0,0,0,0,0,0
1438490395,0,0.0,0.0,0,-8.47884,-11.6489,1.67705,0.0,0.0,0.0,0.00104271,-0.00425576,0.0132745,0.0,0.0,0.0,0.0,0.0,0.0,0.95548,0.0,0.0,0.0,0.0,0.0,0,1,1,1,1,0,0,0,0,0,0,0
1438495419,0,0.0,0.0,0,-8.47883,-11.6489,1.67712,0.0,0.0,0.0,0.00104796,-0.00420634,0.0139718,0.0,0.0,0.0,0.0,0.0,0.0,0.955488,0.0,0.0,0.0,0.0,0.0,0,1,1,1,1,0,0,0,0,0,0,0
1438500351,0,0.0,0.0,0,-8.47883,-11.6489,1.67719,0.0,0.0,0.0,0.000859189,-0.0038379,0.0145327,0.0,0.0,0.0,0.0,0.0,0.0,0.955521,0.0,0.0,0.0,0.0,0.0,0,1,1,1,1,0,0,0,0,0,0,0
1438505541,0,0.0,0.0,0,-8.47882,-11.649,1.67726,0.0,0.0,0.0,0.0015967,-0.00469282,0.0138009,0.0,0.0,0.0,0.0,0.0,0.0,0.955528,0.0,0.0,0.0,0.0,0.0,0,1,1,1,1,0,0,0,0,0,0,0
1438510425,0,0.0,0.0,0,-8.4788,-11.649,1.67733,0.0,0.0,0.0,0.00312529,-0.00631693,0.0150052,0.0,0.0,0.0,0.0,0.0,0.0,0.955429,0.0,0.0,0.0,0.0,0.0,0,1,1,1,1,0,0,0,0,0,0,0
1438515422,0,0.0,0.0,0,-8.4788,-11.649,1.67741,0.0,0.0,0.0,0.000545805,-0.00446604,0.0162971,0.0,0.0,0.0,0.0,0.0,0.0,0.955416,0.0,0.0,0.0,0.0,0.0,0,1,1,1,1,0,0,0,0,0,0,0
1438520428,0,0.0,0.0,0,-8.4788,-11.649,1.6775,0.0,0.0,0.0,-0.00026843,-0.0036456,0.0160594,0.0,0.0,0.0,0.0,0.0,0.0,0.955522,0.0,0.0,0.0,0.0,0.0,0,1,1,1,1,0,0,0,0,0,0,0
1438525425,0,0.0,0.0,0,-8.47879,-11.6491,1.67757,0.0,0.0,0.0,0.00149079,-0.0056596,0.0154376,0.0,0.0,0.0,0.0,0.0,0.0,0.955544,0.0,0.0,0.0,0.0,0.0,0,1,1,1,1,0,0,0,0,0,0,0
1438530415,0,0.0,0.0,0,-8.47879,-11.6491,1.67765,0.0,0.0,0.0,0.00124778,-0.00612969,0.0149362,0.0,0.0,0.0,0.0,0.0,0.0,0.955529,0.0,0.0,0.0,0.0,0.0,0,1,1,1,1,0,0,0,0,0,0,0
1438535572,0,0.0,0.0,0,-8.47878,-11.6491,1.67773,0.0,0.0,0.0,0.00208007,-0.00655734,0.0162888,0.0,0.0,0.0,0.0,0.0,0.0,0.955505,0.0,0.0,0.0,0.0,0.0,0,1,1,1,1,0,0,0,0,0,0,0
1438540493,0,0.0,0.0,0,-8.47877,-11.6491,1.67782,0.0,0.0,0.0,0.00171877,-0.00605052,0.0178128,0.0,0.0,0.0,0.0,0.0,0.0,0.955452,0.0,0.0,0.0,0.0,0.0,0,1,1,1,1,0,0,0,0,0,0,0
1438545444,0,0.0,0.0,0,-8.47876,-11.6492,1.67792,0.0,0.0,0.0,0.0010298,-0.00502928,0.019983,0.0,0.0,0.0,0.0,0.0,0.0,0.955459,0.0,0.0,0.0,0.0,0.0,0,1,1,1,1,0,0,0,0,0,0,0
1438550550,0,0.0,0.0,0,-8.47876,-11.6492,1.67802,0.0,0.0,0.0,0.0002155,-0.00428906,0.019924,0.0,0.0,0.0,0.0,0.0,0.0,0.955531,0.0,0.0,0.0,0.0,0.0,0,1,1,1,1,0,0,0,0,0,0,0
1438555487,0,0.0,0.0,0,-8.47875,-11.6492,1.67811,0.0,0.0,0.0,0.00269196,-0.00688933,0.0192869,0.0,0.0,0.0,0.0,0.0,0.0,0.955478,0.0,0.0,0.0,0.0,0.0,0,1,1,1,1,0,0,0,0,0,0,0
1438560516,0,0.0,0.0,0,-8.47874,-11.6493,1.67821,0.0,0.0,0.0,0.00240601,-0.00717777,0.019379,0.0,0.0,0.0,0.0,0.0,0.0,0.955375,0.0,0.0,0.0,0.0,0.0,0,1,1,1,1,0,0,0,0,0,0,0
1438565524,0,0.0,0.0,0,-8.47874,-11.6493,1.67831,0.0,0.0,0.0,-0.000900268,-0.00470678,0.0189149,0.0,0.0,0.0,0.0,0.0,0.0,0.955458,0.0,0.0,0.0,0.0,0.0,0,1,1,1,1,0,0,0,0,0,0,0
1438570604,0,0.0,0.0,0,-8.47873,-11.6493,1.6784,0.0,0.0,0.0,0.00271802,-0.00738693,0.0196744,0.0,0.0,0.0,0.0,0.0,0.0,0.955459,0.0,0.0,0.0,0.0,0.0,0,1,1,1,1,0,0,0,0,0,0,0
1438576571,0,0.0,0.0,0,-8.47872,-11.6494,1.6785,0.0,0.0,0.0,0.00125279,-0.00607619,0.0199048,0.0,0.0,0.0,0.0,0.0,0.0,0.95543,0.0,0.0,0.0,0.0,0.0,0,1,1,1,1,0,0,0,0,0,0,0
1438580602,0,0.0,0.0,0,-8.47872,-11.6494,1.67861,0.0,0.0,0.0,0.000358123,-0.00484878,0.0208139,0.0,0.0,0.0,0.0,0.0,0.0,0.955518,0.0,0.0,0.0,0.0,0.0,0,1,1,1,1,0,0,0,0,0,0,0
1438585613,0,0.0,0.0,0,-8.47871,-11.6494,1.67871,0.0,0.0,0.0,0.00127923,-0.00513193,0.0210926,0.0,0.0,0.0,0.0,0.0,0.0,0.955573,0.0,0.0,0.0,0.0,0.0,0,1,1,1,1,0,0,0,0,0,0,0
1438591629,0,0.0,0.0,0,-8.47869,-11.6494,1.67882,0.0,0.0,0.0,0.00516316,-0.00759301,0.0203948,0.0,0.0,0.0,0.0,0.0,0.0,0.95543,0.0,0.0,0.0,0.0,0.0,0,1,1,1,1,0,0,0,0,0,0,0
1438595650,0,0.0,0.0,0,-8.47866,-11.6495,1.67892,0.0,0.0,0.0,0.0045706,-0.00667388,0.0214514,0.0,0.0,0.0,0.0,0.0,0.0,0.95526,0.0,0.0,0.0,0.0,0.0,0,1,1,1,1,0,0,0,0,0,0,0
1438601590,0,0.0,0.0,0,-8.47909,-11.649,1.67696,0.0,0.0,0.0,-0.00307762,-0.000565714,0.0133921,0.0,0.0,0.0,0.0,0.0,0.0,0.955455,0.0,0.0,0.0,0.0,0.0,0,1,1,1,1,0,0,0,0,0,0,0
1438606148,0,0.0,0.0,0,-8.47909,-11.649,1.67704,0.0,0.0,0.0,0.000387136,-0.00416982,0.0164124,0.0,0.0,0.0,0.0,0.0,0.0,0.955641,0.0,0.0,0.0,0.0,0.0,0,1,1,1,1,0,0,0,0,0,0,0
1438611017,0,0.0,0.0,0,-8.47907,-11.649,1.67712,0.0,0.0,0.0,0.00289185,-0.00662097,0.0153968,0.0,0.0,0.0,0.0,0.0,0.0,0.955547,0.0,0.0,0.0,0.0,0.0,0,1,1,1,1,0,0,0,0,0,0,0
1438616903,0,0.0,0.0,0,-8.47907,-11.649,1.67719,0.0,0.0,0.0,0.000901144,-0.00505584,0.0158631,0.0,0.0,0.0,0.0,0.0,0.0,0.955448,0.0,0.0,0.0,0.0,0.0,0,1,1,1,1,0,0,0,0,0,0,0
1438621954,0,0.0,0.0,0,-8.47907,-11.6491,1.67728,0.0,0.0,0.0,-0.00123327,-0.00371365,0.0177725,0.0,0.0,0.0,0.0,0.0,0.0,0.955505,0.0,0.0,0.0,0.0,0.0,0,1,1,1,1,0,0,0,0,0,0,0
1438626053,0,0.0,0.0,0,-8.47908,-11.6491,1.67738,0.0,0.0,0.0,-0.000480202,-0.00459296,0.0201236,0.0,0.0,0.0,0.0,0.0,0.0,0.95562,0.0,0.0,0.0,0.0,0.0,0,1,1,1,1,0,0,0,0,0,0,0
1438631082,0,0.0,0.0,0,-8.47906,-11.6491,1.67748,0.0,0.0,0.0,0.00234261,-0.00579166,0.0186719,0.0,0.0,0.0,0.0,0.0,0.0,0.95565,0.0,0.0,0.0,0.0,0.0,0,1,1,1,1,0,0,0,0,0,0,0
1438636874,0,0.0,0.0,0,-8.47905,-11.6491,1.67757,0.0,0.0,0.0,0.00312741,-0.00586236,0.0176228,0.0,0.0,0.0,0.0,0.0,0.0,0.955558,0.0,0.0,0.0,0.0,0.0,0,1,1,1,1,0,0,0,0,0,0,0
1438641140,0,0.0,0.0,0,-8.47905,-11.6492,1.67766,0.0,0.0,0.0,-0.000278284,-0.00521007,0.0181167,0.0,0.0,0.0,0.0,0.0,0.0,0.95555,0.0,0.0,0.0,0.0,0.0,0,1,1,1,1,0,0,0,0,0,0,0
1438646193,0,0.0,0.0,0,-8.47906,-11.6492,1.67775,0.0,0.0,0.0,-0.0025529,-0.00434943,0.0178777,0.0,0.0,0.0,0.0,0.0,0.0,0.955702,0.0,0.0,0.0,0.0,0.0,0,1,1,1,1,0,0,0,0,0,0,0
1438656403,0,0.0,0.0,0,-8.47903,-11.6492,1.67794,0.0,0.0,0.0,0.00332604,-0.00554404,0.0196588,0.0,0.0,0.0,0.0,0.0,0.0,0.955515,0.0,0.0,0.0,0.0,0.0,0,1,1,1,1,0,0,0,0,0,0,0
1438660647,0,0.0,0.0,0,-8.47903,-11.6493,1.67805,0.0,0.0,0.0,-0.000897029,-0.00388628,0.0202757,0.0,0.0,0.0,0.0,0.0,0.0,0.955643,0.0,0.0,0.0,0.0,0.0,0,1,1,1,1,0,0,0,0,0,0,0
1438665695,0,0.0,0.0,0,-8.47902,-11.6493,1.67815,0.0,0.0,0.0,0.00159889,-0.00693143,0.0205905,0.0,0.0,0.0,0.0,0.0,0.0,0.955754,0.0,0.0,0.0,0.0,0.0,0,1,1,1,1,0,0,0,0,0,0,0
1438677758,0,0.0,0.0,0,-8.47894,-11.6494,1.67835,0.0,0.0,0.0,0.00695788,-0.00732667,0.0188063,0.0,0.0,0.0,0.0,0.0,0.0,0.954995,0.0,0.0,0.0,0.0,0.0,0,1,1,1,1,0,0,0,0,0,0,0
1438680813,0,0.0,0.0,0,-8.47896,-11.6494,1.67845,0.0,0.0,0.0,-0.00437194,-1.1844e-05,0.0196059,0.0,0.0,0.0,0.0,0.0,0.0,0.955165,0.0,0.0,0.0,0.0,0.0,0,1,1,1,1,0,0,0,0,0,0,0
1438686126,0,0.0,0.0,0,-8.47897,-11.6494,1.67856,0.0,0.0,0.0,-0.000312279,-0.00112419,0.0219988,0.0,0.0,0.0,0.0,0.0,0.0,0.955402,0.0,0.0,0.0,0.0,0.0,0,1,1,1,1,0,0,0,0,0,0,0
1438691595,0,0.0,0.0,0,-8.47918,-11.649,1.67672,0.0,0.0,0.0,0.00249959,-0.00295124,0.0118376,0.0,0.0,0.0,0.0,0.0,0.0,0.95529,0.0,0.0,0.0,0.0,0.0,0,1,1,1,1,0,0,0,0,0,0,0
1438696097,0,0.0,0.0,0,-8.47919,-11.649,1.67678,0.0,0.0,0.0,-0.0022986,0.000471583,0.0125605,0.0,0.0,0.0,0.0,0.0,0.0,0.955419,0.0,0.0,0.0,0.0,0.0,0,1,1,1,1,0,0,0,0,0,0,0
1438701217,0,0.0,0.0,0,-8.47918,-11.649,1.67686,0.0,0.0,0.0,0.00224347,-0.00565974,0.014385,0.0,0.0,0.0,0.0,0.0,0.0,0.955424,0.0,0.0,0.0,0.0,0.0,0,1,1,1,1,0,0,0,0,0,0,0
1438706359,0,0.0,0.0,0,-8.47919,-11.649,1.67695,0.0,0.0,0.0,-0.00146661,-0.00459484,0.0190832,0.0,0.0,0.0,0.0,0.0,0.0,0.955369,0.0,0.0,0.0,0.0,0.0,0,1,1,1,1,0,0,0,0,0,0,0
1438711262,0,0.0,0.0,0,-8.47919,-11.6491,1.67704,0.0,0.0,0.0,-0.000362125,-0.00805297,0.018464,0.0,0.0,0.0,0.0,0.0,0.0,0.955419,0.0,0.0,0.0,0.0,0.0,0,1,1,1,1,0,0,0,0,0,0,0
1438716185,0,0.0,0.0,0,-8.47918,-11.6491,1.67712,0.0,0.0,0.0,0.00129008,-0.00944142,0.0154512,0.0,0.0,0.0,0.0,0.0,0.0,0.955429,0.0,0.0,0.0,0.0,0.0,0,1,1,1,1,0,0,0,0,0,0,0
1438721711,0,0.0,0.0,0,-8.47918,-11.6492,1.67722,0.0,0.0,0.0,0.00145767,-0.0096655,0.0189879,0.0,0.0,0.0,0.0,0.0,0.0,0.95541,0.0,0.0,0.0,0.0,0.0,0,1,1,1,1,0,0,0,0,0,0,0
1438726253,0,0.0,0.0,0,-8.47917,-11.6492,1.67731,0.0,0.0,0.0,0.000767617,-0.0101037,0.0180839,0.0,0.0,0.0,0.0,0.0,0.0,0.955392,0.0,0.0,0.0,0.0,0.0,0,1,1,1,1,0,0,0,0,0,0,0
1438731408,0,0.0,0.0,0,-8.47917,-11.6493,1.67743,0.0,0.0,0.0,0.000916542,-0.0078144,0.0241067,0.0,0.0,0.0,0.0,0.0,0.0,0.95542,0.0,0.0,0.0,0.0,0.0,0,1,1,1,1,0,0,0,0,0,0,0
1438736257,0,0.0,0.0,0,-8.47918,-11.6493,1.67753,0.0,0.0,0.0,-0.00148199,-0.00744222,0.0197363,0.0,0.0,0.0,0.0,0.0,0.0,0.955528,0.0,0.0,0.0,0.0,0.0,0,1,1,1,1,0,0,0,0,0,0,0
1438741373,0,0.0,0.0,0,-8.4792,-11.6493,1.67763,0.0,0.0,0.0,-0.00427415,0.0011308,0.020524,0.0,0.0,0.0,0.0,0.0,0.0,0.955917,0.0,0.0,0.0,0.0,0.0,0,1,1,1,1,0,0,0,0,0,0,0
1438746175,0,0.0,0.0,0,-8.4792,-11.6493,1.67772,0.0,0.0,0.0,-0.000307751,-0.004921,0.0175472,0.0,0.0,0.0,0.0,0.0,0.0,0.956123,0.0,0.0,0.0,0.0,0.0,0,1,1,1,1,0,0,0,0,0,0,0
1438751185,0,0.0,0.0,0,-8.47917,-11.6494,1.6778,0.0,0.0,0.0,0.00659689,-0.00730769,0.0173841,0.0,0.0,0.0,0.0,0.0,0.0,0.955932,0.0,0.0,0.0,0.0,0.0,0,1,1,1,1,0,0,0,0,0,0,0
1438757946,0,0.0,0.0,0,-8.47915,-11.6494,1.67789,0.0,0.0,0.0,0.0034883,-0.00930221,0.0165847,0.0,0.0,0.0,0.0,0.0,0.0,0.95565,0.0,0.0,0.0,0.0,0.0,0,1,1,1,1,0,0,0,0,0,0,0
1438761746,0,0.0,0.0,0,-8.47913,-11.6494,1.678,0.0,0.0,0.0,0.0039153,-0.00744295,0.0222145,0.0,0.0,0.0,0.0,0.0,0.0,0.95553,0.0,0.0,0.0,0.0,0.0,0,1,1,1,1,0,0,0,0,0,0,0
1438766611,0,0.0,0.0,0,-8.47915,-11.6495,1.67815,0.0,0.0,0.0,-0.00329542,-0.00406579,0.0298475,0.0,0.0,0.0,0.0,0.0,0.0,0.95561,0.0,0.0,0.0,0.0,0.0,0,1,1,1,1,0,0,0,0,0,0,0
1438771540,0,0.0,0.0,0,-8.47915,-11.6495,1.67832,0.0,0.0,0.0,-8.68779e-05,-0.00552344,0.0347922,0.0,0.0,0.0,0.0,0.0,0.0,0.955752,0.0,0.0,0.0,0.0,0.0,0,1,1,1,1,0,0,0,0,0,0,0
1438782354,0,0.0,0.0,0,-8.47914,-11.6496,1.67871,0.0,0.0,0.0,-0.00115648,-0.00639744,0.0397204,0.0,0.0,0.0,0.0,0.0,0.0,0.955604,0.0,0.0,0.0,0.0,0.0,0,1,1,1,1,0,0,0,0,0,0,0
1438786361,0,0.0,0.0,0,-8.47914,-11.6496,1.6789,0.0,0.0,0.0,0.000363994,-0.00395572,0.0368465,0.0,0.0,0.0,0.0,0.0,0.0,0.955585,0.0,0.0,0.0,0.0,0.0,0,1,1,1,1,0,0,0,0,0,0,0
1438792265,0,0.0,0.0,0,-8.4798,-11.649,1.67685,0.0,0.0,0.0,-0.00905254,-0.00300954,0.026176,0.0,0.0,0.0,0.0,0.0,0.0,0.955657,0.0,0.0,0.0,0.0,0.0,0,1,1,1,1,0,0,0,0,0,0,0
1438806328,0,0.0,0.0,0,-8.47983,-11.6491,1.67722,0.0,0.0,0.0,-0.000423718,-0.00250461,0.0247423,0.0,0.0,0.0,0.0,0.0,0.0,0.955636,0.0,0.0,0.0,0.0,0.0,0,1,1,1,1,0,0,0,0,0,0,0
1438811029,0,0.0,0.0,0,-8.47987,-11.6491,1.67738,0.0,0.0,0.0,-0.00659908,0.000177806,0.0306801,0.0,0.0,0.0,0.0,0.0,0.0,0.955625,0.0,0.0,0.0,0.0,0.0,0,1,1,1,1,0,0,0,0,0,0,0
1438816315,0,0.0,0.0,0,-8.47988,-11.6491,1.67755,0.0,0.0,0.0,-0.00215719,-0.00107034,0.0336254,0.0,0.0,0.0,0.0,0.0,0.0,0.955638,0.0,0.0,0.0,0.0,0.0,0,1,1,1,1,0,0,0,0,0,0,0
1438821045,0,0.0,0.0,0,-8.47991,-11.6491,1.67772,0.0,0.0,0.0,-0.00626713,0.00138481,0.0350939,0.0,0.0,0.0,0.0,0.0,0.0,0.955598,0.0,0.0,0.0,0.0,0.0,0,1,1,1,1,0,0,0,0,0,0,0
1438826164,0,0.0,0.0,0,-8.47994,-11.6491,1.67793,0.0,0.0,0.0,-0.00671922,-0.000834538,0.041377,0.0,0.0,0.0,0.0,0.0,0.0,0.955694,0.0,0.0,0.0,0.0,0.0,0,1,1,1,1,0,0,0,0,0,0,0
1438831074,0,0.0,0.0,0,-8.47996,-11.6491,1.67811,0.0,0.0,0.0,-0.00250253,-0.00198394,0.0356813,0.0,0.0,0.0,0.0,0.0,0.0,0.955538,0.0,0.0,0.0,0.0,0.0,0,1,1,1,1,0,0,0,0,0,0,0
1438835940,0,0.0,0.0,0,-8.48,-11.6491,1.67831,0.0,0.0,0.0,-0.00883954,-0.00115818,0.039727,0.0,0.0,0.0,0.0,0.0,0.0,0.955614,0.0,0.0,0.0,0.0,0.0,0,1,1,1,1,0,0,0,0,0,0,0
1438840991,0,0.0,0.0,0,-8.48001,-11.6491,1.67847,0.0,0.0,0.0,-0.0015965,-0.00314013,0.0331707,0.0,0.0,0.0,0.0,0.0,0.0,0.95561,0.0,0.0,0.0,0.0,0.0,0,1,1,1,1,0,0,0,0,0,0,0
1438845972,0,0.0,0.0,0,-8.48005,-11.6491,1.67868,0.0,0.0,0.0,-0.00756621,-0.00226137,0.0409957,0.0,0.0,0.0,0.0,0.0,0.0,0.955626,0.0,0.0,0.0,0.0,0.0,0,1,1,1,1,0,0,0,0,0,0,0
1438851186,0,0.0,0.0,0,-8.48006,-11.6492,1.67886,0.0,0.0,0.0,-0.00258587,-0.00252958,0.03732,0.0,0.0,0.0,0.0,0.0,0.0,0.955616,0.0,0.0,0.0,0.0,0.0,0,1,1,1,1,0,0,0,0,0,0,0
1438856033,0,0.0,0.0,0,-8.4801,-11.6492,1.67908,0.0,0.0,0.0,-0.00786504,0.00191087,0.0426551,0.0,0.0,0.0,0.0,0.0,0.0,0.955613,0.0,0.0,0.0,0.0,0.0,0,1,1,1,1,0,0,0,0,0,0,0
1438861165,0,0.0,0.0,0,-8.48011,-11.6492,1.67928,0.0,0.0,0.0,-0.00211531,-0.000595898,0.0407877,0.0,0.0,0.0,0.0,0.0,0.0,0.95558,0.0,0.0,0.0,0.0,0.0,0,1,1,1,1,0,0,0,0,0,0,0
1438866116,0,0.0,0.0,0,-8.48015,-11.6491,1.6795,0.0,0.0,0.0,-0.00823438,0.00391283,0.0434101,0.0,0.0,0.0,0.0,0.0,0.0,0.955556,0.0,0.0,0.0,0.0,0.0,0,1,1,1,1,0,0,0,0,0,0,0
