timestamp,gyro_rad[0],gyro_rad[1],gyro_rad[2],gyro_integral_dt,accelerometer_timestamp_relative,accelerometer_m_s2[0],accelerometer_m_s2[1],accelerometer_m_s2[2],accelerometer_integral_dt,magnetometer_timestamp_relative,magnetometer_ga[0],magnetometer_ga[1],magnetometer_ga[2],baro_timestamp_relative,baro_alt_meter,baro_temp_celcius
1437080051,-0.0146828,-0.0031215,-0.00916013,0.00075,0,0.0828575,0.128381,-9.6703,0.00075,0,-0.707345,-0.395988,0.726266,-8430,-61361.8,57.0
1437081233,-0.0149008,0.0105972,-0.013836,0.001192,0,-0.0578487,0.0846538,-9.76216,0.001192,-1182,-0.707345,-0.395988,0.726266,-9612,-61361.8,57.0
1437082110,-0.0135472,0.00598103,-0.016239,0.0009,0,-0.00917086,0.192003,-9.76134,0.0009,0,-0.707345,-0.395988,0.726266,-10489,-61361.8,57.0
1437084155,-0.0174659,-0.00133297,-0.0125948,0.0009,0,0.0640581,0.136616,-9.89876,0.0009,0,-0.707438,-0.406848,0.729634,-12534,-61361.8,57.0
1437087070,-0.00789479,-0.00465157,-0.00863265,0.0009,0,-0.0421552,0.129262,-9.83947,0.0009,0,-0.707438,-0.406848,0.729634,-15449,-61361.8,57.0
1437091052,-0.0158018,0.00306883,-0.0085124,0.0009,0,0.0809111,0.045927,-9.66919,0.0009,-896,-0.707438,-0.406848,0.729634,-19431,-61361.8,57.0
1437094013,-0.0107046,-0.00417403,-0.010446,0.00075,-709,0.0605484,0.107018,-9.6157,0.001332,-709,-0.707438,-0.406848,0.729634,-2420,-61362.4,56.99
1437098070,-0.0141496,0.00320561,-0.0137055,0.000894,0,0.0513544,0.0190459,-9.74131,0.000894,0,-0.704008,-0.406911,0.736668,-6477,-61362.4,56.99
1437101110,-0.00827335,-0.00302348,-0.00639519,0.001043,0,0.0290245,0.0827232,-9.62374,0.001043,0,-0.704008,-0.406911,0.736668,-9517,-61362.4,56.99
1437104125,-0.0144337,-0.00561044,-0.00658796,0.001043,0,0.0746,0.102484,-9.72599,0.001043,0,-0.704008,-0.406911,0.736668,-12532,-61362.4,56.99
1437108111,-0.00964921,0.00354373,-0.00896088,0.001043,0,-0.0827672,0.132666,-9.70197,0.001043,0,-0.704008,-0.406911,0.736668,-16518,-61362.4,56.99
1437111105,-0.0192549,0.00682965,-0.012125,0.0009,0,-0.0888811,0.0739081,-9.85323,0.0009,0,-0.704008,-0.406911,0.736668,-19512,-61362.4,56.99
1437115241,-0.00425894,0.00502417,-0.00844415,0.0009,0,0.0491038,0.0873269,-9.52837,0.0009,0,-0.687955,-0.416014,0.7457,-3640,-61362.6,56.99
1437118227,-0.0141022,0.0070556,-0.0103449,0.001043,0,0.0220499,0.0426599,-9.69376,0.001043,-1126,-0.687955,-0.416014,0.7457,-6626,-61362.6,56.99
1437122146,-0.0105514,0.0022748,-0.00890846,0.0009,0,-0.00936813,0.119708,-9.71051,0.0009,0,-0.687955,-0.416014,0.7457,-10545,-61362.6,56.99
1437125097,-0.0145061,0.00811723,-0.00718722,0.0009,0,0.0204066,0.0885367,-9.79182,0.0009,0,-0.689145,-0.421221,0.723063,-13496,-61362.6,56.99
1437129057,-0.0109747,0.0031397,-0.00642549,0.000894,0,-0.0173622,0.0837891,-9.75377,0.000894,0,-0.689145,-0.421221,0.723063,-17456,-61362.6,56.99
1437132082,-0.0112748,0.00543678,-0.0162959,0.001043,0,-0.0229932,0.0909158,-9.62338,0.001043,0,-0.689145,-0.421221,0.723063,-551,-61361.9,56.99
1437136135,-0.0115965,-0.000935645,-0.0101211,0.001043,0,0.0128501,0.127838,-9.62035,0.001043,0,-0.678955,-0.410616,0.747732,-4604,-61361.9,56.99
1437139104,-0.0160726,0.00321537,-0.0148239,0.000894,0,0.0417451,0.12465,-9.76934,0.000894,0,-0.678955,-0.410616,0.747732,-7573,-61361.9,56.99
1437143129,-0.0115951,-0.00626174,-0.0101699,0.001043,0,-0.0656647,0.086265,-9.71424,0.001043,0,-0.678955,-0.410616,0.747732,-11598,-61361.9,56.99
1437146126,-0.0127038,0.010312,-0.00860202,0.00105,0,-0.0543049,0.0678234,-9.86637,0.00105,0,-0.676522,-0.426651,0.725095,-14595,-61361.9,56.99
1437150195,-0.00989844,-0.00769973,-0.0109739,0.00105,0,0.114785,0.104023,-9.51957,0.00105,0,-0.676522,-0.426651,0.725095,-18664,-61361.9,56.99
1437153272,-0.0126779,0.00593248,-0.00399802,0.001036,0,0.00903828,0.0497228,-9.71835,0.001036,0,-0.68581,-0.424926,0.733532,-1604,-61361.9,56.99
1437157118,-0.0132288,0.00502173,-0.00842389,0.0009,0,0.0147542,0.161008,-9.77494,0.0009,0,-0.68581,-0.424926,0.733532,-5450,-61361.9,56.99
1437160043,-0.0137324,0.000107359,-0.0127279,0.00075,-888,-0.0130382,0.105981,-9.73679,0.001184,-888,-0.68581,-0.424926,0.733532,-8375,-61361.9,56.99
1437164156,-0.00937666,0.000463976,-0.00502329,0.001043,0,0.0885982,0.104869,-9.61267,0.001043,-1027,-0.698054,-0.41215,0.717697,-12488,-61361.9,56.99
1437167049,-0.0183344,-0.00307253,-0.0165422,0.0009,0,-0.0487988,0.114275,-9.77192,0.0009,0,-0.698054,-0.41215,0.717697,-15381,-61361.9,56.99
1437171156,-0.0093077,-0.00352051,-0.0103104,0.001036,0,0.108076,0.154919,-9.66163,0.001036,0,-0.698054,-0.41215,0.717697,-19488,-61361.9,56.99
1437174181,-0.0115649,-0.00136267,-0.00919165,0.001184,0,0.0660255,0.0955345,-9.73771,0.001184,0,-0.683859,-0.419464,0.72843,-2618,-61362.3,57.0
1437177221,-0.0126661,0.00157384,-0.0099752,0.00105,0,0.0864603,0.089108,-9.68438,0.00105,0,-0.683859,-0.419464,0.72843,-5658,-61362.3,57.0
1437181204,-0.0127552,0.00754712,-0.0127394,0.000894,0,-0.0752012,0.11731,-9.79897,0.000894,0,-0.683859,-0.419464,0.72843,-9641,-61362.3,57.0
1437185154,-0.0122052,0.00464452,-0.0129032,0.00105,-1076,-0.00323625,0.109891,-9.8496,0.000755,-1076,-0.691193,-0.419496,0.731699,-13591,-61362.3,57.0
1437188080,-0.0111584,-0.00553274,-0.00944076,0.0009,-905,-0.00233137,0.134178,-9.71549,0.001043,-905,-0.691193,-0.419496,0.731699,-16517,-61362.3,57.0
1437192038,-0.0161247,0.00495561,-0.00710077,0.000755,0,-0.0243392,0.0966285,-9.8661,0.000755,0,-0.689525,-0.424957,0.7369,-516,-61362.7,56.99
1437195125,-0.0112972,0.00531082,-0.0108549,0.0009,-1015,-0.0717527,0.0726061,-9.75423,0.001043,-1015,-0.689525,-0.424957,0.7369,-3603,-61362.7,56.99
1437199129,-0.0128511,-0.00523489,-0.00600824,0.001043,-1067,0.0276059,0.0849526,-9.83597,0.0009,-1067,-0.689525,-0.424957,0.7369,-7607,-61362.7,56.99
1437206235,-0.0194035,-0.00183962,-0.0113332,0.001036,0,0.113143,0.0805611,-9.64678,0.001036,0,-0.680334,-0.419496,0.731997,-14713,-61362.7,56.99
1437209125,-0.014269,-0.00487055,-0.0125903,0.001043,0,-0.0143707,0.120928,-9.68823,0.001043,0,-0.680334,-0.419496,0.731997,-17603,-61362.7,56.99
1437213159,-0.0118347,-0.00261305,-0.00976241,0.001043,0,-0.0448893,0.0562548,-9.83542,0.001043,0,-0.676524,-0.419432,0.725161,-1495,-61362.7,56.99
1437216119,-0.0102866,0.00675543,-0.0106997,0.00105,0,-0.06104,0.0884924,-9.77056,0.00105,0,-0.676524,-0.419432,0.725161,-4455,-61362.7,56.99
1437220136,-0.0102558,-0.00383672,-0.00904521,0.00105,0,0.0546824,0.0561646,-9.71088,0.00105,0,-0.676524,-0.419432,0.725161,-8472,-61362.7,56.99
1437223177,-0.0176288,-0.00106178,-0.0131297,0.0009,0,-0.016219,0.106914,-9.66451,0.0009,0,-0.66557,-0.419401,0.721992,-11513,-61362.7,56.99
1437227126,-0.0173277,0.003134,-0.00597821,0.00075,0,-0.0592706,0.0894503,-9.91982,0.00075,0,-0.66557,-0.419401,0.721992,-15462,-61362.7,56.99
1437230115,-0.0134552,0.00333988,-0.0117315,0.001043,-1029,-0.074626,0.0775953,-9.73265,0.0009,-1029,-0.66557,-0.419401,0.721992,-18451,-61362.7,56.99
1437234092,-0.014176,-0.00366861,-0.00950648,0.0009,0,0.091624,0.0217,-9.72501,0.0009,-982,-0.698812,-0.426841,0.745303,-2448,-61362.2,56.99
1437237079,-0.0125583,0.00367712,-0.0166771,0.000894,0,-0.0910644,0.131971,-9.74458,0.000894,0,-0.698812,-0.426841,0.745303,-5435,-61362.2,56.99
1437241087,-0.0142577,0.00698684,-0.00976624,0.0009,0,-0.0337012,0.0809999,-9.71114,0.0009,0,-0.687479,-0.419464,0.728331,-9443,-61362.2,56.99
1437244167,-0.0103032,0.00276445,-0.00905258,0.001192,0,-0.0234727,0.148988,-9.59656,0.001192,0,-0.687479,-0.419464,0.728331,-12523,-61362.2,56.99
1437248192,-0.0176334,-0.00389684,-0.00891517,0.001184,0,0.000598768,0.0764114,-9.80824,0.001184,0,-0.687479,-0.419464,0.728331,-16548,-61362.2,56.99
1437251121,-0.0097661,0.00454472,-0.010249,0.001043,0,-0.113361,0.0866658,-9.83394,0.001043,0,-0.687479,-0.419464,0.728331,-19477,-61362.2,56.99
1437255251,-0.017973,-0.00511967,-0.0135316,0.001192,0,0.127845,0.0914082,-9.7103,0.001192,0,-0.687479,-0.419464,0.728331,-3656,-61362.8,56.99
1437257153,-0.0126095,-0.00169618,-0.0115768,0.000894,0,0.0337232,0.0621148,-9.65158,0.000894,0,-0.687479,-0.419464,0.728331,-5558,-61362.8,56.99
1437262171,-0.0193637,0.00368614,-0.00816044,0.0009,0,-0.0463426,0.0730625,-9.84689,0.0009,0,-0.693145,-0.424957,0.7368,-10576,-61362.8,56.99
1437265104,-0.0102471,0.000393575,-0.00705237,0.0009,0,-0.0234348,0.144948,-9.80887,0.0009,-1048,-0.693145,-0.424957,0.7368,-13509,-61362.8,56.99
1437269035,-0.017167,-0.00863721,-0.0118366,0.000755,-842,0.0810701,0.130448,-9.79136,0.000894,-842,-0.693145,-0.424957,0.7368,-17440,-61362.8,56.99
1437272283,-0.00998434,0.00652647,-0.0106174,0.001036,-1128,0.0243757,0.102792,-9.58369,0.001192,-1128,-0.685811,-0.421316,0.733565,-562,-61362.4,56.99
1437275153,-0.0149532,-0.00309182,-0.00950031,0.001184,0,-0.0232241,0.0652734,-9.73654,0.001184,0,-0.685811,-0.421316,0.733565,-3432,-61362.4,56.99
1437278131,-0.00875808,0.00183703,-0.00537433,0.00105,0,0.0199918,0.113915,-9.63123,0.00105,0,-0.685811,-0.421316,0.733565,-6410,-61362.4,56.99
1437283160,-0.0168967,0.0110191,-0.0111465,0.001043,-1080,0.0886725,0.0514235,-9.71512,0.001043,-1080,-0.70558,-0.408636,0.727933,-11439,-61362.4,56.99
1437286187,-0.0120151,0.00190506,-0.0097735,0.001192,0,-0.0665444,0.0908316,-9.71803,0.001192,0,-0.70558,-0.408636,0.727933,-14466,-61362.4,56.99
1437287272,-0.014679,0.00143842,-0.00978428,0.001176,0,0.019993,0.0861676,-9.63127,0.001176,0,-0.70558,-0.408636,0.727933,-15551,-61362.4,56.99
1437292067,-0.01305,-0.00453595,-0.0117038,0.0009,0,-0.0111337,0.142796,-9.70436,0.0009,0,-0.70558,-0.408636,0.727933,-528,-61362.9,57.0
1437297224,-0.018772,0.000598779,-0.0103039,0.000906,0,0.0175799,0.0518125,-9.79064,0.000906,0,-0.70558,-0.408636,0.727933,-5685,-61362.9,57.0
1437300095,-0.0112389,0.00447203,-0.00650933,0.0009,0,-0.065483,0.115495,-9.73125,0.0009,-954,-0.70558,-0.408636,0.727933,-8556,-61362.9,57.0
1437304136,-0.0164997,-0.0154813,-0.0089681,0.0009,0,0.0980624,0.0102788,-9.69779,0.0009,0,-0.710673,-0.421157,0.715533,-12597,-61362.9,57.0
1437307034,-0.00787833,-0.000745793,-0.0124685,0.00075,0,-0.000691372,0.0503996,-9.68049,0.00075,0,-0.710673,-0.421157,0.715533,-15495,-61362.9,57.0
1437310109,-0.0205895,-0.00142355,-0.00694686,0.001043,0,-0.0333932,0.131119,-9.79302,0.001043,0,-0.691289,-0.415918,0.735199,-18570,-61362.9,57.0
1437313113,-0.0138151,-0.00327342,-0.0124871,0.001043,0,-0.0233758,0.0990029,-9.90869,0.001043,0,-0.691289,-0.415918,0.735199,-1483,-61363.1,57.0
1437318174,-0.0171965,0.00173717,-0.011316,0.001036,0,0.0324841,0.048194,-9.81216,0.001036,0,-0.691289,-0.415918,0.735199,-6544,-61363.1,57.0
1437321167,-0.0157456,-0.00317854,-0.00732482,0.001184,0,-0.00483812,0.1157,-9.78468,0.001184,0,-0.689717,-0.417803,0.7439,-9537,-61363.1,57.0
1437325355,-0.0166152,0.00334024,-0.0155482,0.001332,0,0.0393212,0.110939,-9.78284,0.001332,0,-0.689717,-0.417803,0.7439,-13725,-61363.1,57.0
1437327129,-0.0132228,-0.000666231,-0.0146545,0.00105,0,0.0116253,0.0554895,-9.78769,0.00105,-1081,-0.689717,-0.417803,0.7439,-15499,-61363.1,57.0
1437332119,-0.0206232,0.000898816,-0.0112654,0.00105,-1020,-0.0411808,0.10777,-9.7586,0.0009,-1020,-0.6861,-0.406975,0.744099,-651,-61362.4,57.0
1437335156,-0.0092677,-0.00394341,-0.0123228,0.00075,0,-0.0308632,0.133718,-9.78547,0.00075,0,-0.6861,-0.406975,0.744099,-3688,-61362.4,57.0
1437339081,-0.0130728,-0.000737982,-0.0134635,0.000755,0,0.0241784,0.080082,-9.67906,0.000755,0,-0.695001,-0.430387,0.738435,-7613,-61362.4,57.0
1437342077,-0.0119988,0.00537274,-0.00794287,0.0009,0,0.0592146,0.112249,-9.59133,0.0009,0,-0.695001,-0.430387,0.738435,-10609,-61362.4,57.0
1437346139,-0.0164629,0.00497474,-0.00753616,0.001043,0,0.018999,0.0891887,-9.80702,0.001043,0,-0.695001,-0.430387,0.738435,-14671,-61362.4,57.0
1437349089,-0.014168,-0.000884242,-0.0130331,0.000894,0,0.088177,0.166866,-9.58485,0.000894,-992,-0.695001,-0.430387,0.738435,-17621,-61362.4,57.0
1437353120,-0.0172252,-0.00765718,-0.015818,0.001043,0,0.029598,0.129092,-9.71945,0.001043,0,-0.687764,-0.41956,0.738733,-1622,-61362.2,57.0
1437356288,-0.0153262,-0.00305591,-0.00858512,0.001332,0,-0.030991,0.133604,-9.76141,0.001332,0,-0.687764,-0.41956,0.738733,-4790,-61362.2,57.0
1437360194,-0.0168023,0.00490282,-0.0100772,0.001192,-1067,0.0176257,0.101309,-9.74866,0.0009,-1067,-0.676998,-0.42681,0.742432,-8696,-61362.2,57.0
1437363128,-0.01271,0.00163528,-0.00837727,0.00105,0,0.0821912,0.102733,-9.60362,0.00105,0,-0.676998,-0.42681,0.742432,-11630,-61362.2,57.0
1437367145,-0.0170228,-0.00114717,-0.0120989,0.001043,-1045,0.0085372,0.0700795,-9.78114,0.0009,-1045,-0.676998,-0.42681,0.742432,-15647,-61362.2,57.0
1437369175,-0.0175843,-0.00146128,-0.0110515,0.001043,0,0.050311,0.0883419,-9.75108,0.001043,0,-0.694532,-0.401354,0.721363,-17677,-61362.2,57.0
1437372178,-0.0123909,0.00524206,-0.0116848,0.001043,0,-0.0860007,0.0830176,-9.69636,0.001043,0,-0.694532,-0.401354,0.721363,-567,-61363.4,57.0
1437380075,-0.0162535,-0.00368082,-0.00823146,0.000894,0,0.0165762,0.104682,-9.63768,0.000894,0,-0.672621,-0.412118,0.714925,-8464,-61363.4,57.0
1437384079,-0.0124744,-0.00324918,-0.00679166,0.000894,0,0.069476,0.104099,-9.65979,0.000894,0,-0.672621,-0.412118,0.714925,-12468,-61363.4,57.0
1437388048,-0.0163616,0.00113627,-0.0107657,0.0009,0,0.000383543,0.0525932,-9.65857,0.0009,0,-0.698339,-0.415855,0.728066,-16437,-61363.4,57.0
1437391153,-0.00942868,0.00196858,-0.00936891,0.001192,0,-0.0423077,0.0807579,-9.76117,0.001192,0,-0.698339,-0.415855,0.728066,-19542,-61363.4,57.0
1437392099,-0.005676,-0.00053812,-0.01182,0.000894,0,0.072208,0.130683,-9.68662,0.000894,0,-0.698339,-0.415855,0.728066,-547,-61362.7,56.99
1437398057,-0.0143363,0.00107192,-0.013375,0.000894,0,0.063276,0.0723712,-9.76843,0.000894,0,-0.6911,-0.412246,0.728297,-6505,-61362.7,56.99
1437402171,-0.011628,0.00571827,-0.00446597,0.001192,0,-0.0950955,0.140572,-9.82315,0.001192,0,-0.6911,-0.412246,0.728297,-10619,-61362.7,56.99
1437405091,-0.0183775,0.0037488,-0.0149711,0.0009,0,-0.0656138,0.105745,-9.93015,0.0009,0,-0.6911,-0.412246,0.728297,-13539,-61362.7,56.99
1437409163,-0.00803152,0.0076131,-0.0101225,0.0009,0,0.0307752,0.126045,-9.70416,0.0009,0,-0.654712,-0.415791,0.722323,-17611,-61362.7,56.99
1437412198,-0.016852,0.00289618,-0.00907566,0.0009,0,-0.0082943,0.0806927,-9.67691,0.0009,0,-0.654712,-0.415791,0.722323,-574,-61362.2,57.0
1437416034,-0.0161211,0.00364309,-0.014999,0.000755,0,-0.051646,0.111622,-9.72636,0.000755,0,-0.654712,-0.415791,0.722323,-4410,-61362.2,57.0
1437419055,-0.0126452,-0.00058369,-0.00703833,0.0009,0,-0.00184739,0.146823,-9.66455,0.0009,0,-0.673189,-0.423137,0.735629,-7431,-61362.2,57.0
1437423081,-0.0158726,0.00496877,-0.0124045,0.000894,0,-0.00825015,0.133117,-9.73671,0.000894,0,-0.673189,-0.423137,0.735629,-11457,-61362.2,57.0
1437426104,-0.0138795,-0.000809278,-0.00736607,0.001043,0,-0.0181038,0.0418146,-9.8639,0.001043,0,-0.673189,-0.423137,0.735629,-14480,-61362.2,57.0
1437430140,-0.0129143,0.00620887,-0.0092544,0.001043,0,0.00475591,0.108722,-9.69945,0.001043,0,-0.684049,-0.419528,0.735365,-18516,-61362.2,57.0
1437433146,-0.0137111,-0.00103528,-0.00864808,0.001192,0,0.0514912,0.0409046,-9.65537,0.001192,0,-0.684049,-0.419528,0.735365,-1679,-61362.8,57.0
1437437278,-0.0140218,0.00620744,-0.0143184,0.001192,0,-0.0615916,0.137577,-9.75669,0.001192,-1181,-0.684049,-0.419528,0.735365,-5811,-61362.8,57.0
1437440040,-0.0165331,-0.00146597,-0.00386717,0.000755,0,0.0189408,0.0888749,-9.90714,0.000755,0,-0.684049,-0.419528,0.735365,-8573,-61362.8,57.0
1437444094,-0.0133315,0.0023538,-0.00791832,0.000906,0,0.0612226,0.0494706,-9.66451,0.000906,-995,-0.684049,-0.419528,0.735365,-12627,-61362.8,57.0
1437447105,-0.01402,0.00431403,-0.00871852,0.0009,0,0.0513791,0.046322,-9.71311,0.0009,-1017,-0.684049,-0.419528,0.735365,-15638,-61362.8,57.0
1437451097,-0.0132575,0.00261522,-0.00738103,0.0009,-1029,-0.0280105,0.0549648,-9.74395,0.000894,-1029,-0.685335,-0.421157,0.716228,-19630,-61362.8,57.0
1437454111,-0.0153765,-0.00115623,-0.0110642,0.001043,0,0.0500347,0.0767351,-9.79088,0.001043,0,-0.685335,-0.421157,0.716228,-2472,-61362.9,57.0
1437458093,-0.0102734,0.00810828,-0.00609425,0.0009,0,-0.0752439,0.135384,-9.68104,0.0009,0,-0.6871,-0.412118,0.714528,-6454,-61362.9,57.0
1437461134,-0.0182232,0.0030181,-0.0099622,0.001043,0,0.00230967,0.0684604,-9.85968,0.001043,0,-0.6871,-0.412118,0.714528,-9495,-61362.9,57.0
1437465101,-0.00861992,0.00318527,-0.0113338,0.000894,0,0.0943713,0.17053,-9.67965,0.000894,-959,-0.6871,-0.412118,0.714528,-13462,-61362.9,57.0
1437468183,-0.0151678,-0.00520517,-0.0113906,0.001184,0,0.0601933,0.0422112,-9.69973,0.001184,0,-0.686911,-0.404836,0.707659,-16544,-61362.9,57.0
1437471133,-0.00582509,0.00163145,-0.00638682,0.000906,0,-0.0359635,0.0911515,-9.64324,0.000906,0,-0.686911,-0.404836,0.707659,-19494,-61362.9,57.0
1437475208,-0.017903,-0.00577802,-0.0133073,0.001043,0,0.0162648,0.031498,-9.8196,0.001043,0,-0.686911,-0.404836,0.707659,-3586,-61362.9,57.0
1437479049,-0.00779993,5.55905e-05,-0.00885331,0.0009,-813,-0.0163037,0.114012,-9.68013,0.001043,0,-0.686911,-0.404836,0.707659,-7427,-61362.9,57.0
1437482060,-0.0205463,0.000391771,-0.00907567,0.00075,0,0.0582721,0.0485146,-9.73446,0.00075,0,-0.686911,-0.404836,0.707659,-10438,-61362.9,57.0
1437486085,-0.00964539,-0.00393329,-0.0095622,0.000906,0,-0.0775936,0.15336,-9.9009,0.000906,0,-0.690907,-0.42301,0.721264,-14463,-61362.9,57.0
1437487273,-0.0139901,-0.00427982,-0.0106171,0.001192,0,0.0693834,0.11052,-9.6746,0.001192,0,-0.690907,-0.42301,0.721264,-15651,-61362.9,57.0
1437493029,-0.0108511,0.00375816,-0.0157858,0.000604,-681,-0.0291209,0.0831582,-9.66349,0.001176,-681,-0.690907,-0.42301,0.721264,-1263,-61362.6,57.0
1437496119,-0.0200174,0.00317225,-0.0102257,0.000894,0,0.0297076,0.0968249,-9.73799,0.000894,0,-0.693054,-0.406879,0.733498,-4353,-61362.6,57.0
1437500111,-0.0113596,-0.00249265,-0.0118163,0.000894,-936,-0.00784975,0.0772951,-9.7416,0.001332,-936,-0.693054,-0.406879,0.733498,-8345,-61362.6,57.0
1437501093,-0.0155412,-0.00220031,-0.0147702,0.0009,0,-0.0104685,0.0745135,-9.65587,0.0009,0,-0.693054,-0.406879,0.733498,-9327,-61362.6,57.0
1437507179,-0.00506868,-0.00248104,-0.010489,0.001192,0,-0.0388416,0.0834102,-9.75656,0.001192,0,-0.686004,-0.410552,0.740599,-15413,-61362.6,57.0
1437510131,-0.0161678,0.00076129,-0.012743,0.00105,0,0.0281238,0.0934847,-9.75301,0.00105,0,-0.686004,-0.410552,0.740599,-18365,-61362.6,57.0
1437514195,-0.0108971,0.00201153,-0.00786734,0.001043,0,0.0244313,0.101829,-9.65586,0.001043,-1064,-0.686004,-0.410552,0.740599,-2617,-61362.9,57.01
1437517156,-0.0139708,0.0145059,-0.00958791,0.001043,0,0.0840487,0.0424712,-9.74612,0.001043,0,-0.687671,-0.412309,0.735331,-5578,-61362.9,57.01
1437521100,-0.0131978,0.00319747,-0.0127914,0.0009,0,-0.110294,0.124892,-9.66932,0.0009,0,-0.687671,-0.412309,0.735331,-9522,-61362.9,57.01
1437524292,-0.0117931,0.00426513,-0.0130095,0.001184,0,0.0122206,0.112411,-9.81717,0.001184,0,-0.687671,-0.412309,0.735331,-12714,-61362.9,57.01
1437528105,-0.0107434,-0.00240551,-0.0116209,0.0009,0,0.0405279,0.0739609,-9.63771,0.0009,0,-0.687102,-0.4049,0.714594,-16527,-61362.9,57.01
1437531207,-0.0122243,0.00111243,-0.00943445,0.001043,0,-0.00381499,0.0493144,-9.78611,0.001043,0,-0.687102,-0.4049,0.714594,-19629,-61362.9,57.01
1437535184,-0.00647348,0.00021473,-0.0109596,0.001043,0,0.025207,0.146667,-9.65919,0.001043,0,-0.686098,-0.414193,0.744033,-3490,-61362.4,57.0
1437538074,-0.0215401,-0.0037697,-0.00836466,0.00105,0,0.0374832,0.134458,-9.70755,0.00105,0,-0.686098,-0.414193,0.744033,-6380,-61362.4,57.0
1437542129,-0.00806672,0.000672647,-0.0111513,0.001043,0,-0.0898435,0.0444544,-9.74335,0.001043,0,-0.686098,-0.414193,0.744033,-10435,-61362.4,57.0
1437545155,-0.0152214,0.00547449,-0.0142914,0.001192,0,-0.035285,0.10914,-9.88617,0.001192,0,-0.672903,-0.423042,0.725228,-13461,-61362.4,57.0
1437549215,-0.0138889,-0.00492147,-0.00702343,0.001043,0,0.0276606,0.114649,-9.67379,0.001043,0,-0.672903,-0.423042,0.725228,-17521,-61362.4,57.0
1437552062,-0.0108892,0.00210296,-0.00954097,0.0009,0,-0.0453658,0.0555616,-9.72247,0.0009,0,-0.672903,-0.423042,0.725228,-565,-61362.9,57.0
1437556129,-0.00803161,-0.00170838,-0.0101192,0.0009,0,-0.0598571,0.0718804,-9.80535,0.0009,0,-0.701291,-0.422851,0.703629,-4632,-61362.9,57.0
1437559132,-0.0166047,0.000747467,-0.0129074,0.00075,0,-0.00604959,0.131618,-9.8169,0.00075,0,-0.701291,-0.422851,0.703629,-7635,-61362.9,57.0
1437563177,-0.00793259,-0.00383557,-0.0104912,0.0009,0,0.016101,0.0409413,-9.64946,0.0009,0,-0.701291,-0.422851,0.703629,-11680,-61362.9,57.0
1437566050,-0.0132626,-0.000552768,-0.0104297,0.0009,0,-0.000617695,0.113049,-9.72391,0.0009,0,-0.700193,-0.428503,0.729634,-14553,-61362.9,57.0
1437570142,-0.00921114,0.00163527,-0.00828126,0.001043,0,0.0433039,0.0893115,-9.7451,0.001043,0,-0.700193,-0.428503,0.729634,-18645,-61362.9,57.0
1437573121,-0.0174138,0.0010307,-0.0172659,0.001043,0,0.0194954,0.13302,-9.73783,0.001043,0,-0.700193,-0.428503,0.729634,-1547,-61362.9,57.01
1437577149,-0.0117737,-0.00530679,-0.00643606,0.001043,0,-0.0117753,0.121794,-9.70799,0.001043,0,-0.690912,-0.401354,0.721462,-5575,-61362.9,57.01
1437580217,-0.0134495,0.00690865,-0.0108993,0.001192,-1093,0.0920133,0.084082,-9.73919,0.0009,-1093,-0.690912,-0.401354,0.721462,-8643,-61362.9,57.01
1437584181,-0.0136503,-0.00722931,-0.00843679,0.001184,0,0.0916303,0.104769,-9.60159,0.001184,0,-0.700291,-0.417707,0.7332,-12607,-61362.9,57.01
1437587025,-0.0139811,0.00297173,-0.0114296,0.000755,0,0.00593361,0.14471,-9.67753,0.000755,0,-0.700291,-0.417707,0.7332,-15451,-61362.9,57.01
1437589172,-0.015959,-0.00124906,-0.0092541,0.001043,0,0.0769555,0.0615397,-9.69961,0.001043,0,-0.700291,-0.417707,0.7332,-17598,-61362.9,57.01
1437594218,-0.0140906,0.00693272,-0.0135429,0.001043,0,-0.0350567,0.121213,-9.71993,0.001043,0,-0.685243,-0.410298,0.71286,-2614,-61362.8,57.0
1437598181,-0.0107037,-0.00467089,-0.00936963,0.001043,0,0.0772672,0.122297,-9.57381,0.001043,0,-0.685243,-0.410298,0.71286,-6577,-61362.8,57.0
1437601058,-0.016359,0.00613822,-0.0140945,0.0009,0,0.00790734,0.0918142,-9.62726,0.0009,0,-0.685243,-0.410298,0.71286,-9454,-61362.8,57.0
1437605384,-0.0115399,0.000909468,-0.0101026,0.001176,0,0.0631892,0.11893,-9.67799,0.001176,0,-0.687385,-0.412214,0.72493,-13780,-61362.8,57.0
1437608043,-0.0132709,0.00352813,-0.0101261,0.0009,0,0.0161203,0.0859088,-9.7229,0.0009,0,-0.687385,-0.412214,0.72493,-16439,-61362.8,57.0
1437612103,-0.0130857,-0.00351223,-0.00716608,0.000894,-911,0.117232,0.0741998,-9.62901,0.001192,-911,-0.687385,-0.412214,0.72493,-510,-61362.6,57.0
1437615220,-0.012277,-0.00121052,-0.00966865,0.001332,0,-0.0552466,0.130304,-9.77941,0.001332,0,-0.674857,-0.417675,0.730428,-3627,-61362.6,57.0
1437619212,-0.0138735,0.00210404,-0.00974127,0.001332,0,0.106224,0.0867794,-9.64124,0.001332,0,-0.674857,-0.417675,0.730428,-7619,-61362.6,57.0
1437622241,-0.0124147,0.00155634,-0.0163627,0.001043,-1119,-0.0499625,0.0874141,-9.62769,0.000894,0,-0.687576,-0.412277,0.731864,-10648,-61362.6,57.0
1437626157,-0.00802079,0.00431507,-0.010051,0.00105,0,0.00470191,0.18145,-9.94686,0.00105,0,-0.687576,-0.412277,0.731864,-14564,-61362.6,57.0
1437629160,-0.0140634,0.00189423,-0.0117614,0.00105,0,-0.0371416,0.0931552,-9.75617,0.00105,0,-0.687576,-0.412277,0.731864,-17567,-61362.6,57.0
1437633074,-0.0127775,0.00752777,-0.00869047,0.000755,-848,0.0537343,0.0669082,-9.7262,0.001043,0,-0.700197,-0.414066,0.729766,-1456,-61362.6,57.01
1437636126,-0.0123697,-0.00312542,-0.0106064,0.0009,0,-0.0225907,0.0599624,-9.63597,0.0009,0,-0.700197,-0.414066,0.729766,-4508,-61362.6,57.01
1437640190,-0.0177184,-0.00323081,-0.00893994,0.001043,0,0.0229428,0.0737422,-9.7263,0.001043,0,-0.700197,-0.414066,0.729766,-8572,-61362.6,57.01
1437643050,-0.0103597,-0.000265305,-0.0126565,0.000894,0,0.0518738,0.1251,-9.73114,0.000894,0,-0.680333,-0.423105,0.731964,-11432,-61362.6,57.01
1437647099,-0.013814,0.00180817,-0.00651561,0.000894,0,-0.0612301,0.129017,-9.72622,0.000894,0,-0.680333,-0.423105,0.731964,-15481,-61362.6,57.01
1437650227,-0.00907376,0.00662442,-0.0120548,0.001332,0,-0.0198734,0.108225,-9.77864,0.001332,0,-0.680333,-0.423105,0.731964,-18609,-61362.6,57.01
1437654159,-0.01332,0.00249082,-0.00833859,0.001192,0,0.0335282,0.0650431,-9.6772,0.001192,0,-0.678287,-0.417612,0.723395,-2629,-61363.2,57.0
1437657194,-0.00865957,-0.00343118,-0.0117381,0.00105,0,-0.0476781,0.0439211,-9.72133,0.00105,-1105,-0.678287,-0.417612,0.723395,-5664,-61363.2,57.0
1437661174,-0.0155286,0.00231866,-0.0082961,0.001043,0,-0.0414528,0.0906942,-9.89831,0.001043,0,-0.678287,-0.417612,0.723395,-9644,-61363.2,57.0
1437664092,-0.00657241,-0.00338196,-0.0115154,0.000906,0,-0.107459,0.159228,-9.84538,0.000906,0,-0.678287,-0.417612,0.723395,-12562,-61363.2,57.0
1437668079,-0.0168304,3.44079e-06,-0.013098,0.0009,-885,0.0808387,0.0831486,-9.72474,0.000894,-885,-0.678287,-0.417612,0.723395,-16549,-61363.2,57.0
1437669185,-0.0130118,-0.00468599,-0.0098613,0.001192,0,-0.0285543,0.165256,-9.8696,0.001192,0,-0.678287,-0.417612,0.723395,-17655,-61363.2,57.0
1437678072,-0.010574,0.000876476,-0.0113198,0.0009,0,0.0121598,0.112387,-9.65131,0.0009,0,-0.710769,-0.41758,0.719033,-6471,-61362.6,57.02
1437687091,-0.0158702,0.00505835,-0.0124924,0.0009,0,0.00696306,0.0615725,-9.72377,0.0009,0,-0.691289,-0.419528,0.735166,-15490,-61362.6,57.02
1437691164,-0.0127876,-0.000343688,-0.00832143,0.001043,-1070,0.0226581,0.0903495,-9.68475,0.0009,-1070,-0.691289,-0.419528,0.735166,-19563,-61362.6,57.02
1437696190,-0.0133954,0.00490702,-0.00836607,0.001043,0,0.00810275,-0.016372,-9.89622,0.001043,0,-0.696673,-0.410489,0.733366,-4460,-61362.9,57.01
1437699083,-0.012114,0.00284861,-0.00956775,0.00075,0,-0.0636896,0.0191786,-9.82861,0.00075,0,-0.696673,-0.410489,0.733366,-7353,-61362.9,57.01
1437703116,-0.0148347,0.000313758,-0.00815589,0.000906,0,0.0894199,0.0664561,-9.68833,0.000906,0,-0.696673,-0.410489,0.733366,-11386,-61362.9,57.01
1437706095,-0.00569304,-0.000543816,-0.0111988,0.0009,-1008,0.0846328,0.096383,-9.60116,0.000894,-1008,-0.696673,-0.410489,0.733366,-14365,-61362.9,57.01
1437710128,-0.0186067,-0.000787655,-0.00985538,0.001043,0,0.106175,0.0511057,-9.82927,0.001043,0,-0.696673,-0.410489,0.733366,-18398,-61362.9,57.01
1437713137,-0.0100439,0.00233163,-0.0112208,0.000745,0,0.0346876,0.100026,-9.60817,0.000745,0,-0.684048,-0.423137,0.735331,-1350,-61362.5,57.01
1437717029,-0.0163654,-0.00609728,-0.00997959,0.00075,0,-0.0226942,0.0199207,-9.85622,0.00075,0,-0.684048,-0.423137,0.735331,-5242,-61362.5,57.01
1437720102,-0.010239,0.00400653,-0.00965792,0.001043,0,-0.0602384,0.0976542,-9.83718,0.001043,0,-0.684048,-0.423137,0.735331,-8315,-61362.5,57.01
1437724069,-0.0149729,-0.000915978,-0.00959191,0.0009,0,0.0964924,0.0689486,-9.7424,0.0009,0,-0.683856,-0.430292,0.728331,-12282,-61362.5,57.01
1437727167,-0.0106552,0.00331293,-0.010789,0.001192,0,0.0849246,0.08647,-9.56452,0.001192,0,-0.683856,-0.430292,0.728331,-15380,-61362.5,57.01
1437731157,-0.0178362,-0.000968146,-0.0160874,0.001184,0,0.0262012,0.0323755,-9.86842,0.001184,-971,-0.678384,-0.410425,0.726928,-19370,-61362.5,57.01
1437734098,-0.0104235,0.00598679,-0.00709473,0.000906,0,-0.122791,0.0744388,-9.86853,0.000906,0,-0.678384,-0.410425,0.726928,-2418,-61362.6,57.01
1437738101,-0.0183738,-0.00666639,-0.0118694,0.0009,0,0.00259717,-0.00944952,-9.81197,0.0009,0,-0.678384,-0.410425,0.726928,-6421,-61362.6,57.01
1437741089,-0.008813,-0.00371499,-0.00429761,0.0009,0,0.0475421,0.109821,-9.67511,0.0009,0,-0.689527,-0.417739,0.736966,-9409,-61362.6,57.01
1437745096,-0.0157578,-0.00194702,-0.0133529,0.0009,0,0.0655747,0.088305,-9.93948,0.0009,-974,-0.689527,-0.417739,0.736966,-13416,-61362.6,57.01
1437748006,-0.0148436,-0.000858133,-0.00621308,0.0006,0,0.029839,0.107308,-9.61913,0.0006,0,-0.689527,-0.417739,0.736966,-16326,-61362.6,57.01
1437752068,-0.0150442,0.00734598,-0.0102286,0.0009,0,0.0475586,0.118609,-9.85028,0.0009,0,-0.662045,-0.419432,0.725559,-616,-61362.1,57.01
1437755045,-0.0102151,-0.000927371,-0.00821813,0.0009,0,0.0125984,0.0923181,-9.81276,0.0009,0,-0.662045,-0.419432,0.725559,-3593,-61362.1,57.01
1437759184,-0.017566,0.000523263,-0.0117179,0.001036,0,0.0395428,0.0707291,-9.84495,0.001036,0,-0.662045,-0.419432,0.725559,-7732,-61362.1,57.01
1437762181,-0.0118424,-0.00334165,-0.0112156,0.001184,0,0.0308891,0.0774311,-9.6574,0.001184,0,-0.672906,-0.412214,0.725327,-10729,-61362.1,57.01
1437766138,-0.0173727,0.00637081,-0.010441,0.001043,0,-0.085308,0.0654643,-9.79641,0.001043,0,-0.672906,-0.412214,0.725327,-14686,-61362.1,57.01
1437769137,-0.0135955,0.00230396,-0.0149419,0.00105,0,0.030733,0.125822,-9.73588,0.00105,0,-0.672906,-0.412214,0.725327,-17685,-61362.1,57.01
1437773175,-0.0142115,0.00265649,-0.0119107,0.00105,0,0.0765138,0.0781536,-9.75832,0.00105,0,-0.68748,-0.412246,0.728397,-1599,-61362.1,57.01
1437776139,-0.0154177,-0.00183377,-0.00632659,0.0009,0,0.0371517,0.0508874,-9.6456,0.0009,0,-0.68748,-0.412246,0.728397,-4563,-61362.1,57.01
1437780109,-0.0159867,0.00472362,-0.0147189,0.000906,0,-0.0155592,0.134804,-9.79039,0.000906,0,-0.698812,-0.426841,0.745303,-8533,-61362.1,57.01
1437783164,-0.0120017,-0.00244059,-0.00367564,0.001043,0,0.0425969,0.13069,-9.66946,0.001043,-1115,-0.698812,-0.426841,0.745303,-11588,-61362.1,57.01
1437787015,-0.0142011,0.00225928,-0.0150655,0.00075,0,-0.0195709,0.056554,-9.67329,0.00075,0,-0.698812,-0.426841,0.745303,-15439,-61362.1,57.01
1437790088,-0.0141509,-0.00218071,-0.00718311,0.000894,0,-0.0245447,0.0751424,-9.76842,0.000894,0,-0.701772,-0.401354,0.721164,-18512,-61362.1,57.01
1437793181,-0.015878,0.00543299,-0.00978054,0.001184,0,-0.0577088,0.0689383,-9.77817,0.001184,-1019,-0.701772,-0.401354,0.721164,-1639,-61361.7,57.0
1437796103,-0.0183122,-0.00102346,-0.00764192,0.0009,0,-0.0494663,0.0713564,-9.87852,0.0009,0,-0.701772,-0.401354,0.721164,-4561,-61361.7,57.0
1437801189,-0.0147976,0.00190933,-0.0103161,0.001184,0,-0.0434185,0.106327,-9.80798,0.001184,0,-0.683862,-0.408636,0.728529,-9647,-61361.7,57.0
1437804164,-0.0146954,-0.00034578,-0.00814543,0.00105,0,-0.0697732,0.0449931,-9.87624,0.00105,0,-0.683862,-0.408636,0.728529,-12622,-61361.7,57.0
1437807215,-0.0140017,0.0084587,-0.00568587,0.00105,0,-0.0653662,0.109852,-9.71265,0.00105,0,-0.683862,-0.408636,0.728529,-15673,-61361.7,57.0
1437811163,-0.017937,0.000196595,-0.00929512,0.001043,0,0.0398592,0.0823464,-9.65698,0.001043,-1055,-0.692859,-0.424862,0.726398,-19621,-61361.7,57.0
1437815091,-0.0137884,0.00202395,-0.010687,0.0009,0,-0.0189562,0.117844,-9.8557,0.0009,0,-0.692859,-0.424862,0.726398,-3431,-61362.1,57.01
1437818109,-0.0126318,0.000841415,-0.0172379,0.0009,0,0.0496609,0.138996,-9.81051,0.0009,0,-0.692859,-0.424862,0.726398,-6449,-61362.1,57.01
1437822107,-0.0115649,0.00118527,-0.0140439,0.00075,0,0.0221984,0.11406,-9.7291,0.00075,-810,-0.698723,-0.401545,0.742067,-10447,-61362.1,57.01
1437825138,-0.0154595,0.00150472,-0.0108137,0.001043,0,-0.028433,0.0704064,-9.77427,0.001043,0,-0.698723,-0.401545,0.742067,-13478,-61362.1,57.01
1437829197,-0.0132669,0.00423968,-0.0102717,0.001036,0,-0.00680276,0.10008,-9.76451,0.001036,0,-0.685719,-0.410457,0.730197,-17537,-61362.1,57.01
1437832340,-0.0144232,0.002478,-0.00697023,0.001176,0,0.0515276,0.0635633,-9.67852,0.001176,-1064,-0.685719,-0.410457,0.730197,-570,-61362.1,57.01
1437836130,-0.016596,0.000440899,-0.0110069,0.001043,0,-0.013153,0.118259,-9.88223,0.001043,0,-0.685719,-0.410457,0.730197,-4360,-61362.1,57.01
1437839167,-0.0175628,0.00313679,-0.00628913,0.001043,0,-0.00380421,0.0854611,-9.81144,0.001043,0,-0.675235,-0.42863,0.744198,-7397,-61362.1,57.01
1437842097,-0.0138532,-0.000335357,-0.0147956,0.0009,0,-0.0410557,0.118587,-9.8068,0.0009,0,-0.675235,-0.42863,0.744198,-10327,-61362.1,57.01
1437844219,-0.0116931,0.00250711,-0.0121475,0.001043,0,0.0326735,0.141294,-9.85647,0.001043,-996,-0.675235,-0.42863,0.744198,-12449,-61362.1,57.01
1437850157,-0.0117896,0.00808036,-0.005857,0.00105,0,-0.0156119,0.104896,-9.80509,0.00105,0,-0.675235,-0.42863,0.744198,-18387,-61362.1,57.01
1437853133,-0.0165715,-0.0109777,-0.0063533,0.0009,0,0.000466518,0.105563,-9.73432,0.0009,-965,-0.675235,-0.42863,0.744198,-1489,-61362.0,57.01
1437857209,-0.01225,0.00377979,-0.00849722,0.000894,0,-0.0235483,0.0688239,-9.77564,0.000894,0,-0.675235,-0.42863,0.744198,-5565,-61362.0,57.01
1437860127,-0.0169742,-0.00365478,-0.0110929,0.000894,0,0.00055234,0.0898981,-9.85383,0.000894,-849,-0.682383,-0.414162,0.740665,-8483,-61362.0,57.01
1437864134,-0.0138913,0.00540121,-0.0124857,0.001043,0,0.0447426,0.105069,-9.74766,0.001043,0,-0.682383,-0.414162,0.740665,-12490,-61362.0,57.01
1437867147,-0.0124805,0.00475554,-0.00841848,0.001043,0,0.0443531,0.0554535,-9.5589,0.001043,0,-0.682383,-0.414162,0.740665,-15503,-61362.0,57.01
1437871133,-0.012941,0.00571811,-0.013827,0.001043,0,-0.0911843,0.124501,-9.74436,0.001043,0,-0.705863,-0.41956,0.738236,-19489,-61362.0,57.01
1437874153,-0.0171736,0.00251523,-0.0111084,0.001192,0,-0.00568744,0.0913746,-9.80828,0.001192,0,-0.705863,-0.41956,0.738236,-2639,-61361.8,57.02
1437877156,-0.0124558,0.0101622,-0.00746744,0.0009,0,-0.164777,0.145168,-9.79319,0.0009,-927,-0.705863,-0.41956,0.738236,-5642,-61361.8,57.02
1437881153,-0.0151149,-0.00241338,-0.00672958,0.00105,0,0.0631471,0.0496381,-9.70763,0.00105,0,-0.693051,-0.417707,0.733399,-9639,-61361.8,57.02
1437885097,-0.0107546,0.00336118,-0.0112131,0.0009,0,-0.0231655,0.0841149,-9.74595,0.0009,0,-0.693051,-0.417707,0.733399,-13583,-61361.8,57.02
1437888093,-0.0142549,-0.00425711,-0.0131019,0.00075,0,0.0827558,0.116858,-9.8237,0.00075,0,-0.693051,-0.417707,0.733399,-16579,-61361.8,57.02
1437892077,-0.0127425,0.0097411,-0.00996583,0.0009,-958,0.0264242,0.119405,-9.63289,0.000894,0,-0.693051,-0.417707,0.733399,-592,-61362.6,57.01
1437895135,-0.0180159,-0.00401476,-0.0147406,0.001043,0,0.039147,0.0597635,-9.73077,0.001043,0,-0.693051,-0.417707,0.733399,-3650,-61362.6,57.01
1437899146,-0.0107754,-0.000729491,-0.0104519,0.0009,-1029,-0.0983126,0.0867818,-9.84619,0.001043,-1029,-0.700198,-0.406848,0.729832,-7661,-61362.6,57.01
1437902291,-0.0159892,-0.00266057,-0.00572819,0.001176,0,0.080172,0.044185,-9.71863,0.001176,0,-0.700198,-0.406848,0.729832,-10806,-61362.6,57.01
1437906099,-0.0130732,0.00146361,-0.0173332,0.000894,0,-0.0528738,0.111717,-9.66707,0.000894,-980,-0.700198,-0.406848,0.729832,-14614,-61362.6,57.01
1437909210,-0.0198653,0.00117129,-0.0114536,0.001332,0,0.0591918,0.0949536,-9.8378,0.001332,0,-0.684045,-0.433965,0.735232,-17725,-61362.6,57.01
1437913166,-0.00823164,0.00161312,-0.00687487,0.001192,0,0.0435732,0.104707,-9.72686,0.001192,-1021,-0.684045,-0.433965,0.735232,-1543,-61362.4,57.01
1437916142,-0.0174924,-0.0022296,-0.0116269,0.0009,0,0.0849741,0.0939703,-9.64269,0.0009,-1019,-0.684045,-0.433965,0.735232,-4519,-61362.4,57.01
1437920134,-0.0128319,0.00255005,-0.00994542,0.0009,0,-0.0316386,0.125052,-9.77175,0.0009,0,-0.684432,-0.408827,0.749333,-8511,-61362.4,57.01
1437923152,-0.0173238,-0.000338613,-0.0145356,0.0009,0,0.0109242,0.0913621,-9.88267,0.0009,0,-0.684432,-0.408827,0.749333,-11529,-61362.4,57.01
1437926094,-0.0132717,-0.00330784,-0.0101,0.0009,0,0.0331218,0.0890501,-9.6733,0.0009,0,-0.684432,-0.408827,0.749333,-14471,-61362.4,57.01
1437930115,-0.0142898,0.000288462,-0.0150683,0.0009,0,0.0404035,0.0324189,-9.67681,0.0009,0,-0.704291,-0.417834,0.74697,-18492,-61362.4,57.01
1437934233,-0.0095814,0.0031605,-0.00865804,0.001043,0,-0.0408488,0.111414,-9.69588,0.001043,0,-0.704291,-0.417834,0.74697,-2652,-61362.3,57.01
1437937177,-0.0131356,0.0021233,-0.0118227,0.000894,0,0.0660459,0.000932867,-9.7239,0.000894,0,-0.685623,-0.410425,0.726729,-5596,-61362.3,57.01
1437941126,-0.011632,0.00152966,-0.00512615,0.000894,0,-0.0815727,0.0450844,-9.75589,0.000894,0,-0.685623,-0.410425,0.726729,-9545,-61362.3,57.01
1437944243,-0.0182021,0.00623374,-0.0100368,0.001184,0,0.00978119,0.111499,-9.88102,0.001184,0,-0.685623,-0.410425,0.726729,-12662,-61362.3,57.01
1437948142,-0.0118222,0.000349342,-0.0143784,0.001192,-1017,-0.0310898,0.136333,-9.80215,0.00105,-1017,-0.687382,-0.423042,0.72483,-16561,-61362.3,57.01
1437951109,-0.0162373,-0.0012658,-0.00743496,0.00105,0,0.00969423,0.0320415,-9.72978,0.00105,0,-0.687382,-0.423042,0.72483,-19528,-61362.3,57.01
1437955187,-0.00861423,-0.00476029,-0.0161641,0.001043,0,-0.149401,0.143397,-9.75503,0.001043,0,-0.687382,-0.423042,0.72483,-3655,-61362.0,57.02
1437958234,-0.0133931,0.00333506,-0.00289963,0.001043,0,0.0498428,0.0445197,-9.8213,0.001043,0,-0.679757,-0.44457,0.710961,-6702,-61362.0,57.02
1437961142,-0.0116739,0.000361769,-0.0133085,0.000894,0,0.0319043,0.0795983,-9.64348,0.000894,0,-0.679757,-0.44457,0.710961,-9610,-61362.0,57.02
1437965047,-0.0164026,0.00251928,-0.00862274,0.00075,0,-0.0283196,0.041828,-9.84324,0.00075,0,-0.679757,-0.44457,0.710961,-13515,-61362.0,57.02
1437968182,-0.0130434,-0.00126586,-0.0156446,0.001043,0,-0.0219353,0.0971998,-9.74922,0.001043,0,-0.678571,-0.421316,0.733763,-16650,-61362.0,57.02
1437972107,-0.0185652,0.000342239,-0.0113663,0.0009,0,0.101104,0.083654,-9.69224,0.0009,0,-0.678571,-0.421316,0.733763,-531,-61362.2,57.01
1437976098,-0.0118142,-0.00359123,-0.00819763,0.000894,-921,0.14751,0.0597554,-9.65227,0.001192,-921,-0.678571,-0.421316,0.733763,-4522,-61362.2,57.01
1437978137,-0.0125508,0.00310883,-0.0114043,0.00105,-1012,-0.0376849,0.104147,-9.71143,0.0009,-1012,-0.69453,-0.412182,0.721264,-6561,-61362.2,57.01
1437983099,-0.0122665,-0.00529354,-0.00789579,0.001043,-987,0.00218541,0.0939578,-9.84268,0.001043,-987,-0.69453,-0.412182,0.721264,-11523,-61362.2,57.01
1437986093,-0.0188833,0.00931659,-0.00809562,0.001043,0,0.0196468,0.114599,-9.66853,0.001043,-967,-0.690907,-0.42301,0.721264,-14517,-61362.2,57.01
1437990058,-0.00617199,-0.0098474,-0.0131623,0.000894,0,-0.0706538,0.143832,-9.73193,0.000894,0,-0.690907,-0.42301,0.721264,-18482,-61362.2,57.01
1437993159,-0.0113272,0.00296297,-0.00652559,0.0009,-1031,-0.0320236,0.121996,-9.69954,0.000894,-1031,-0.690907,-0.42301,0.721264,-1550,-61362.0,57.02
1437996140,-0.0142445,0.00299634,-0.0102465,0.000894,0,-0.00955493,0.063378,-9.61642,0.000894,0,-0.689242,-0.414034,0.726597,-4531,-61362.0,57.02
1438000254,-0.0156218,0.000359929,-0.010448,0.001043,0,0.0233823,0.100683,-9.75478,0.001043,0,-0.689242,-0.414034,0.726597,-8645,-61362.0,57.02
1438003235,-0.0106006,0.000537911,-0.0131251,0.001043,0,0.00804956,0.114382,-9.75713,0.001043,-1088,-0.689242,-0.414034,0.726597,-11626,-61362.0,57.02
1438007125,-0.0137663,0.00123236,-0.0114929,0.000894,0,0.0365951,0.0742462,-9.66895,0.000894,0,-0.675236,-0.425021,0.744232,-15516,-61362.0,57.02
1438011137,-0.0138942,0.000530238,-0.0123783,0.001043,0,0.0100402,0.119149,-9.68005,0.001043,0,-0.675236,-0.425021,0.744232,-19528,-61362.0,57.02
1438014159,-0.0198648,0.00150682,-0.0111629,0.001043,0,-0.0668684,0.0988626,-9.7826,0.001043,0,-0.675236,-0.425021,0.744232,-2590,-61362.8,57.02
1438018231,-0.0112172,-0.00134189,-0.0072979,0.001043,-1059,-0.0600152,0.112465,-9.85778,0.001192,0,-0.672901,-0.433869,0.725128,-6662,-61362.8,57.02
1438021138,-0.0138766,0.00519049,-0.0123255,0.001192,0,0.0290656,0.140172,-9.6455,0.001192,0,-0.672901,-0.433869,0.725128,-9569,-61362.8,57.02
1438024166,-0.0130601,-0.00200714,-0.00948599,0.00105,-1153,0.018351,0.0717574,-9.8551,0.0006,-1153,-0.672901,-0.433869,0.725128,-12597,-61362.8,57.02
1438028116,-0.0126557,0.00787615,-0.00989174,0.000906,0,-0.0354333,0.103304,-9.83713,0.000906,0,-0.673286,-0.41595,0.739163,-16547,-61362.8,57.02
1438031097,-0.0136361,-0.00428755,-0.00976376,0.0009,0,-0.0137568,0.114788,-9.78333,0.0009,0,-0.673286,-0.41595,0.739163,-19528,-61362.8,57.02
1438035170,-0.0159094,0.00059377,-0.0110628,0.001043,0,-0.0468829,0.057413,-9.77524,0.001043,0,-0.667902,-0.424989,0.740963,-3533,-61362.1,57.02
1438039097,-0.0129244,0.000518799,-0.0111033,0.00075,0,0.0379264,0.111964,-9.81348,0.00075,0,-0.667902,-0.424989,0.740963,-7460,-61362.1,57.02
1438042107,-0.014281,0.00271783,-0.00891793,0.0009,0,0.0452702,0.100417,-9.65051,0.0009,0,-0.667902,-0.424989,0.740963,-10470,-61362.1,57.02
1438045173,-0.0111281,0.00112289,-0.0105461,0.001043,0,0.053597,0.0771221,-9.64639,0.001043,0,-0.698717,-0.423201,0.741869,-13536,-61362.1,57.02
1438049156,-0.0156713,0.00612651,-0.00864571,0.001043,0,-0.092538,0.0990821,-9.80725,0.001043,0,-0.698717,-0.423201,0.741869,-17519,-61362.1,57.02
1438053054,-0.01311,-0.00405298,-0.00628362,0.000894,0,0.0801255,0.0597645,-9.65511,0.000894,0,-0.698717,-0.423201,0.741869,-1376,-61362.2,57.02
1438056112,-0.00977405,0.00761122,-0.0127331,0.001043,0,0.035573,0.0235672,-9.62547,0.001043,0,-0.669472,-0.430324,0.732195,-4434,-61362.2,57.02
1438060219,-0.00918556,-0.000692554,-0.0079805,0.001332,-1119,0.0875646,-0.0356526,-9.78073,0.000906,-1119,-0.669472,-0.430324,0.732195,-8541,-61362.2,57.02
1438063063,-0.0126842,0.000439145,-0.0120921,0.0009,0,-0.0485162,0.149884,-9.69494,0.0009,0,-0.669472,-0.430324,0.732195,-11385,-61362.2,57.02
1438067129,-0.0124045,0.00150891,-0.0111866,0.00105,0,0.0166002,0.0557787,-9.70714,0.00105,0,-0.680712,-0.430451,0.745767,-15451,-61362.2,57.02
1438070113,-0.010856,2.14031e-05,-0.00659039,0.00105,0,-0.0282824,0.101354,-9.75483,0.00105,0,-0.680712,-0.430451,0.745767,-18435,-61362.2,57.02
1438074062,-0.0119608,0.00297076,-0.0112676,0.000755,0,-0.0155765,0.160682,-9.69665,0.000755,0,-0.680712,-0.430451,0.745767,-2473,-61362.3,57.02
1438077163,-0.0126623,0.00476682,-0.00965401,0.000894,0,0.0552661,0.111864,-9.63655,0.000894,0,-0.680712,-0.430451,0.745767,-5574,-61362.3,57.02
1438081145,-0.012834,-0.00274756,-0.0131024,0.000894,0,-0.0243042,0.0608552,-9.68991,0.000894,-998,-0.680712,-0.430451,0.745767,-9556,-61362.3,57.02
1438084123,-0.012524,0.00581902,-0.00821962,0.000894,0,-0.0635709,0.0854068,-9.80094,0.000894,0,-0.700194,-0.424894,0.729667,-12534,-61362.3,57.02
1438087143,-0.0177082,-0.00367758,-0.0110466,0.001192,0,-0.0186362,0.0628152,-9.86009,0.001192,0,-0.700194,-0.424894,0.729667,-15554,-61362.3,57.02
1438091158,-0.0109498,-0.00319934,-0.0121889,0.001192,0,-0.00528761,0.110361,-9.69192,0.001192,0,-0.700194,-0.424894,0.729667,-19569,-61362.3,57.02
1438095150,-0.0162255,-0.0023399,-0.0043996,0.001192,0,-0.00905366,0.105516,-9.84926,0.001192,0,-0.682,-0.424862,0.726696,-3622,-61362.5,57.02
1438098211,-0.0149541,0.00184235,-0.0102766,0.0009,0,-0.0609824,0.0930539,-9.80798,0.0009,0,-0.682,-0.424862,0.726696,-6683,-61362.5,57.02
1438101180,-0.0132365,-0.00417112,-0.0141541,0.00105,0,0.0760991,0.149847,-9.89284,0.00105,0,-0.682,-0.424862,0.726696,-9652,-61362.5,57.02
1438104043,-0.00810093,-0.00143557,-0.010829,0.0009,0,0.037251,0.119157,-9.56193,0.0009,-823,-0.68367,-0.412182,0.721561,-12515,-61362.5,57.02
1438107114,-0.0186706,0.000814359,-0.0102992,0.001043,0,0.0148005,0.0833405,-9.72883,0.001043,0,-0.68367,-0.412182,0.721561,-15586,-61362.5,57.02
1438111085,-0.0111095,-0.00113671,-0.0144612,0.000894,0,-0.073958,0.106152,-9.80063,0.000894,0,-0.68367,-0.412182,0.721561,-19557,-61362.5,57.02
1438114157,-0.0175617,0.00469394,-0.00910085,0.001184,0,-0.0436214,0.0905972,-9.85513,0.001184,0,-0.68367,-0.412182,0.721561,-2706,-61362.2,57.02
1438117203,-0.0112444,-0.00263187,-0.0063082,0.000894,0,-0.0314693,0.123779,-9.76338,0.000894,0,-0.68367,-0.412182,0.721561,-5752,-61362.2,57.02
1438121084,-0.0173918,-0.00107154,-0.0120576,0.0009,0,-0.00463606,0.0928177,-9.56293,0.0009,-994,-0.68367,-0.412182,0.721561,-9633,-61362.2,57.02
1438129143,-0.0165784,0.00161359,-0.0144212,0.00105,0,0.0259851,0.0464814,-9.73742,0.00105,0,-0.67886,-0.410584,0.744264,-17692,-61362.2,57.02
1438132062,-0.0136195,0.00190264,-0.00713108,0.000906,0,0.0433296,0.0710391,-9.71071,0.000906,0,-0.69481,-0.430324,0.7315,-547,-61362.3,57.03
1438137188,-0.0150664,0.000687768,-0.00780358,0.001192,0,0.0228284,0.0296506,-9.66914,0.001192,0,-0.69481,-0.430324,0.7315,-5673,-61362.3,57.03
1438140097,-0.00946344,-0.00120921,-0.0161929,0.0009,0,-0.0671267,0.0976529,-9.65681,0.0009,0,-0.69481,-0.430324,0.7315,-8582,-61362.3,57.03
1438144092,-0.0180437,0.000812121,-0.0141896,0.000906,0,0.0513385,0.0844874,-9.87164,0.000906,0,-0.671144,-0.414034,0.727094,-12577,-61362.3,57.03
1438147062,-0.00994309,0.000790963,-0.0116585,0.0009,0,0.0493047,0.127835,-9.7248,0.0009,0,-0.671144,-0.414034,0.727094,-15547,-61362.3,57.03
1438151031,-0.0142965,-0.00171426,-0.0115878,0.00075,0,0.0535393,0.0619428,-9.84129,0.00075,0,-0.671144,-0.414034,0.727094,-19516,-61362.3,57.03
1438154278,-0.012036,0.00201222,-0.00797471,0.001036,0,-0.077907,0.119239,-9.80427,0.001036,-1111,-0.685526,-0.417612,0.723196,-2817,-61362.8,57.02
1438158198,-0.0172031,-0.0014103,-0.00830013,0.001043,0,0.0620649,0.0383326,-9.743,0.001043,0,-0.685526,-0.417612,0.723196,-6737,-61362.8,57.02
1438161213,-0.0065202,-0.00201073,-0.0109908,0.001184,0,-0.0113121,0.0771241,-9.59239,0.001184,0,-0.685526,-0.417612,0.723196,-9752,-61362.8,57.02
1438165202,-0.0207338,0.00641685,-0.0155568,0.001043,-1014,0.0591531,0.0259026,-9.71638,0.001192,0,-0.689048,-0.428408,0.71953,-13741,-61362.8,57.02
1438168122,-0.0141563,0.000724997,-0.0118413,0.001192,0,-0.0516406,0.0980982,-9.82474,0.001192,0,-0.689048,-0.428408,0.71953,-16661,-61362.8,57.02
1438171122,-0.01787,0.00420125,-0.014509,0.00105,0,-0.00593568,0.154868,-9.77117,0.00105,0,-0.685617,-0.43569,0.726498,-19661,-61362.8,57.02
1438175257,-0.00931435,0.00170229,-0.00729389,0.001043,0,0.0757903,0.0137183,-9.55739,0.001043,0,-0.685617,-0.43569,0.726498,-3772,-61362.1,57.02
1438177032,-0.00835553,-0.00101157,-0.00672916,0.00075,0,0.0618629,0.0667896,-9.63839,0.00075,0,-0.685617,-0.43569,0.726498,-5547,-61362.1,57.02
1438182089,-0.00858275,-0.000501432,-0.00621562,0.0009,0,0.02444,0.108236,-9.67696,0.0009,0,-0.712532,-0.415759,0.717266,-10604,-61362.1,57.02
1438186090,-0.0134455,-0.00256677,-0.0134727,0.0009,0,0.0246864,0.0724044,-9.72957,0.0009,0,-0.712532,-0.415759,0.717266,-14605,-61362.1,57.02
1438189033,-0.0105627,-0.00025615,-0.00784851,0.00075,0,-0.037139,0.113748,-9.80115,0.00075,0,-0.712532,-0.415759,0.717266,-17548,-61362.1,57.02
1438193078,-0.0147956,-0.0002946,-0.00958135,0.000894,0,0.0135774,0.139465,-9.73206,0.000894,0,-0.691385,-0.41595,0.738666,-1424,-61362.3,57.03
1438195139,-0.0112661,-0.00511207,-0.0110638,0.001043,0,0.0349914,0.15495,-9.81624,0.001043,0,-0.691385,-0.41595,0.738666,-3485,-61362.3,57.03
1438200128,-0.0159932,-0.00383068,-0.0112452,0.000894,0,0.0121263,0.0942906,-9.89738,0.000894,0,-0.691385,-0.41595,0.738666,-8474,-61362.3,57.03
1438203170,-0.0101637,0.00214512,-0.0068564,0.001192,0,-0.0199691,0.124121,-9.72424,0.001192,0,-0.690723,-0.397682,0.714561,-11516,-61362.3,57.03
1438207120,-0.0127573,-0.00393519,-0.0149762,0.001043,0,0.0408958,0.0645645,-9.69475,0.001043,0,-0.690723,-0.397682,0.714561,-15466,-61362.3,57.03
1438210121,-0.0124539,0.00319189,-0.0121621,0.00105,0,0.125675,0.0698024,-9.55483,0.00105,0,-0.690723,-0.397682,0.714561,-18467,-61362.3,57.03
1438214062,-0.0146597,0.0016151,-0.0145334,0.0009,-689,-0.0140169,0.0244764,-9.72606,0.001043,-689,-0.687482,-0.405027,0.728463,-2410,-61361.9,57.03
1438217128,-0.014755,0.000268497,-0.00875041,0.00105,0,0.059072,0.172214,-9.75863,0.00105,0,-0.687482,-0.405027,0.728463,-5476,-61361.9,57.03
1438221106,-0.0152676,0.00280327,-0.0182692,0.000906,0,-0.0347588,0.147822,-9.77442,0.000906,0,-0.682001,-0.421253,0.726729,-9454,-61361.9,57.03
1438224241,-0.0121592,-0.00505481,-0.00903248,0.001036,0,0.0138473,0.0856463,-9.79385,0.001036,-1026,-0.682001,-0.421253,0.726729,-12589,-61361.9,57.03
1438228110,-0.0151274,0.00468456,-0.0104329,0.0009,-949,-0.0998559,0.108821,-9.74423,0.000894,-949,-0.682001,-0.421253,0.726729,-16458,-61361.9,57.03
1438231174,-0.0137418,-0.000534982,-0.0123838,0.001043,0,0.102009,0.0474304,-9.54028,0.001043,0,-0.698242,-0.423042,0.724532,-19522,-61361.9,57.03
1438235135,-0.0151716,-0.000174773,-0.0102122,0.001043,0,-0.0423704,0.144429,-9.79006,0.001043,0,-0.698242,-0.423042,0.724532,-3544,-61362.0,57.03
1438238125,-0.0119651,0.0023656,-0.00916845,0.001192,0,0.0209712,0.0572668,-9.80875,0.001192,0,-0.698242,-0.423042,0.724532,-6534,-61362.0,57.03
1438242142,-0.0131066,0.000107953,-0.00779318,0.001043,0,0.00297717,0.0361864,-9.73438,0.001043,0,-0.683574,-0.415759,0.718061,-10551,-61362.0,57.03
1438245243,-0.0116602,-9.45013e-05,-0.0105719,0.001043,0,0.0329027,0.0613293,-9.71519,0.001043,0,-0.683574,-0.415759,0.718061,-13652,-61362.0,57.03
1438249153,-0.0153499,0.00492113,-0.0120354,0.001192,0,-0.0642046,0.0869243,-9.78148,0.001192,0,-0.683574,-0.415759,0.718061,-17562,-61362.0,57.03
1438252140,-0.0106197,-0.0016245,-0.00965657,0.0009,0,-0.00294105,0.0574722,-9.75562,0.0009,0,-0.690912,-0.401354,0.721462,-539,-61362.4,57.02
1438256105,-0.0100561,0.00492564,-0.00753842,0.0009,0,-0.0589778,0.0612649,-9.73556,0.0009,0,-0.690912,-0.401354,0.721462,-4504,-61362.4,57.02
1438259100,-0.0147066,-0.00135982,-0.00958867,0.0009,0,-0.0267866,0.140237,-9.73036,0.0009,0,-0.690912,-0.401354,0.721462,-7499,-61362.4,57.02
1438263182,-0.0163196,0.00309488,-0.00998538,0.001043,0,0.0221028,0.105271,-9.65829,0.001043,0,-0.690912,-0.401354,0.721462,-11581,-61362.4,57.02
1438266046,-0.0118289,0.00238147,-0.0108963,0.000894,0,0.069152,0.0150045,-9.73527,0.000894,0,-0.690912,-0.401354,0.721462,-14445,-61362.4,57.02
1438270084,-0.0101055,0.00307453,-0.0089777,0.000894,0,-0.0593744,0.0727074,-9.85204,0.000894,0,-0.70372,-0.417644,0.726167,-18483,-61362.4,57.02
1438273109,-0.0175636,-0.000997782,-0.0118079,0.001043,0,0.00804465,0.0892985,-9.81929,0.001043,0,-0.70372,-0.417644,0.726167,-1557,-61361.4,57.03
1438277122,-0.0124604,0.00876997,-0.0146993,0.001043,0,0.0219882,0.106146,-9.71645,0.001043,0,-0.70372,-0.417644,0.726167,-5570,-61361.4,57.03
1438280193,-0.0161502,-0.00293609,-0.0119962,0.001192,0,0.0417994,0.0336814,-9.61858,0.001192,0,-0.677811,-0.417453,0.706058,-8641,-61361.4,57.03
1438284192,-0.0136874,-0.00127772,-0.0143683,0.001043,0,-0.0144589,0.111665,-9.75983,0.001043,0,-0.677811,-0.417453,0.706058,-12640,-61361.4,57.03
1438287300,-0.0143903,0.00164552,-0.00331359,0.001192,0,0.0195102,0.11095,-9.78824,0.001192,0,-0.677811,-0.417453,0.706058,-15748,-61361.4,57.03
1438291078,-0.0152492,-0.000860127,-0.0118192,0.000755,0,-0.0058002,0.0426291,-9.61651,0.000755,0,-0.698339,-0.415855,0.728066,-19526,-61361.4,57.03
1438294206,-0.015156,-0.00316692,-0.00615402,0.000894,0,-0.00899487,0.0630362,-9.79685,0.000894,0,-0.698339,-0.415855,0.728066,-2762,-61361.9,57.03
1438298104,-0.0141542,0.00663665,-0.0102995,0.0009,0,0.00571505,0.0969383,-9.75103,0.0009,0,-0.698339,-0.415855,0.728066,-6660,-61361.9,57.03
1438301138,-0.0129195,-0.00256905,-0.00629015,0.001043,0,0.109254,0.0572599,-9.6796,0.001043,0,-0.698339,-0.415855,0.728066,-9694,-61361.9,57.03
1438305046,-0.0140956,0.00144815,-0.015674,0.0009,0,-0.0646821,0.0642848,-9.76044,0.0009,0,-0.698339,-0.415855,0.728066,-13602,-61361.9,57.03
1438308085,-0.0197134,-0.000497257,-0.00836064,0.001043,0,0.0388667,0.0312817,-9.79537,0.001043,0,-0.698339,-0.415855,0.728066,-16641,-61361.9,57.03
1438312055,-0.0114287,0.000946528,-0.00929995,0.0009,0,0.0317118,0.0911073,-9.68011,0.0009,0,-0.698247,-0.401386,0.724731,-585,-61362.7,57.02
1438315145,-0.0127725,-0.00247554,-0.0112998,0.001184,0,0.0169285,0.028382,-9.69416,0.001184,0,-0.698247,-0.401386,0.724731,-3675,-61362.7,57.02
1438319228,-0.00872426,-0.000341325,-0.0140036,0.001332,0,-0.0687198,0.105326,-9.75392,0.001332,0,-0.68534,-0.403111,0.716394,-7758,-61362.7,57.02
1438322121,-0.021805,0.00556492,-0.00980877,0.0009,0,0.0475322,0.079095,-9.89296,0.0009,0,-0.68534,-0.403111,0.716394,-10651,-61362.7,57.02
1438326193,-0.0101234,0.000544886,-0.0138732,0.00105,0,0.00303391,0.0584367,-9.66163,0.00105,0,-0.68534,-0.403111,0.716394,-14723,-61362.7,57.02
1438329110,-0.0155014,-0.00254229,-0.00651301,0.0009,0,0.0724695,0.0481671,-9.69615,0.0009,0,-0.692673,-0.406752,0.719629,-17640,-61362.7,57.02
1438333102,-0.010518,-0.0036027,-0.016599,0.0009,-919,-0.0242794,0.0966472,-9.80095,0.001043,-919,-0.692673,-0.406752,0.719629,-1483,-61362.4,57.03
1438336147,-0.0209652,0.00223485,-0.0145231,0.0009,0,0.0746952,0.0725873,-9.74816,0.0009,0,-0.692673,-0.406752,0.719629,-4528,-61362.4,57.03
1438340185,-0.0115261,0.00144677,-0.0126855,0.001043,0,-0.00885462,0.13474,-9.73962,0.001043,0,-0.684957,-0.410203,0.702458,-8566,-61362.4,57.03
1438343086,-0.0144934,0.00193681,-0.0108847,0.000894,0,-0.0202608,0.0733808,-9.8809,0.000894,0,-0.684957,-0.410203,0.702458,-11467,-61362.4,57.03
1438347048,-0.0125422,0.00057518,-0.00755773,0.000894,0,0.0390731,0.0905032,-9.70107,0.000894,0,-0.684957,-0.410203,0.702458,-15429,-61362.4,57.03
1438350149,-0.0169821,-0.00161555,-0.010808,0.001192,0,0.0429549,-0.0297795,-9.71524,0.001192,-1011,-0.699909,-0.421189,0.719298,-18530,-61362.4,57.03
1438354144,-0.0109332,0.00768127,-0.0152192,0.001192,0,-0.0563975,0.0556087,-9.79323,0.001192,0,-0.699909,-0.421189,0.719298,-2428,-61361.8,57.03
1438357151,-0.0161008,-0.00441612,-0.012408,0.00105,0,0.0292742,0.0582974,-9.83234,0.00105,-1058,-0.699909,-0.421189,0.719298,-5435,-61361.8,57.03
1438361131,-0.00673758,0.00291684,-0.0152049,0.001043,0,0.00340627,0.0908275,-9.68767,0.001043,-976,-0.677908,-0.410266,0.709592,-9415,-61361.8,57.03
1438364207,-0.0159871,-0.00100476,-0.0110034,0.001043,0,0.0741177,0.084765,-9.73335,0.001043,0,-0.677908,-0.410266,0.709592,-12491,-61361.8,57.03
1438367091,-0.0105089,0.00770431,-0.0104561,0.0009,0,0.0104195,0.0998375,-9.76245,0.0009,0,-0.708914,-0.408541,0.717432,-15375,-61361.8,57.03
1438371141,-0.0124761,-0.00437421,-0.00857821,0.001043,0,0.040181,0.0891827,-9.76846,0.001043,0,-0.708914,-0.408541,0.717432,-19425,-61361.8,57.03
1438375127,-0.0100303,0.00443128,-0.0117163,0.0009,0,-0.0816972,0.137887,-9.69317,0.0009,0,-0.708914,-0.408541,0.717432,-3523,-61361.8,57.03
1438378121,-0.0153232,-0.00215304,-0.0102345,0.001043,0,-0.0201052,0.0787713,-9.82838,0.001043,0,-0.712723,-0.412214,0.724234,-6517,-61361.8,57.03
1438382067,-0.0123781,0.00131055,-0.0102996,0.0009,0,0.0672565,0.138876,-9.70983,0.0009,0,-0.712723,-0.412214,0.724234,-10463,-61361.8,57.03
1438385077,-0.0163369,0.0019731,-0.0121276,0.00105,0,0.0634567,0.0780162,-9.66903,0.00105,0,-0.712723,-0.412214,0.724234,-13473,-61361.8,57.03
1438389152,-0.013933,-0.00290693,-0.0109645,0.001043,-1078,0.112529,0.0494197,-9.614,0.0009,-1078,-0.705013,-0.394009,0.707262,-17548,-61361.8,57.03
1438392280,-0.0135721,-0.00175077,-0.0153337,0.000894,0,0.00262383,0.101894,-9.81294,0.000894,0,-0.705013,-0.394009,0.707262,-524,-61362.0,57.03
1438395108,-0.015426,0.00206959,-0.0060246,0.0009,0,0.0566624,0.0980988,-9.74563,0.0009,0,-0.705013,-0.394009,0.707262,-3352,-61362.0,57.03
1438399145,-0.00919412,0.00468049,-0.00982606,0.0009,0,0.00188996,0.0795681,-9.77165,0.0009,0,-0.688672,-0.410234,0.705826,-7389,-61362.0,57.03
1438403128,-0.0121216,0.00121853,-0.00993814,0.0009,0,0.00878341,0.125097,-9.73192,0.0009,0,-0.688672,-0.410234,0.705826,-11372,-61362.0,57.03
1438406147,-0.0144087,0.00305988,-0.00749736,0.0009,0,0.0670531,0.0824091,-9.73151,0.0009,0,-0.678195,-0.403143,0.72006,-14391,-61362.0,57.03
1438409136,-0.0111437,-0.00174012,-0.0067413,0.000894,0,0.0830206,0.0966457,-9.71697,0.000894,0,-0.678195,-0.403143,0.72006,-17380,-61362.0,57.03
1438413118,-0.0168792,0.000431007,-0.0113192,0.0009,0,-0.0127221,0.0865343,-9.79195,0.0009,0,-0.678195,-0.403143,0.72006,-1510,-61362.0,57.03
1438417121,-0.00927681,-2.25991e-05,-0.0100491,0.000894,0,0.0806181,0.0599292,-9.67306,0.000894,0,-0.683098,-0.4156,0.700725,-5513,-61362.0,57.03
1438420115,-0.0125233,0.00545149,-0.00963123,0.001043,0,-0.012569,0.0691959,-9.67907,0.001043,0,-0.683098,-0.4156,0.700725,-8507,-61362.0,57.03
1438424145,-0.0101591,-0.00195274,-0.0153434,0.001043,0,-0.0759697,0.104037,-9.78759,0.001043,-954,-0.683098,-0.4156,0.700725,-12537,-61362.0,57.03
1438427168,-0.0152837,-0.000871612,-0.0120201,0.001192,0,-0.0593344,0.139827,-9.83894,0.001192,0,-0.683479,-0.415728,0.714594,-15560,-61362.0,57.03
1438431104,-0.0127074,-0.00380768,-0.0112436,0.001192,0,0.0831746,0.0825956,-9.63167,0.001192,0,-0.683479,-0.415728,0.714594,-19496,-61362.0,57.03
1438434107,-0.0187019,0.00810903,-0.0160945,0.000906,0,-0.0193671,0.0961552,-9.70981,0.000906,0,-0.683479,-0.415728,0.714594,-2488,-61362.0,57.03
1438438121,-0.0130019,0.000717726,-0.00375024,0.0009,0,-0.0153228,0.169864,-9.65353,0.0009,-1003,-0.683667,-0.426619,0.721429,-6502,-61362.0,57.03
1438441061,-0.0153029,-0.00169473,-0.0137466,0.00075,0,-0.010555,0.0854193,-9.68763,0.00075,0,-0.683667,-0.426619,0.721429,-9442,-61362.0,57.03
1438445177,-0.015385,-0.0089967,-0.0107557,0.001043,0,0.0214468,0.134923,-9.60944,0.001043,0,-0.676718,-0.405059,0.732228,-13558,-61362.0,57.03
1438448100,-0.0137282,0.00911647,-0.00964337,0.000894,0,-0.0528547,0.124895,-9.79868,0.000894,0,-0.676718,-0.405059,0.732228,-16481,-61362.0,57.03
1438452222,-0.0105413,-0.00375436,-0.00973738,0.001043,0,0.0584348,0.0480663,-9.68553,0.001043,-1044,-0.676718,-0.405059,0.732228,-553,-61362.5,57.04
1438455159,-0.00965596,0.00902444,-0.00917723,0.0009,0,0.01254,0.0805902,-9.66516,0.0009,0,-0.676718,-0.405059,0.732228,-3490,-61362.5,57.04
1438459182,-0.0110999,0.000498153,-0.00880025,0.001036,0,-0.0292599,0.103877,-9.69427,0.001036,0,-0.671427,-0.421348,0.737429,-7513,-61362.5,57.04
1438462151,-0.0172716,0.000795846,-0.0123924,0.001184,0,-0.0111556,0.114492,-9.8163,0.001184,0,-0.671427,-0.421348,0.737429,-10482,-61362.5,57.04
1438466089,-0.014782,-0.000197093,-0.00776583,0.001043,0,0.0596022,0.0383057,-9.55351,0.001043,0,-0.683765,-0.415823,0.724996,-14420,-61362.5,57.04
1438469058,-0.0116611,0.00220068,-0.0105382,0.0009,0,-0.0435551,0.122806,-9.65753,0.0009,0,-0.683765,-0.415823,0.724996,-17389,-61362.5,57.04
1438473104,-0.0138951,-0.00410757,-0.0100356,0.0009,0,0.0522455,0.0728147,-9.6865,0.0009,0,-0.683765,-0.415823,0.724996,-1508,-61362.8,57.03
1438476242,-0.0109977,0.000912766,-0.0125236,0.001043,0,0.0576537,0.145289,-9.73188,0.001043,0,-0.715679,-0.404773,0.69993,-4646,-61362.8,57.03
1438480154,-0.00970673,-0.000127981,-0.00686471,0.00105,0,0.0561484,0.0886931,-9.78924,0.00105,0,-0.715679,-0.404773,0.69993,-8558,-61362.8,57.03
1438483077,-0.0148504,0.00232674,-0.0108199,0.00075,0,-0.110684,0.132641,-9.87916,0.00075,0,-0.715679,-0.404773,0.69993,-11481,-61362.8,57.03
1438487047,-0.0122028,-0.00286256,-0.0140985,0.00075,0,0.0446139,0.0998242,-9.58586,0.00075,0,-0.715679,-0.404773,0.69993,-15451,-61362.8,57.03
1438490180,-0.0167702,0.00411128,-0.00465987,0.001036,-1093,-0.0148381,0.118606,-9.69613,0.001043,-1093,-0.715679,-0.404773,0.69993,-18584,-61362.8,57.03
1438494043,-0.0130942,-0.0241824,0.0106191,0.00075,-849,0.570441,0.389307,-8.96598,0.001332,-849,-0.715679,-0.404773,0.69993,-2545,-61362.1,57.04
1438497101,0.0334044,0.0511031,-0.00787615,0.001043,0,0.680429,-0.180418,-8.36209,0.001043,0,-0.680329,-0.441151,0.731798,-5603,-61362.1,57.04
1438501182,-0.012852,-0.0176155,-0.0448109,0.001192,0,-0.61741,0.027646,-9.72924,0.001192,0,-0.680329,-0.441151,0.731798,-9684,-61362.1,57.04
1438504155,-0.0481688,-0.0275887,-0.0421225,0.00105,0,0.627185,0.672385,-11.322,0.00105,0,-0.680329,-0.441151,0.731798,-12657,-61362.1,57.04
1438507140,0.0043756,0.066969,-0.00595176,0.0009,0,0.672216,0.0576157,-6.09478,0.0009,0,-0.640785,-0.491776,0.74283,-15642,-61362.1,57.04
1438511044,0.0126675,0.036709,0.0219732,0.000906,0,-0.151601,0.151977,-10.8407,0.000906,0,-0.640785,-0.491776,0.74283,-19546,-61362.1,57.04
1438515128,0.0202238,-0.0511148,-0.00420192,0.0009,0,-1.42972,-0.210895,-12.4288,0.0009,-1072,-0.718796,-0.496053,0.813524,-3500,-61362.5,57.04
1438518264,-0.0958388,-0.0225347,-0.0219939,0.001036,0,-0.166799,-0.0817314,-11.6522,0.001036,0,-0.718796,-0.496053,0.813524,-6636,-61362.5,57.04
1438522078,-0.0281075,0.0676482,-0.0131424,0.0009,0,1.17339,-0.221403,-5.59297,0.0009,0,-0.718796,-0.496053,0.813524,-10450,-61362.5,57.04
1438525091,0.0900278,0.0544583,-0.014018,0.000894,0,0.568585,0.285768,-6.21689,0.000894,0,-0.718796,-0.496053,0.813524,-13463,-61362.5,57.04
1438529066,-0.087846,-0.021222,-0.0238559,0.0009,0,0.0772735,0.495985,-13.6679,0.0009,0,-0.718796,-0.496053,0.813524,-17438,-61362.5,57.04
