timestamp,x_acc,y_acc,z_acc,x_vel,y_vel,z_vel,x_pos,y_pos,z_pos,airspeed,vel_variance[0],vel_variance[1],vel_variance[2],pos_variance[0],pos_variance[1],pos_variance[2],q[0],q[1],q[2],q[3],delta_q_reset[0],delta_q_reset[1],delta_q_reset[2],delta_q_reset[3],roll_rate,pitch_rate,yaw_rate,horz_acc_mag,roll_rate_bias,pitch_rate_bias,yaw_rate_bias,airspeed_valid,quat_reset_counter
1437080051,0.0,0.0,0.0,0.0,0.0,0.0,0.0,0.0,0.0,0.0,0.0,0.0,0.0,0.0,0.0,0.0,0.887963,0.00916987,0.00310918,0.459814,0.0,0.0,0.0,0.0,0.00144379,-0.00444691,0.00479555,0.0,0.0,0.0,0.0,0,0
1437101110,0.0,0.0,0.0,0.0,0.0,0.0,0.0,0.0,0.0,0.0,0.0,0.0,0.0,0.0,0.0,0.0,0.887958,0.00915746,0.00309933,0.459823,0.0,0.0,0.0,0.0,0.00350417,-0.000469979,0.00433959,0.0,0.0,0.0,0.0,0,0
1437121100,0.0,0.0,0.0,0.0,0.0,0.0,0.0,0.0,0.0,0.0,0.0,0.0,0.0,0.0,0.0,0.0,0.887961,0.00914456,0.00310912,0.459818,0.0,0.0,0.0,0.0,0.000722747,0.00366504,0.00342881,0.0,0.0,0.0,0.0,0,0
1437143129,0.0,0.0,0.0,0.0,0.0,0.0,0.0,0.0,0.0,0.0,0.0,0.0,0.0,0.0,0.0,0.0,0.887959,0.0091293,0.00313583,0.459821,0.0,0.0,0.0,0.0,0.00246828,-0.00305388,0.00465237,0.0,0.0,0.0,0.0,0,0
1437164156,0.0,0.0,0.0,0.0,0.0,0.0,0.0,0.0,0.0,0.0,0.0,0.0,0.0,0.0,0.0,0.0,0.887961,0.00911407,0.00313973,0.459819,0.0,0.0,0.0,0.0,0.00201904,0.00122686,0.00805201,0.0,0.0,0.0,0.0,0,0
1437185154,0.0,0.0,0.0,0.0,0.0,0.0,0.0,0.0,0.0,0.0,0.0,0.0,0.0,0.0,0.0,0.0,0.887964,0.00909545,0.00314332,0.459813,0.0,0.0,0.0,0.0,-0.0010762,0.0060556,0.00273021,0.0,0.0,0.0,0.0,0,0
1437206235,0.0,0.0,0.0,0.0,0.0,0.0,0.0,0.0,0.0,0.0,0.0,0.0,0.0,0.0,0.0,0.0,0.887963,0.00908951,0.00313123,0.459815,0.0,0.0,0.0,0.0,0.000253222,-0.0034382,0.00418785,0.0,0.0,0.0,0.0,0,0
1437227126,0.0,0.0,0.0,0.0,0.0,0.0,0.0,0.0,0.0,0.0,0.0,0.0,0.0,0.0,0.0,0.0,0.887962,0.00906495,0.00311162,0.459818,0.0,0.0,0.0,0.0,-0.00405901,0.00327217,0.00760599,0.0,0.0,0.0,0.0,0,0
1437248192,0.0,0.0,0.0,0.0,0.0,0.0,0.0,0.0,0.0,0.0,0.0,0.0,0.0,0.0,0.0,0.0,0.887962,0.00904887,0.00311909,0.459818,0.0,0.0,0.0,0.0,0.00202725,0.00673129,-0.00241999,0.0,0.0,0.0,0.0,0,0
1437269035,0.0,0.0,0.0,0.0,0.0,0.0,0.0,0.0,0.0,0.0,0.0,0.0,0.0,0.0,0.0,0.0,0.887966,0.00902263,0.00312081,0.45981,0.0,0.0,0.0,0.0,-0.00314227,-0.00580794,0.00108557,0.0,0.0,0.0,0.0,0,0
1437287272,0.0,0.0,0.0,0.0,0.0,0.0,0.0,0.0,0.0,0.0,0.0,0.0,0.0,0.0,0.0,0.0,0.887975,0.00901334,0.00312115,0.459793,0.0,0.0,0.0,0.0,0.00225166,-0.000429466,0.00474225,0.0,0.0,0.0,0.0,0,0
1437310109,0.0,0.0,0.0,0.0,0.0,0.0,0.0,0.0,0.0,0.0,0.0,0.0,0.0,0.0,0.0,0.0,0.887979,0.00899647,0.00310509,0.459785,0.0,0.0,0.0,0.0,-0.000995045,-0.00212521,0.0026563,0.0,0.0,0.0,0.0,0,0
1437332119,0.0,0.0,0.0,0.0,0.0,0.0,0.0,0.0,0.0,0.0,0.0,0.0,0.0,0.0,0.0,0.0,0.887982,0.00897381,0.00309063,0.45978,0.0,0.0,0.0,0.0,-0.00446477,0.00126952,0.00259082,0.0,0.0,0.0,0.0,0,0
1437353120,0.0,0.0,0.0,0.0,0.0,0.0,0.0,0.0,0.0,0.0,0.0,0.0,0.0,0.0,0.0,0.0,0.88798,0.00895491,0.00308924,0.459786,0.0,0.0,0.0,0.0,0.00396092,0.00257471,0.00348347,0.0,0.0,0.0,0.0,0,0
1437369175,0.0,0.0,0.0,0.0,0.0,0.0,0.0,0.0,0.0,0.0,0.0,0.0,0.0,0.0,0.0,0.0,0.887979,0.0089365,0.0030796,0.459787,0.0,0.0,0.0,0.0,-0.0025686,-0.001381,0.00597586,0.0,0.0,0.0,0.0,0,0
1437392099,0.0,0.0,0.0,0.0,0.0,0.0,0.0,0.0,0.0,0.0,0.0,0.0,0.0,0.0,0.0,0.0,0.887979,0.00890955,0.00307686,0.459788,0.0,0.0,0.0,0.0,0.00615654,0.00103681,0.00439715,0.0,0.0,0.0,0.0,0,0
1437415186,0.0,0.0,0.0,0.0,0.0,0.0,0.0,0.0,0.0,0.0,0.0,0.0,0.0,0.0,0.0,0.0,0.88798,0.00888806,0.00310303,0.459786,0.0,0.0,0.0,0.0,0.00483662,-0.00108693,0.00674473,0.0,0.0,0.0,0.0,0,0
1437437278,0.0,0.0,0.0,0.0,0.0,0.0,0.0,0.0,0.0,0.0,0.0,0.0,0.0,0.0,0.0,0.0,0.887977,0.00887066,0.0031037,0.459792,0.0,0.0,0.0,0.0,0.00262072,0.000965073,-0.000951936,0.0,0.0,0.0,0.0,0,0
1437458093,0.0,0.0,0.0,0.0,0.0,0.0,0.0,0.0,0.0,0.0,0.0,0.0,0.0,0.0,0.0,0.0,0.887976,0.00885306,0.00310376,0.459794,0.0,0.0,0.0,0.0,0.00254856,-0.00292647,0.00988191,0.0,0.0,0.0,0.0,0,0
1437479049,0.0,0.0,0.0,0.0,0.0,0.0,0.0,0.0,0.0,0.0,0.0,0.0,0.0,0.0,0.0,0.0,0.887979,0.00884147,0.00311052,0.459789,0.0,0.0,0.0,0.0,0.00645926,0.00139178,0.00806088,0.0,0.0,0.0,0.0,0,0
1437500111,0.0,0.0,0.0,0.0,0.0,0.0,0.0,0.0,0.0,0.0,0.0,0.0,0.0,0.0,0.0,0.0,0.887982,0.0088146,0.00310706,0.459783,0.0,0.0,0.0,0.0,0.00451098,0.000483147,0.00437891,0.0,0.0,0.0,0.0,0,0
1437521100,0.0,0.0,0.0,0.0,0.0,0.0,0.0,0.0,0.0,0.0,0.0,0.0,0.0,0.0,0.0,0.0,0.887985,0.00879275,0.00311338,0.459778,0.0,0.0,0.0,0.0,0.00332745,-0.00410472,0.00093819,0.0,0.0,0.0,0.0,0,0
1437542129,0.0,0.0,0.0,0.0,0.0,0.0,0.0,0.0,0.0,0.0,0.0,0.0,0.0,0.0,0.0,0.0,0.887979,0.00878,0.00310819,0.45979,0.0,0.0,0.0,0.0,-0.000406171,-0.00143707,0.00869224,0.0,0.0,0.0,0.0,0,0
1437563177,0.0,0.0,0.0,0.0,0.0,0.0,0.0,0.0,0.0,0.0,0.0,0.0,0.0,0.0,0.0,0.0,0.887976,0.00877714,0.00310348,0.459796,0.0,0.0,0.0,0.0,-0.000184519,0.00170297,0.000170946,0.0,0.0,0.0,0.0,0,0
1437584181,0.0,0.0,0.0,0.0,0.0,0.0,0.0,0.0,0.0,0.0,0.0,0.0,0.0,0.0,0.0,0.0,0.887976,0.00875632,0.00310047,0.459797,0.0,0.0,0.0,0.0,-0.00242482,-0.00362538,0.00457719,0.0,0.0,0.0,0.0,0,0
1437604139,0.0,0.0,0.0,0.0,0.0,0.0,0.0,0.0,0.0,0.0,0.0,0.0,0.0,0.0,0.0,0.0,0.887977,0.00873842,0.00309457,0.459795,0.0,0.0,0.0,0.0,0.00146492,0.00187084,0.00154592,0.0,0.0,0.0,0.0,0,0
1437626157,0.0,0.0,0.0,0.0,0.0,0.0,0.0,0.0,0.0,0.0,0.0,0.0,0.0,0.0,0.0,0.0,0.887977,0.00871815,0.00309771,0.459794,0.0,0.0,0.0,0.0,0.00328491,0.00496963,0.00406341,0.0,0.0,0.0,0.0,0,0
1437647099,0.0,0.0,0.0,0.0,0.0,0.0,0.0,0.0,0.0,0.0,0.0,0.0,0.0,0.0,0.0,0.0,0.887979,0.00869375,0.00308638,0.459792,0.0,0.0,0.0,0.0,-0.00151064,0.00170357,0.0081589,0.0,0.0,0.0,0.0,0,0
1437668079,0.0,0.0,0.0,0.0,0.0,0.0,0.0,0.0,0.0,0.0,0.0,0.0,0.0,0.0,0.0,0.0,0.887979,0.0086797,0.00309999,0.459792,0.0,0.0,0.0,0.0,-0.00497861,0.00571003,0.000648542,0.0,0.0,0.0,0.0,0,0
1437687091,0.0,0.0,0.0,0.0,0.0,0.0,0.0,0.0,0.0,0.0,0.0,0.0,0.0,0.0,0.0,0.0,0.887975,0.00867,0.00309993,0.4598,0.0,0.0,0.0,0.0,0.00125357,0.00236711,0.00477199,0.0,0.0,0.0,0.0,0,0
1437710128,0.0,0.0,0.0,0.0,0.0,0.0,0.0,0.0,0.0,0.0,0.0,0.0,0.0,0.0,0.0,0.0,0.887974,0.0086521,0.00310196,0.459803,0.0,0.0,0.0,0.0,-0.00384554,0.000689958,0.00297491,0.0,0.0,0.0,0.0,0,0
1437731157,0.0,0.0,0.0,0.0,0.0,0.0,0.0,0.0,0.0,0.0,0.0,0.0,0.0,0.0,0.0,0.0,0.887979,0.00864006,0.00309204,0.459792,0.0,0.0,0.0,0.0,5.7674e-05,-0.00119027,-0.0010562,0.0,0.0,0.0,0.0,0,0
1437752068,0.0,0.0,0.0,0.0,0.0,0.0,0.0,0.0,0.0,0.0,0.0,0.0,0.0,0.0,0.0,0.0,0.887978,0.00861694,0.00308396,0.459794,0.0,0.0,0.0,0.0,0.000863231,0.00776323,0.00400257,0.0,0.0,0.0,0.0,0,0
1437773175,0.0,0.0,0.0,0.0,0.0,0.0,0.0,0.0,0.0,0.0,0.0,0.0,0.0,0.0,0.0,0.0,0.887975,0.00859269,0.00308862,0.4598,0.0,0.0,0.0,0.0,0.00145772,0.00427679,0.00498912,0.0,0.0,0.0,0.0,0,0
1437793181,0.0,0.0,0.0,0.0,0.0,0.0,0.0,0.0,0.0,0.0,0.0,0.0,0.0,0.0,0.0,0.0,0.887976,0.00857175,0.00309078,0.4598,0.0,0.0,0.0,0.0,0.00237813,0.00206644,0.00510202,0.0,0.0,0.0,0.0,0,0
1437815091,0.0,0.0,0.0,0.0,0.0,0.0,0.0,0.0,0.0,0.0,0.0,0.0,0.0,0.0,0.0,0.0,0.887971,0.00854165,0.00309514,0.45981,0.0,0.0,0.0,0.0,0.00126007,0.000997524,0.0049051,0.0,0.0,0.0,0.0,0,0
1437836130,0.0,0.0,0.0,0.0,0.0,0.0,0.0,0.0,0.0,0.0,0.0,0.0,0.0,0.0,0.0,0.0,0.887973,0.00852265,0.0031029,0.459805,0.0,0.0,0.0,0.0,0.00137904,-0.000325328,0.00477701,0.0,0.0,0.0,0.0,0,0
1437857209,0.0,0.0,0.0,0.0,0.0,0.0,0.0,0.0,0.0,0.0,0.0,0.0,0.0,0.0,0.0,0.0,0.887973,0.00851491,0.00308269,0.459807,0.0,0.0,0.0,0.0,0.00580556,-0.00233346,0.00897734,0.0,0.0,0.0,0.0,0,0
1437878223,0.0,0.0,0.0,0.0,0.0,0.0,0.0,0.0,0.0,0.0,0.0,0.0,0.0,0.0,0.0,0.0,0.887972,0.00848478,0.00310033,0.459809,0.0,0.0,0.0,0.0,0.00522077,0.00648195,0.0050019,0.0,0.0,0.0,0.0,0,0
1437899146,0.0,0.0,0.0,0.0,0.0,0.0,0.0,0.0,0.0,0.0,0.0,0.0,0.0,0.0,0.0,0.0,0.887975,0.0084693,0.00308732,0.459803,0.0,0.0,0.0,0.0,0.00619866,-0.00412114,0.00464924,0.0,0.0,0.0,0.0,0,0
1437920134,0.0,0.0,0.0,0.0,0.0,0.0,0.0,0.0,0.0,0.0,0.0,0.0,0.0,0.0,0.0,0.0,0.887973,0.00844625,0.00307041,0.459808,0.0,0.0,0.0,0.0,0.00329689,-0.00332057,0.00354171,0.0,0.0,0.0,0.0,0,0
1437941126,0.0,0.0,0.0,0.0,0.0,0.0,0.0,0.0,0.0,0.0,0.0,0.0,0.0,0.0,0.0,0.0,0.887973,0.00843263,0.00307294,0.459809,0.0,0.0,0.0,0.0,0.00197259,-0.00180502,0.00934394,0.0,0.0,0.0,0.0,0,0
1437961142,0.0,0.0,0.0,0.0,0.0,0.0,0.0,0.0,0.0,0.0,0.0,0.0,0.0,0.0,0.0,0.0,0.887973,0.00842388,0.0030597,0.459808,0.0,0.0,0.0,0.0,0.000154375,-0.000362522,0.00205815,0.0,0.0,0.0,0.0,0,0
1437983099,0.0,0.0,0.0,0.0,0.0,0.0,0.0,0.0,0.0,0.0,0.0,0.0,0.0,0.0,0.0,0.0,0.887977,0.00840456,0.00304836,0.459801,0.0,0.0,0.0,0.0,0.00191032,-0.00447161,0.00613249,0.0,0.0,0.0,0.0,0,0
1438003235,0.0,0.0,0.0,0.0,0.0,0.0,0.0,0.0,0.0,0.0,0.0,0.0,0.0,0.0,0.0,0.0,0.887979,0.00839114,0.00304535,0.459797,0.0,0.0,0.0,0.0,0.00457583,0.00167322,0.00243792,0.0,0.0,0.0,0.0,0,0
1438024166,0.0,0.0,0.0,0.0,0.0,0.0,0.0,0.0,0.0,0.0,0.0,0.0,0.0,0.0,0.0,0.0,0.88798,0.00836316,0.00304207,0.459796,0.0,0.0,0.0,0.0,0.00121801,-0.00191624,0.00114987,0.0,0.0,0.0,0.0,0,0
1438045173,0.0,0.0,0.0,0.0,0.0,0.0,0.0,0.0,0.0,0.0,0.0,0.0,0.0,0.0,0.0,0.0,0.88798,0.00834337,0.00304628,0.459797,0.0,0.0,0.0,0.0,-0.00107968,0.00337582,0.00426406,0.0,0.0,0.0,0.0,0,0
1438067129,0.0,0.0,0.0,0.0,0.0,0.0,0.0,0.0,0.0,0.0,0.0,0.0,0.0,0.0,0.0,0.0,0.88798,0.00832158,0.00305998,0.459797,0.0,0.0,0.0,0.0,-0.0064692,0.0013619,0.003714,0.0,0.0,0.0,0.0,0,0
1438087143,0.0,0.0,0.0,0.0,0.0,0.0,0.0,0.0,0.0,0.0,0.0,0.0,0.0,0.0,0.0,0.0,0.887975,0.00830102,0.0030766,0.459806,0.0,0.0,0.0,0.0,-0.00312049,-0.00160989,0.00740055,0.0,0.0,0.0,0.0,0,0
1438104043,0.0,0.0,0.0,0.0,0.0,0.0,0.0,0.0,0.0,0.0,0.0,0.0,0.0,0.0,0.0,0.0,0.887975,0.00829518,0.00306192,0.459807,0.0,0.0,0.0,0.0,0.0060913,-2.26072e-05,0.00628881,0.0,0.0,0.0,0.0,0,0
1438129143,0.0,0.0,0.0,0.0,0.0,0.0,0.0,0.0,0.0,0.0,0.0,0.0,0.0,0.0,0.0,0.0,0.887975,0.00825923,0.00306267,0.459808,0.0,0.0,0.0,0.0,-0.00127543,0.0038601,-0.00162682,0.0,0.0,0.0,0.0,0,0
1438151031,0.0,0.0,0.0,0.0,0.0,0.0,0.0,0.0,0.0,0.0,0.0,0.0,0.0,0.0,0.0,0.0,0.887974,0.00824563,0.00306382,0.45981,0.0,0.0,0.0,0.0,0.00302413,-0.00131145,0.00132201,0.0,0.0,0.0,0.0,0,0
1438171122,0.0,0.0,0.0,0.0,0.0,0.0,0.0,0.0,0.0,0.0,0.0,0.0,0.0,0.0,0.0,0.0,0.887974,0.00822433,0.00306624,0.45981,0.0,0.0,0.0,0.0,-0.0026939,0.00594629,-0.0029406,0.0,0.0,0.0,0.0,0,0
1438193078,0.0,0.0,0.0,0.0,0.0,0.0,0.0,0.0,0.0,0.0,0.0,0.0,0.0,0.0,0.0,0.0,0.887978,0.00822128,0.00307013,0.459801,0.0,0.0,0.0,0.0,0.000212431,0.00165672,0.00441656,0.0,0.0,0.0,0.0,0,0
1438214062,0.0,0.0,0.0,0.0,0.0,0.0,0.0,0.0,0.0,0.0,0.0,0.0,0.0,0.0,0.0,0.0,0.887975,0.00821239,0.00306351,0.459808,0.0,0.0,0.0,0.0,0.00272118,-0.00113012,0.0025933,0.0,0.0,0.0,0.0,0,0
1438234166,0.0,0.0,0.0,0.0,0.0,0.0,0.0,0.0,0.0,0.0,0.0,0.0,0.0,0.0,0.0,0.0,0.887975,0.0081838,0.00304988,0.459808,0.0,0.0,0.0,0.0,0.00274677,0.00170664,0.00362453,0.0,0.0,0.0,0.0,0,0
1438256105,0.0,0.0,0.0,0.0,0.0,0.0,0.0,0.0,0.0,0.0,0.0,0.0,0.0,0.0,0.0,0.0,0.88798,0.00817169,0.00305578,0.459799,0.0,0.0,0.0,0.0,0.00426694,0.00590064,0.00673519,0.0,0.0,0.0,0.0,0,0
1438277122,0.0,0.0,0.0,0.0,0.0,0.0,0.0,0.0,0.0,0.0,0.0,0.0,0.0,0.0,0.0,0.0,0.88798,0.00815585,0.00305531,0.459799,0.0,0.0,0.0,0.0,0.00333501,0.00634807,0.00273993,0.0,0.0,0.0,0.0,0,0
1438297084,0.0,0.0,0.0,0.0,0.0,0.0,0.0,0.0,0.0,0.0,0.0,0.0,0.0,0.0,0.0,0.0,0.887977,0.00814129,0.0030488,0.459806,0.0,0.0,0.0,0.0,0.00523043,-0.00296553,0.00827155,0.0,0.0,0.0,0.0,0,0
1438318094,0.0,0.0,0.0,0.0,0.0,0.0,0.0,0.0,0.0,0.0,0.0,0.0,0.0,0.0,0.0,0.0,0.887982,0.00812635,0.00304975,0.459796,0.0,0.0,0.0,0.0,0.0035353,-0.0015359,0.00796686,0.0,0.0,0.0,0.0,0,0
1438340185,0.0,0.0,0.0,0.0,0.0,0.0,0.0,0.0,0.0,0.0,0.0,0.0,0.0,0.0,0.0,0.0,0.887978,0.00810776,0.00303777,0.459804,0.0,0.0,0.0,0.0,0.0075618,-0.00246861,0.00407111,0.0,0.0,0.0,0.0,0,0
1438360155,0.0,0.0,0.0,0.0,0.0,0.0,0.0,0.0,0.0,0.0,0.0,0.0,0.0,0.0,0.0,0.0,0.887979,0.00808865,0.00303011,0.459803,0.0,0.0,0.0,0.0,0.00254206,0.00765146,0.00445932,0.0,0.0,0.0,0.0,0,0
1438382067,0.0,0.0,0.0,0.0,0.0,0.0,0.0,0.0,0.0,0.0,0.0,0.0,0.0,0.0,0.0,0.0,0.887981,0.00807211,0.00302764,0.4598,0.0,0.0,0.0,0.0,0.00268722,0.000411474,0.00421073,0.0,0.0,0.0,0.0,0,0
1438403128,0.0,0.0,0.0,0.0,0.0,0.0,0.0,0.0,0.0,0.0,0.0,0.0,0.0,0.0,0.0,0.0,0.887996,0.00804566,0.00302507,0.459771,0.0,0.0,0.0,0.0,-0.00300989,-0.00134784,0.00283414,0.0,0.0,0.0,0.0,0,0
1438424145,0.0,0.0,0.0,0.0,0.0,0.0,0.0,0.0,0.0,0.0,0.0,0.0,0.0,0.0,0.0,0.0,0.888002,0.00803495,0.00301808,0.459759,0.0,0.0,0.0,0.0,0.00152024,-0.00430154,0.00289034,0.0,0.0,0.0,0.0,0,0
1438445177,0.0,0.0,0.0,0.0,0.0,0.0,0.0,0.0,0.0,0.0,0.0,0.0,0.0,0.0,0.0,0.0,0.888004,0.00801012,0.00300212,0.459757,0.0,0.0,0.0,0.0,-0.00326592,-0.00235879,0.00294144,0.0,0.0,0.0,0.0,0,0
1438466089,0.0,0.0,0.0,0.0,0.0,0.0,0.0,0.0,0.0,0.0,0.0,0.0,0.0,0.0,0.0,0.0,0.888003,0.00798835,0.00299788,0.459758,0.0,0.0,0.0,0.0,-0.0016644,0.000903493,0.00583955,0.0,0.0,0.0,0.0,0,0
1438487047,0.0,0.0,0.0,0.0,0.0,0.0,0.0,0.0,0.0,0.0,0.0,0.0,0.0,0.0,0.0,0.0,0.888004,0.00797203,0.00299343,0.459757,0.0,0.0,0.0,0.0,-0.00135281,-0.00146615,0.00136796,0.0,0.0,0.0,0.0,0,0
1438507140,0.0,0.0,0.0,0.0,0.0,0.0,0.0,0.0,0.0,0.0,0.0,0.0,0.0,0.0,0.0,0.0,0.88799,0.00793544,0.00299885,0.459786,0.0,0.0,0.0,0.0,0.0354449,0.0196,-0.00523239,0.0,0.0,0.0,0.0,0,0
1438529066,0.0,0.0,0.0,0.0,0.0,0.0,0.0,0.0,0.0,0.0,0.0,0.0,0.0,0.0,0.0,0.0,0.88799,0.00789697,0.00305697,0.459785,0.0,0.0,0.0,0.0,-0.11002,-0.0711301,-0.00925757,0.0,0.0,0.0,0.0,0,0
1438549167,0.0,0.0,0.0,0.0,0.0,0.0,0.0,0.0,0.0,0.0,0.0,0.0,0.0,0.0,0.0,0.0,0.887989,0.00788383,0.00311813,0.459786,0.0,0.0,0.0,0.0,0.122746,0.110758,-0.0441523,0.0,0.0,0.0,0.0,0,0
1438571176,0.0,0.0,0.0,0.0,0.0,0.0,0.0,0.0,0.0,0.0,0.0,0.0,0.0,0.0,0.0,0.0,0.888007,0.00779704,0.00309758,0.459754,0.0,0.0,0.0,0.0,-0.0242472,0.0782667,0.0242191,0.0,0.0,0.0,0.0,0,0
1438592131,0.0,0.0,0.0,0.0,0.0,0.0,0.0,0.0,0.0,0.0,0.0,0.0,0.0,0.0,0.0,0.0,0.888015,0.00766461,0.00313943,0.459741,0.0,0.0,0.0,0.0,-0.0436399,0.0518626,0.0692076,0.0,0.0,0.0,0.0,0,0
1438613128,0.0,0.0,0.0,0.0,0.0,0.0,0.0,0.0,0.0,0.0,0.0,0.0,0.0,0.0,0.0,0.0,0.887988,0.00758635,0.00310572,0.459793,0.0,0.0,0.0,0.0,-0.16892,0.0146825,-0.00199979,0.0,0.0,0.0,0.0,0,0
1438633011,0.0,0.0,0.0,0.0,0.0,0.0,0.0,0.0,0.0,0.0,0.0,0.0,0.0,0.0,0.0,0.0,0.887966,0.0074457,0.00318615,0.459838,0.0,0.0,0.0,0.0,0.00404346,0.0862493,0.012253,0.0,0.0,0.0,0.0,0,0
1438654099,0.0,0.0,0.0,0.0,0.0,0.0,0.0,0.0,0.0,0.0,0.0,0.0,0.0,0.0,0.0,0.0,0.887962,0.00757945,0.00330788,0.459842,0.0,0.0,0.0,0.0,0.0956956,-0.126142,0.0584083,0.0,0.0,0.0,0.0,0,0
1438675128,0.0,0.0,0.0,0.0,0.0,0.0,0.0,0.0,0.0,0.0,0.0,0.0,0.0,0.0,0.0,0.0,0.888015,0.00787729,0.00328002,0.459736,0.0,0.0,0.0,0.0,0.320427,-0.181905,0.154371,0.0,0.0,0.0,0.0,0,0
1438697059,0.0,0.0,0.0,0.0,0.0,0.0,0.0,0.0,0.0,0.0,0.0,0.0,0.0,0.0,0.0,0.0,0.888008,0.00858191,0.00287332,0.459738,0.0,0.0,0.0,0.0,-0.129104,0.225516,-0.06441,0.0,0.0,0.0,0.0,0,0
1438718138,0.0,0.0,0.0,0.0,0.0,0.0,0.0,0.0,0.0,0.0,0.0,0.0,0.0,0.0,0.0,0.0,0.88801,0.00821162,0.00303499,0.459741,0.0,0.0,0.0,0.0,0.0155181,0.225679,-0.0502973,0.0,0.0,0.0,0.0,0,0
1438738098,0.0,0.0,0.0,0.0,0.0,0.0,0.0,0.0,0.0,0.0,0.0,0.0,0.0,0.0,0.0,0.0,0.887989,0.00798339,0.00299462,0.459786,0.0,0.0,0.0,0.0,0.0930206,-0.0738882,-0.00967054,0.0,0.0,0.0,0.0,0,0
1438760155,0.0,0.0,0.0,0.0,0.0,0.0,0.0,0.0,0.0,0.0,0.0,0.0,0.0,0.0,0.0,0.0,0.887963,0.00775624,0.00297906,0.45984,0.0,0.0,0.0,0.0,0.28277,-0.0407162,-0.00822835,0.0,0.0,0.0,0.0,0,0
1438770057,0.0,0.0,0.0,0.0,0.0,0.0,0.0,0.0,0.0,0.0,0.0,0.0,0.0,0.0,0.0,0.0,0.887973,0.0076719,0.00298674,0.459822,0.0,0.0,0.0,0.0,0.0746624,0.0353884,-0.129492,0.0,0.0,0.0,0.0,0,0
1438790149,0.0,0.0,0.0,0.0,0.0,0.0,0.0,0.0,0.0,0.0,0.0,0.0,0.0,0.0,0.0,0.0,0.887963,0.0075741,0.00332791,0.45984,0.0,0.0,0.0,0.0,-0.0463126,0.0669348,-0.184831,0.0,0.0,0.0,0.0,0,0
1438822222,0.0,0.0,0.0,0.0,0.0,0.0,0.0,0.0,0.0,0.0,0.0,0.0,0.0,0.0,0.0,0.0,0.887974,0.00791172,0.00336374,0.459814,0.0,0.0,0.0,0.0,-0.280462,-0.000957225,-0.275838,0.0,0.0,0.0,0.0,0,0
1438844184,0.0,0.0,0.0,0.0,0.0,0.0,0.0,0.0,0.0,0.0,0.0,0.0,0.0,0.0,0.0,0.0,0.887972,0.00779735,0.00368191,0.459816,0.0,0.0,0.0,0.0,-0.199618,0.0196708,-0.195061,0.0,0.0,0.0,0.0,0,0
1438865101,0.0,0.0,0.0,0.0,0.0,0.0,0.0,0.0,0.0,0.0,0.0,0.0,0.0,0.0,0.0,0.0,0.887982,0.0081193,0.003799,0.459791,0.0,0.0,0.0,0.0,-0.123239,0.012399,-0.196766,0.0,0.0,0.0,0.0,0,0
1438885199,0.0,0.0,0.0,0.0,0.0,0.0,0.0,0.0,0.0,0.0,0.0,0.0,0.0,0.0,0.0,0.0,0.887977,0.0082178,0.00380519,0.4598,0.0,0.0,0.0,0.0,-0.149329,-0.0611485,-0.00386987,0.0,0.0,0.0,0.0,0,0
1438906305,0.0,0.0,0.0,0.0,0.0,0.0,0.0,0.0,0.0,0.0,0.0,0.0,0.0,0.0,0.0,0.0,0.887978,0.00787377,0.0040725,0.459801,0.0,0.0,0.0,0.0,-0.0595665,-0.0834523,0.0483169,0.0,0.0,0.0,0.0,0,0
1438928091,0.0,0.0,0.0,0.0,0.0,0.0,0.0,0.0,0.0,0.0,0.0,0.0,0.0,0.0,0.0,0.0,0.88797,0.00791087,0.00430306,0.459813,0.0,0.0,0.0,0.0,-0.239343,-0.135094,-0.0668145,0.0,0.0,0.0,0.0,0,0
1438949176,0.0,0.0,0.0,0.0,0.0,0.0,0.0,0.0,0.0,0.0,0.0,0.0,0.0,0.0,0.0,0.0,0.887966,0.00776402,0.00444335,0.459822,0.0,0.0,0.0,0.0,-0.428547,-0.00825145,-0.101004,0.0,0.0,0.0,0.0,0,0
1438970127,0.0,0.0,0.0,0.0,0.0,0.0,0.0,0.0,0.0,0.0,0.0,0.0,0.0,0.0,0.0,0.0,0.88796,0.00821017,0.00466839,0.459823,0.0,0.0,0.0,0.0,-0.264026,-0.0883084,-0.0885063,0.0,0.0,0.0,0.0,0,0
1438989033,0.0,0.0,0.0,0.0,0.0,0.0,0.0,0.0,0.0,0.0,0.0,0.0,0.0,0.0,0.0,0.0,0.887956,0.00873337,0.00493984,0.45982,0.0,0.0,0.0,0.0,0.193011,-0.136177,0.220377,0.0,0.0,0.0,0.0,0,0
1439012139,0.0,0.0,0.0,0.0,0.0,0.0,0.0,0.0,0.0,0.0,0.0,0.0,0.0,0.0,0.0,0.0,0.887993,0.00825894,0.00496883,0.459756,0.0,0.0,0.0,0.0,-0.0527998,-0.2081,0.113804,0.0,0.0,0.0,0.0,0,0
1439033064,0.0,0.0,0.0,0.0,0.0,0.0,0.0,0.0,0.0,0.0,0.0,0.0,0.0,0.0,0.0,0.0,0.887991,0.00849124,0.00495072,0.459756,0.0,0.0,0.0,0.0,0.181297,-0.342533,0.16321,0.0,0.0,0.0,0.0,0,0
1439053134,0.0,0.0,0.0,0.0,0.0,0.0,0.0,0.0,0.0,0.0,0.0,0.0,0.0,0.0,0.0,0.0,0.887993,0.00829855,0.00522759,0.459752,0.0,0.0,0.0,0.0,0.124708,-0.0474398,0.104873,0.0,0.0,0.0,0.0,0,0
1439074118,0.0,0.0,0.0,0.0,0.0,0.0,0.0,0.0,0.0,0.0,0.0,0.0,0.0,0.0,0.0,0.0,0.887999,0.00811752,0.00537994,0.459743,0.0,0.0,0.0,0.0,-0.0556886,-0.0924853,0.0703777,0.0,0.0,0.0,0.0,0,0
1439095111,0.0,0.0,0.0,0.0,0.0,0.0,0.0,0.0,0.0,0.0,0.0,0.0,0.0,0.0,0.0,0.0,0.887947,0.00804859,0.00518308,0.459847,0.0,0.0,0.0,0.0,-0.0253428,-0.254883,0.091042,0.0,0.0,0.0,0.0,0,0
1439116107,0.0,0.0,0.0,0.0,0.0,0.0,0.0,0.0,0.0,0.0,0.0,0.0,0.0,0.0,0.0,0.0,0.887948,0.00813637,0.00541118,0.459841,0.0,0.0,0.0,0.0,0.295869,-0.314661,0.152663,0.0,0.0,0.0,0.0,0,0
1439137114,0.0,0.0,0.0,0.0,0.0,0.0,0.0,0.0,0.0,0.0,0.0,0.0,0.0,0.0,0.0,0.0,0.887948,0.00796146,0.00573239,0.459839,0.0,0.0,0.0,0.0,0.351956,-0.354834,0.117659,0.0,0.0,0.0,0.0,0,0
1439158284,0.0,0.0,0.0,0.0,0.0,0.0,0.0,0.0,0.0,0.0,0.0,0.0,0.0,0.0,0.0,0.0,0.88796,0.00765358,0.0054437,0.459826,0.0,0.0,0.0,0.0,-0.221196,-0.109889,0.0333499,0.0,0.0,0.0,0.0,0,0
1439176042,0.0,0.0,0.0,0.0,0.0,0.0,0.0,0.0,0.0,0.0,0.0,0.0,0.0,0.0,0.0,0.0,0.887977,0.00796761,0.00533979,0.459787,0.0,0.0,0.0,0.0,0.513936,0.405217,-0.0104739,0.0,0.0,0.0,0.0,0,0
1439201066,0.0,0.0,0.0,0.0,0.0,0.0,0.0,0.0,0.0,0.0,0.0,0.0,0.0,0.0,0.0,0.0,0.887979,0.00756092,0.00563148,0.459787,0.0,0.0,0.0,0.0,0.163945,0.134377,-0.0122561,0.0,0.0,0.0,0.0,0,0
1439222048,0.0,0.0,0.0,0.0,0.0,0.0,0.0,0.0,0.0,0.0,0.0,0.0,0.0,0.0,0.0,0.0,0.888045,0.00733214,0.00551122,0.459666,0.0,0.0,0.0,0.0,0.00646892,0.214481,0.0242284,0.0,0.0,0.0,0.0,0,0
1439242055,0.0,0.0,0.0,0.0,0.0,0.0,0.0,0.0,0.0,0.0,0.0,0.0,0.0,0.0,0.0,0.0,0.888062,0.00792174,0.00541494,0.459624,0.0,0.0,0.0,0.0,0.0667951,0.333929,0.0770794,0.0,0.0,0.0,0.0,0,0
1439263039,0.0,0.0,0.0,0.0,0.0,0.0,0.0,0.0,0.0,0.0,0.0,0.0,0.0,0.0,0.0,0.0,0.888092,0.00730261,0.00574628,0.459573,0.0,0.0,0.0,0.0,0.0715145,0.198003,0.0886441,0.0,0.0,0.0,0.0,0,0
1439284109,0.0,0.0,0.0,0.0,0.0,0.0,0.0,0.0,0.0,0.0,0.0,0.0,0.0,0.0,0.0,0.0,0.888101,0.00725001,0.00557484,0.459557,0.0,0.0,0.0,0.0,0.495782,-0.111709,0.106442,0.0,0.0,0.0,0.0,0,0
1439304171,0.0,0.0,0.0,0.0,0.0,0.0,0.0,0.0,0.0,0.0,0.0,0.0,0.0,0.0,0.0,0.0,0.888161,0.00723061,0.00560864,0.459441,0.0,0.0,0.0,0.0,-0.206996,0.621022,-0.0630304,0.0,0.0,0.0,0.0,0,0
1439327059,0.0,0.0,0.0,0.0,0.0,0.0,0.0,0.0,0.0,0.0,0.0,0.0,0.0,0.0,0.0,0.0,0.888215,0.00739401,0.00603339,0.459329,0.0,0.0,0.0,0.0,-0.666592,-0.213639,0.0732165,0.0,0.0,0.0,0.0,0,0
1439348065,0.0,0.0,0.0,0.0,0.0,0.0,0.0,0.0,0.0,0.0,0.0,0.0,0.0,0.0,0.0,0.0,0.888292,0.00717442,0.00569277,0.459187,0.0,0.0,0.0,0.0,-0.584871,-0.0353855,0.0501085,0.0,0.0,0.0,0.0,0,0
1439369083,0.0,0.0,0.0,0.0,0.0,0.0,0.0,0.0,0.0,0.0,0.0,0.0,0.0,0.0,0.0,0.0,0.888319,0.00748543,0.00605009,0.459126,0.0,0.0,0.0,0.0,-0.397488,-0.0702641,0.00885434,0.0,0.0,0.0,0.0,0,0
1439390103,0.0,0.0,0.0,0.0,0.0,0.0,0.0,0.0,0.0,0.0,0.0,0.0,0.0,0.0,0.0,0.0,0.88839,0.00760477,0.00609,0.458986,0.0,0.0,0.0,0.0,0.040244,0.351818,0.0396545,0.0,0.0,0.0,0.0,0,0
1439421086,0.0,0.0,0.0,0.0,0.0,0.0,0.0,0.0,0.0,0.0,0.0,0.0,0.0,0.0,0.0,0.0,0.888493,0.0077031,0.00561085,0.458791,0.0,0.0,0.0,0.0,0.0825571,-0.291562,0.103894,0.0,0.0,0.0,0.0,0,0
1439442022,0.0,0.0,0.0,0.0,0.0,0.0,0.0,0.0,0.0,0.0,0.0,0.0,0.0,0.0,0.0,0.0,0.888533,0.00775792,0.00598043,0.458707,0.0,0.0,0.0,0.0,-0.259813,0.0830803,0.0791211,0.0,0.0,0.0,0.0,0,0
1439463138,0.0,0.0,0.0,0.0,0.0,0.0,0.0,0.0,0.0,0.0,0.0,0.0,0.0,0.0,0.0,0.0,0.888573,0.00765978,0.00624281,0.45863,0.0,0.0,0.0,0.0,-0.577622,0.327279,0.0377237,0.0,0.0,0.0,0.0,0,0
1439483144,0.0,0.0,0.0,0.0,0.0,0.0,0.0,0.0,0.0,0.0,0.0,0.0,0.0,0.0,0.0,0.0,0.888588,0.00751781,0.0060773,0.458605,0.0,0.0,0.0,0.0,-0.482031,-0.144776,-0.0453131,0.0,0.0,0.0,0.0,0,0
1439505165,0.0,0.0,0.0,0.0,0.0,0.0,0.0,0.0,0.0,0.0,0.0,0.0,0.0,0.0,0.0,0.0,0.888622,0.00755686,0.00628051,0.458536,0.0,0.0,0.0,0.0,-0.439524,0.164885,-0.0625561,0.0,0.0,0.0,0.0,0,0
1439526264,0.0,0.0,0.0,0.0,0.0,0.0,0.0,0.0,0.0,0.0,0.0,0.0,0.0,0.0,0.0,0.0,0.888698,0.00723809,0.00655274,0.458389,0.0,0.0,0.0,0.0,0.189079,0.328956,0.0260827,0.0,0.0,0.0,0.0,0,0
1439547268,0.0,0.0,0.0,0.0,0.0,0.0,0.0,0.0,0.0,0.0,0.0,0.0,0.0,0.0,0.0,0.0,0.888785,0.00726917,0.00641238,0.458222,0.0,0.0,0.0,0.0,0.300614,-0.0520588,0.0790499,0.0,0.0,0.0,0.0,0,0
1439568130,0.0,0.0,0.0,0.0,0.0,0.0,0.0,0.0,0.0,0.0,0.0,0.0,0.0,0.0,0.0,0.0,0.888861,0.00747674,0.00655762,0.458068,0.0,0.0,0.0,0.0,0.263137,-0.325701,0.0677585,0.0,0.0,0.0,0.0,0,0
1439588104,0.0,0.0,0.0,0.0,0.0,0.0,0.0,0.0,0.0,0.0,0.0,0.0,0.0,0.0,0.0,0.0,0.888915,0.00717201,0.00675609,0.457965,0.0,0.0,0.0,0.0,0.545451,-0.0856103,0.0580291,0.0,0.0,0.0,0.0,0,0
1439610262,0.0,0.0,0.0,0.0,0.0,0.0,0.0,0.0,0.0,0.0,0.0,0.0,0.0,0.0,0.0,0.0,0.888977,0.00720451,0.00633611,0.457851,0.0,0.0,0.0,0.0,-0.052308,-0.253885,0.01509,0.0,0.0,0.0,0.0,0,0
1439631206,0.0,0.0,0.0,0.0,0.0,0.0,0.0,0.0,0.0,0.0,0.0,0.0,0.0,0.0,0.0,0.0,0.889054,0.00749661,0.00655883,0.457694,0.0,0.0,0.0,0.0,-0.189018,-0.00277672,-0.0154456,0.0,0.0,0.0,0.0,0,0
1439652248,0.0,0.0,0.0,0.0,0.0,0.0,0.0,0.0,0.0,0.0,0.0,0.0,0.0,0.0,0.0,0.0,0.889115,0.00707048,0.00673318,0.457579,0.0,0.0,0.0,0.0,-0.435794,0.423408,-0.0389603,0.0,0.0,0.0,0.0,0,0
1439673103,0.0,0.0,0.0,0.0,0.0,0.0,0.0,0.0,0.0,0.0,0.0,0.0,0.0,0.0,0.0,0.0,0.889186,0.00683736,0.00656867,0.457448,0.0,0.0,0.0,0.0,-0.306824,0.438826,-0.0250969,0.0,0.0,0.0,0.0,0,0
1439693059,0.0,0.0,0.0,0.0,0.0,0.0,0.0,0.0,0.0,0.0,0.0,0.0,0.0,0.0,0.0,0.0,0.889256,0.00717709,0.00639191,0.457309,0.0,0.0,0.0,0.0,-0.329913,0.454113,-0.105048,0.0,0.0,0.0,0.0,0,0
1439715151,0.0,0.0,0.0,0.0,0.0,0.0,0.0,0.0,0.0,0.0,0.0,0.0,0.0,0.0,0.0,0.0,0.889342,0.00730624,0.00716326,0.457127,0.0,0.0,0.0,0.0,0.78118,0.189421,0.0610512,0.0,0.0,0.0,0.0,0,0
1439736096,0.0,0.0,0.0,0.0,0.0,0.0,0.0,0.0,0.0,0.0,0.0,0.0,0.0,0.0,0.0,0.0,0.889402,0.00681326,0.00755135,0.457013,0.0,0.0,0.0,0.0,0.688411,-0.0906755,0.010947,0.0,0.0,0.0,0.0,0,0
1439757218,0.0,0.0,0.0,0.0,0.0,0.0,0.0,0.0,0.0,0.0,0.0,0.0,0.0,0.0,0.0,0.0,0.889463,0.00722846,0.00761304,0.456886,0.0,0.0,0.0,0.0,0.19774,-0.356912,-0.0367428,0.0,0.0,0.0,0.0,0,0
1439778090,0.0,0.0,0.0,0.0,0.0,0.0,0.0,0.0,0.0,0.0,0.0,0.0,0.0,0.0,0.0,0.0,0.889545,0.0068642,0.00793228,0.456728,0.0,0.0,0.0,0.0,-0.185953,-0.356744,-0.0784996,0.0,0.0,0.0,0.0,0,0
1439799157,0.0,0.0,0.0,0.0,0.0,0.0,0.0,0.0,0.0,0.0,0.0,0.0,0.0,0.0,0.0,0.0,0.889612,0.00627317,0.00782743,0.456607,0.0,0.0,0.0,0.0,-0.406436,-0.0118525,-0.132717,0.0,0.0,0.0,0.0,0,0
1439820122,0.0,0.0,0.0,0.0,0.0,0.0,0.0,0.0,0.0,0.0,0.0,0.0,0.0,0.0,0.0,0.0,0.889706,0.00653775,0.00793613,0.456419,0.0,0.0,0.0,0.0,-0.077271,0.275743,-0.0893448,0.0,0.0,0.0,0.0,0,0
1439841216,0.0,0.0,0.0,0.0,0.0,0.0,0.0,0.0,0.0,0.0,0.0,0.0,0.0,0.0,0.0,0.0,0.88996,0.00605784,0.00827162,0.455923,0.0,0.0,0.0,0.0,0.0982762,0.410278,-0.0522904,0.0,0.0,0.0,0.0,0,0
1439862150,0.0,0.0,0.0,0.0,0.0,0.0,0.0,0.0,0.0,0.0,0.0,0.0,0.0,0.0,0.0,0.0,0.89003,0.00546272,0.00809224,0.455799,0.0,0.0,0.0,0.0,-0.0473123,0.43599,-0.0381968,0.0,0.0,0.0,0.0,0,0
1439883098,0.0,0.0,0.0,0.0,0.0,0.0,0.0,0.0,0.0,0.0,0.0,0.0,0.0,0.0,0.0,0.0,0.890111,0.00538891,0.00840693,0.455635,0.0,0.0,0.0,0.0,0.334631,0.0789912,0.0235569,0.0,0.0,0.0,0.0,0,0
1439904110,0.0,0.0,0.0,0.0,0.0,0.0,0.0,0.0,0.0,0.0,0.0,0.0,0.0,0.0,0.0,0.0,0.890138,0.00552985,0.00871098,0.455573,0.0,0.0,0.0,0.0,0.797209,-0.0618177,-0.0180631,0.0,0.0,0.0,0.0,0,0
1439925084,0.0,0.0,0.0,0.0,0.0,0.0,0.0,0.0,0.0,0.0,0.0,0.0,0.0,0.0,0.0,0.0,0.890245,0.00527871,0.00856851,0.455371,0.0,0.0,0.0,0.0,0.725243,-0.214392,-0.0385819,0.0,0.0,0.0,0.0,0,0
1439946092,0.0,0.0,0.0,0.0,0.0,0.0,0.0,0.0,0.0,0.0,0.0,0.0,0.0,0.0,0.0,0.0,0.890389,0.00532748,0.00853332,0.455089,0.0,0.0,0.0,0.0,0.27218,-0.178554,-0.0363495,0.0,0.0,0.0,0.0,0,0
1439967125,0.0,0.0,0.0,0.0,0.0,0.0,0.0,0.0,0.0,0.0,0.0,0.0,0.0,0.0,0.0,0.0,0.890457,0.00507493,0.00869334,0.454957,0.0,0.0,0.0,0.0,-0.185838,-0.089484,-0.0717618,0.0,0.0,0.0,0.0,0,0
1439988291,0.0,0.0,0.0,0.0,0.0,0.0,0.0,0.0,0.0,0.0,0.0,0.0,0.0,0.0,0.0,0.0,0.890528,0.00503182,0.0083822,0.454824,0.0,0.0,0.0,0.0,-0.684547,0.135734,-0.106506,0.0,0.0,0.0,0.0,0,0
1440009274,0.0,0.0,0.0,0.0,0.0,0.0,0.0,0.0,0.0,0.0,0.0,0.0,0.0,0.0,0.0,0.0,0.890602,0.00444043,0.00833586,0.454686,0.0,0.0,0.0,0.0,-0.463828,0.309508,-0.0868711,0.0,0.0,0.0,0.0,0,0
1440030147,0.0,0.0,0.0,0.0,0.0,0.0,0.0,0.0,0.0,0.0,0.0,0.0,0.0,0.0,0.0,0.0,0.890633,0.00443198,0.00877121,0.454616,0.0,0.0,0.0,0.0,0.0392404,0.494515,-0.0946156,0.0,0.0,0.0,0.0,0,0
1440051132,0.0,0.0,0.0,0.0,0.0,0.0,0.0,0.0,0.0,0.0,0.0,0.0,0.0,0.0,0.0,0.0,0.89072,0.004409,0.00888265,0.454444,0.0,0.0,0.0,0.0,0.443823,0.334513,-0.0465436,0.0,0.0,0.0,0.0,0,0
1440072174,0.0,0.0,0.0,0.0,0.0,0.0,0.0,0.0,0.0,0.0,0.0,0.0,0.0,0.0,0.0,0.0,0.890806,0.00479068,0.00913868,0.454267,0.0,0.0,0.0,0.0,0.925592,0.0141278,-0.0146506,0.0,0.0,0.0,0.0,0,0
1440093084,0.0,0.0,0.0,0.0,0.0,0.0,0.0,0.0,0.0,0.0,0.0,0.0,0.0,0.0,0.0,0.0,0.890909,0.00503017,0.00943293,0.454057,0.0,0.0,0.0,0.0,0.650437,-0.117878,-0.0443648,0.0,0.0,0.0,0.0,0,0
1440114150,0.0,0.0,0.0,0.0,0.0,0.0,0.0,0.0,0.0,0.0,0.0,0.0,0.0,0.0,0.0,0.0,0.890992,0.00474213,0.00910018,0.453903,0.0,0.0,0.0,0.0,-0.013797,-0.274105,-0.0758335,0.0,0.0,0.0,0.0,0,0
1440135162,0.0,0.0,0.0,0.0,0.0,0.0,0.0,0.0,0.0,0.0,0.0,0.0,0.0,0.0,0.0,0.0,0.891018,0.00423048,0.00866898,0.453866,0.0,0.0,0.0,0.0,-0.65171,-0.266824,-0.116827,0.0,0.0,0.0,0.0,0,0
1440156297,0.0,0.0,0.0,0.0,0.0,0.0,0.0,0.0,0.0,0.0,0.0,0.0,0.0,0.0,0.0,0.0,0.891064,0.00411757,0.00923558,0.453765,0.0,0.0,0.0,0.0,-0.714349,-0.13877,-0.125886,0.0,0.0,0.0,0.0,0,0
1440176123,0.0,0.0,0.0,0.0,0.0,0.0,0.0,0.0,0.0,0.0,0.0,0.0,0.0,0.0,0.0,0.0,0.891102,0.00406529,0.00923024,0.453691,0.0,0.0,0.0,0.0,-0.730202,-0.325213,-0.0981253,0.0,0.0,0.0,0.0,0,0
1440197052,0.0,0.0,0.0,0.0,0.0,0.0,0.0,0.0,0.0,0.0,0.0,0.0,0.0,0.0,0.0,0.0,0.891196,0.00361888,0.00899672,0.453514,0.0,0.0,0.0,0.0,-0.501676,-0.127146,-0.0481418,0.0,0.0,0.0,0.0,0,0
1440219076,0.0,0.0,0.0,0.0,0.0,0.0,0.0,0.0,0.0,0.0,0.0,0.0,0.0,0.0,0.0,0.0,0.891215,0.0042428,0.00960232,0.45346,0.0,0.0,0.0,0.0,0.455992,0.20198,-0.061293,0.0,0.0,0.0,0.0,0,0
1440240073,0.0,0.0,0.0,0.0,0.0,0.0,0.0,0.0,0.0,0.0,0.0,0.0,0.0,0.0,0.0,0.0,0.891233,0.0038565,0.00994736,0.453419,0.0,0.0,0.0,0.0,0.278824,-0.12502,-0.0667848,0.0,0.0,0.0,0.0,0,0
1440261073,0.0,0.0,0.0,0.0,0.0,0.0,0.0,0.0,0.0,0.0,0.0,0.0,0.0,0.0,0.0,0.0,0.891262,0.00394746,0.00997179,0.453362,0.0,0.0,0.0,0.0,0.167632,-0.270422,-0.0421563,0.0,0.0,0.0,0.0,0,0
1440282194,0.0,0.0,0.0,0.0,0.0,0.0,0.0,0.0,0.0,0.0,0.0,0.0,0.0,0.0,0.0,0.0,0.8913,0.00400254,0.0100825,0.453284,0.0,0.0,0.0,0.0,-0.398684,-0.44132,-0.0662337,0.0,0.0,0.0,0.0,0,0
1440303070,0.0,0.0,0.0,0.0,0.0,0.0,0.0,0.0,0.0,0.0,0.0,0.0,0.0,0.0,0.0,0.0,0.891354,0.00357226,0.0100209,0.453183,0.0,0.0,0.0,0.0,-0.529598,-0.297049,-0.0370337,0.0,0.0,0.0,0.0,0,0
1440324131,0.0,0.0,0.0,0.0,0.0,0.0,0.0,0.0,0.0,0.0,0.0,0.0,0.0,0.0,0.0,0.0,0.891584,0.00339065,0.00985111,0.452735,0.0,0.0,0.0,0.0,-0.330401,0.0622504,-0.0986104,0.0,0.0,0.0,0.0,0,0
1440344161,0.0,0.0,0.0,0.0,0.0,0.0,0.0,0.0,0.0,0.0,0.0,0.0,0.0,0.0,0.0,0.0,0.891599,0.0037648,0.0102004,0.452696,0.0,0.0,0.0,0.0,-0.22907,-0.167815,-0.0442258,0.0,0.0,0.0,0.0,0,0
1440366174,0.0,0.0,0.0,0.0,0.0,0.0,0.0,0.0,0.0,0.0,0.0,0.0,0.0,0.0,0.0,0.0,0.891601,0.00340534,0.0104809,0.452688,0.0,0.0,0.0,0.0,0.140882,0.312416,-0.0493438,0.0,0.0,0.0,0.0,0,0
1440383077,0.0,0.0,0.0,0.0,0.0,0.0,0.0,0.0,0.0,0.0,0.0,0.0,0.0,0.0,0.0,0.0,0.891609,0.00303255,0.0109355,0.452663,0.0,0.0,0.0,0.0,0.215997,0.408534,0.0446094,0.0,0.0,0.0,0.0,0,0
1440407075,0.0,0.0,0.0,0.0,0.0,0.0,0.0,0.0,0.0,0.0,0.0,0.0,0.0,0.0,0.0,0.0,0.891553,0.00342482,0.0110679,0.452769,0.0,0.0,0.0,0.0,0.158981,0.122111,-0.0104847,0.0,0.0,0.0,0.0,0,0
1440429138,0.0,0.0,0.0,0.0,0.0,0.0,0.0,0.0,0.0,0.0,0.0,0.0,0.0,0.0,0.0,0.0,0.891607,0.0034944,0.0112964,0.452655,0.0,0.0,0.0,0.0,-0.148387,-0.143476,0.00240198,0.0,0.0,0.0,0.0,0,0
1440450048,0.0,0.0,0.0,0.0,0.0,0.0,0.0,0.0,0.0,0.0,0.0,0.0,0.0,0.0,0.0,0.0,0.891632,0.0027595,0.0110027,0.45262,0.0,0.0,0.0,0.0,-0.412195,-0.16779,0.0186263,0.0,0.0,0.0,0.0,0,0
1440471055,0.0,0.0,0.0,0.0,0.0,0.0,0.0,0.0,0.0,0.0,0.0,0.0,0.0,0.0,0.0,0.0,0.891603,0.00254592,0.0108956,0.45268,0.0,0.0,0.0,0.0,-0.292302,-0.0474825,-0.0307384,0.0,0.0,0.0,0.0,0,0
1440492126,0.0,0.0,0.0,0.0,0.0,0.0,0.0,0.0,0.0,0.0,0.0,0.0,0.0,0.0,0.0,0.0,0.891583,0.00251987,0.0115202,0.452704,0.0,0.0,0.0,0.0,-0.0535725,0.0587134,-0.0917377,0.0,0.0,0.0,0.0,0,0
1440513128,0.0,0.0,0.0,0.0,0.0,0.0,0.0,0.0,0.0,0.0,0.0,0.0,0.0,0.0,0.0,0.0,0.891618,0.00257189,0.0112537,0.452642,0.0,0.0,0.0,0.0,0.212171,0.0422252,0.0239027,0.0,0.0,0.0,0.0,0,0
1440534152,0.0,0.0,0.0,0.0,0.0,0.0,0.0,0.0,0.0,0.0,0.0,0.0,0.0,0.0,0.0,0.0,0.891734,0.00240403,0.0116309,0.452404,0.0,0.0,0.0,0.0,0.0510007,0.130045,0.0748948,0.0,0.0,0.0,0.0,0,0
1440555169,0.0,0.0,0.0,0.0,0.0,0.0,0.0,0.0,0.0,0.0,0.0,0.0,0.0,0.0,0.0,0.0,0.891772,0.00232691,0.011665,0.452328,0.0,0.0,0.0,0.0,-0.176153,-0.133906,0.0933565,0.0,0.0,0.0,0.0,0,0
1440576080,0.0,0.0,0.0,0.0,0.0,0.0,0.0,0.0,0.0,0.0,0.0,0.0,0.0,0.0,0.0,0.0,0.891762,0.00210031,0.0117474,0.452348,0.0,0.0,0.0,0.0,-0.166108,-0.434432,0.036704,0.0,0.0,0.0,0.0,0,0
1440597226,0.0,0.0,0.0,0.0,0.0,0.0,0.0,0.0,0.0,0.0,0.0,0.0,0.0,0.0,0.0,0.0,0.891647,0.00193244,0.0115016,0.45258,0.0,0.0,0.0,0.0,-0.129219,-0.495825,0.115801,0.0,0.0,0.0,0.0,0,0
1440618108,0.0,0.0,0.0,0.0,0.0,0.0,0.0,0.0,0.0,0.0,0.0,0.0,0.0,0.0,0.0,0.0,0.891625,0.00196633,0.0120078,0.452611,0.0,0.0,0.0,0.0,-0.149102,-0.362983,0.094522,0.0,0.0,0.0,0.0,0,0
1440639105,0.0,0.0,0.0,0.0,0.0,0.0,0.0,0.0,0.0,0.0,0.0,0.0,0.0,0.0,0.0,0.0,0.891664,0.00188931,0.0120437,0.452534,0.0,0.0,0.0,0.0,-0.377664,-0.151189,0.0345235,0.0,0.0,0.0,0.0,0,0
1440660057,0.0,0.0,0.0,0.0,0.0,0.0,0.0,0.0,0.0,0.0,0.0,0.0,0.0,0.0,0.0,0.0,0.891684,0.00172005,0.0118791,0.4525,0.0,0.0,0.0,0.0,-0.0151748,-0.0982565,0.0846285,0.0,0.0,0.0,0.0,0,0
1440681304,0.0,0.0,0.0,0.0,0.0,0.0,0.0,0.0,0.0,0.0,0.0,0.0,0.0,0.0,0.0,0.0,0.891659,0.00167655,0.0120928,0.452543,0.0,0.0,0.0,0.0,-0.0816902,0.35787,0.120639,0.0,0.0,0.0,0.0,0,0
1440702171,0.0,0.0,0.0,0.0,0.0,0.0,0.0,0.0,0.0,0.0,0.0,0.0,0.0,0.0,0.0,0.0,0.891603,0.00148735,0.0126875,0.452638,0.0,0.0,0.0,0.0,-0.21264,-0.0350586,0.0777499,0.0,0.0,0.0,0.0,0,0
1440723290,0.0,0.0,0.0,0.0,0.0,0.0,0.0,0.0,0.0,0.0,0.0,0.0,0.0,0.0,0.0,0.0,0.891657,0.00139326,0.0125647,0.452535,0.0,0.0,0.0,0.0,-0.426436,-0.0652844,0.090329,0.0,0.0,0.0,0.0,0,0
1440744109,0.0,0.0,0.0,0.0,0.0,0.0,0.0,0.0,0.0,0.0,0.0,0.0,0.0,0.0,0.0,0.0,0.891659,0.00129392,0.0129115,0.452522,0.0,0.0,0.0,0.0,-0.289007,0.0337059,0.10567,0.0,0.0,0.0,0.0,0,0
1440765129,0.0,0.0,0.0,0.0,0.0,0.0,0.0,0.0,0.0,0.0,0.0,0.0,0.0,0.0,0.0,0.0,0.891659,0.00145563,0.012897,0.452522,0.0,0.0,0.0,0.0,0.0565239,0.0489195,0.133044,0.0,0.0,0.0,0.0,0,0
1440786250,0.0,0.0,0.0,0.0,0.0,0.0,0.0,0.0,0.0,0.0,0.0,0.0,0.0,0.0,0.0,0.0,0.891629,0.00162909,0.0132989,0.45257,0.0,0.0,0.0,0.0,0.0773705,0.501744,0.0266248,0.0,0.0,0.0,0.0,0,0
1440807166,0.0,0.0,0.0,0.0,0.0,0.0,0.0,0.0,0.0,0.0,0.0,0.0,0.0,0.0,0.0,0.0,0.891551,0.00126556,0.0135606,0.452715,0.0,0.0,0.0,0.0,-0.177127,0.669871,0.0810934,0.0,0.0,0.0,0.0,0,0
1440828137,0.0,0.0,0.0,0.0,0.0,0.0,0.0,0.0,0.0,0.0,0.0,0.0,0.0,0.0,0.0,0.0,0.891471,0.0010012,0.013785,0.452867,0.0,0.0,0.0,0.0,-0.114334,0.631787,0.0880328,0.0,0.0,0.0,0.0,0,0
1440849082,0.0,0.0,0.0,0.0,0.0,0.0,0.0,0.0,0.0,0.0,0.0,0.0,0.0,0.0,0.0,0.0,0.891461,0.0011457,0.0133963,0.452899,0.0,0.0,0.0,0.0,0.235877,0.441219,0.0676942,0.0,0.0,0.0,0.0,0,0
1440870144,0.0,0.0,0.0,0.0,0.0,0.0,0.0,0.0,0.0,0.0,0.0,0.0,0.0,0.0,0.0,0.0,0.891405,0.00106342,0.0139449,0.452992,0.0,0.0,0.0,0.0,0.494793,0.596334,0.0146517,0.0,0.0,0.0,0.0,0,0
1440891113,0.0,0.0,0.0,0.0,0.0,0.0,0.0,0.0,0.0,0.0,0.0,0.0,0.0,0.0,0.0,0.0,0.891394,0.000870607,0.0141564,0.453008,0.0,0.0,0.0,0.0,0.0408725,0.583201,0.0425972,0.0,0.0,0.0,0.0,0,0
1440912217,0.0,0.0,0.0,0.0,0.0,0.0,0.0,0.0,0.0,0.0,0.0,0.0,0.0,0.0,0.0,0.0,0.891316,0.000349012,0.0143943,0.453154,0.0,0.0,0.0,0.0,-0.192034,0.201196,0.0818977,0.0,0.0,0.0,0.0,0,0
1440933147,0.0,0.0,0.0,0.0,0.0,0.0,0.0,0.0,0.0,0.0,0.0,0.0,0.0,0.0,0.0,0.0,0.891261,0.000697034,0.0139649,0.453275,0.0,0.0,0.0,0.0,-0.102014,-0.356387,0.0287382,0.0,0.0,0.0,0.0,0,0
1440954099,0.0,0.0,0.0,0.0,0.0,0.0,0.0,0.0,0.0,0.0,0.0,0.0,0.0,0.0,0.0,0.0,0.891191,0.000459336,0.0147637,0.453389,0.0,0.0,0.0,0.0,0.200854,-0.588804,0.0506793,0.0,0.0,0.0,0.0,0,0
1440975192,0.0,0.0,0.0,0.0,0.0,0.0,0.0,0.0,0.0,0.0,0.0,0.0,0.0,0.0,0.0,0.0,0.891167,0.00069511,0.0145988,0.453439,0.0,0.0,0.0,0.0,-0.0551026,-0.771456,0.121415,0.0,0.0,0.0,0.0,0,0
1440996119,0.0,0.0,0.0,0.0,0.0,0.0,0.0,0.0,0.0,0.0,0.0,0.0,0.0,0.0,0.0,0.0,0.891138,0.000340623,0.0149145,0.453487,0.0,0.0,0.0,0.0,-0.564293,-0.732096,0.102361,0.0,0.0,0.0,0.0,0,0
1441017170,0.0,0.0,0.0,0.0,0.0,0.0,0.0,0.0,0.0,0.0,0.0,0.0,0.0,0.0,0.0,0.0,0.891141,0.000547869,0.01463,0.45349,0.0,0.0,0.0,0.0,-0.747788,-0.435152,0.0214784,0.0,0.0,0.0,0.0,0,0
1441038080,0.0,0.0,0.0,0.0,0.0,0.0,0.0,0.0,0.0,0.0,0.0,0.0,0.0,0.0,0.0,0.0,0.891124,1.28673e-05,0.01522,0.453505,0.0,0.0,0.0,0.0,-0.389922,-0.71529,0.0776882,0.0,0.0,0.0,0.0,0,0
1441059252,0.0,0.0,0.0,0.0,0.0,0.0,0.0,0.0,0.0,0.0,0.0,0.0,0.0,0.0,0.0,0.0,0.891108,0.000387293,0.01491,0.453547,0.0,0.0,0.0,0.0,0.0904065,-0.500499,0.132923,0.0,0.0,0.0,0.0,0,0
1441080100,0.0,0.0,0.0,0.0,0.0,0.0,0.0,0.0,0.0,0.0,0.0,0.0,0.0,0.0,0.0,0.0,0.891064,0.000319243,0.0156025,0.45361,0.0,0.0,0.0,0.0,0.109295,-0.306716,0.0206689,0.0,0.0,0.0,0.0,0,0
1441100042,0.0,0.0,0.0,0.0,0.0,0.0,0.0,0.0,0.0,0.0,0.0,0.0,0.0,0.0,0.0,0.0,0.891057,0.000360783,0.0152655,0.453635,0.0,0.0,0.0,0.0,0.228035,0.511424,-0.0449047,0.0,0.0,0.0,0.0,0,0
1441122112,0.0,0.0,0.0,0.0,0.0,0.0,0.0,0.0,0.0,0.0,0.0,0.0,0.0,0.0,0.0,0.0,0.891107,-1.8954e-05,0.0154424,0.453531,0.0,0.0,0.0,0.0,-0.239747,0.430208,-0.0405122,0.0,0.0,0.0,0.0,0,0
1441143092,0.0,0.0,0.0,0.0,0.0,0.0,0.0,0.0,0.0,0.0,0.0,0.0,0.0,0.0,0.0,0.0,0.891027,-0.000332377,0.0152534,0.453693,0.0,0.0,0.0,0.0,-0.00579082,0.562472,0.0223518,0.0,0.0,0.0,0.0,0,0
1441164090,0.0,0.0,0.0,0.0,0.0,0.0,0.0,0.0,0.0,0.0,0.0,0.0,0.0,0.0,0.0,0.0,0.891047,-0.000146183,0.0154526,0.453648,0.0,0.0,0.0,0.0,0.3449,0.453534,-0.0919864,0.0,0.0,0.0,0.0,0,0
1441185094,0.0,0.0,0.0,0.0,0.0,0.0,0.0,0.0,0.0,0.0,0.0,0.0,0.0,0.0,0.0,0.0,0.891065,4.13755e-05,0.0154822,0.453612,0.0,0.0,0.0,0.0,0.404603,0.709141,-0.112113,0.0,0.0,0.0,0.0,0,0
1441206172,0.0,0.0,0.0,0.0,0.0,0.0,0.0,0.0,0.0,0.0,0.0,0.0,0.0,0.0,0.0,0.0,0.891051,-9.95831e-05,0.0158303,0.453628,0.0,0.0,0.0,0.0,0.229372,0.544826,0.0173913,0.0,0.0,0.0,0.0,0,0
1441227085,0.0,0.0,0.0,0.0,0.0,0.0,0.0,0.0,0.0,0.0,0.0,0.0,0.0,0.0,0.0,0.0,0.890878,-0.000221939,0.0155632,0.453975,0.0,0.0,0.0,0.0,-0.154924,0.43851,0.0502731,0.0,0.0,0.0,0.0,0,0
1441247154,0.0,0.0,0.0,0.0,0.0,0.0,0.0,0.0,0.0,0.0,0.0,0.0,0.0,0.0,0.0,0.0,0.890885,-0.000444626,0.0159184,0.45395,0.0,0.0,0.0,0.0,-0.23005,-0.389235,-0.074389,0.0,0.0,0.0,0.0,0,0
1441269097,0.0,0.0,0.0,0.0,0.0,0.0,0.0,0.0,0.0,0.0,0.0,0.0,0.0,0.0,0.0,0.0,0.89077,-0.000534541,0.0155882,0.454187,0.0,0.0,0.0,0.0,0.363194,-0.325168,0.0321992,0.0,0.0,0.0,0.0,0,0
1441290261,0.0,0.0,0.0,0.0,0.0,0.0,0.0,0.0,0.0,0.0,0.0,0.0,0.0,0.0,0.0,0.0,0.890747,-0.000127009,0.0154903,0.454236,0.0,0.0,0.0,0.0,0.395097,-0.714409,0.126201,0.0,0.0,0.0,0.0,0,0
1441311151,0.0,0.0,0.0,0.0,0.0,0.0,0.0,0.0,0.0,0.0,0.0,0.0,0.0,0.0,0.0,0.0,0.890686,-0.000698924,0.0160356,0.454335,0.0,0.0,0.0,0.0,-0.213416,-0.668716,0.0631631,0.0,0.0,0.0,0.0,0,0
1441332233,0.0,0.0,0.0,0.0,0.0,0.0,0.0,0.0,0.0,0.0,0.0,0.0,0.0,0.0,0.0,0.0,0.890598,-0.000556693,0.0155986,0.454524,0.0,0.0,0.0,0.0,-0.681544,-0.877224,0.0133174,0.0,0.0,0.0,0.0,0,0
1441353095,0.0,0.0,0.0,0.0,0.0,0.0,0.0,0.0,0.0,0.0,0.0,0.0,0.0,0.0,0.0,0.0,0.890486,-0.00109245,0.0159215,0.45473,0.0,0.0,0.0,0.0,-0.534067,-0.775402,-0.0196343,0.0,0.0,0.0,0.0,0,0
1441374100,0.0,0.0,0.0,0.0,0.0,0.0,0.0,0.0,0.0,0.0,0.0,0.0,0.0,0.0,0.0,0.0,0.890421,-0.000875515,0.0157366,0.454865,0.0,0.0,0.0,0.0,0.0117388,-0.720371,0.071761,0.0,0.0,0.0,0.0,0,0
1441395179,0.0,0.0,0.0,0.0,0.0,0.0,0.0,0.0,0.0,0.0,0.0,0.0,0.0,0.0,0.0,0.0,0.890279,-0.000878219,0.016124,0.455129,0.0,0.0,0.0,0.0,0.286737,-0.524972,0.0498549,0.0,0.0,0.0,0.0,0,0
1441416063,0.0,0.0,0.0,0.0,0.0,0.0,0.0,0.0,0.0,0.0,0.0,0.0,0.0,0.0,0.0,0.0,0.890237,-0.000570792,0.0161727,0.455209,0.0,0.0,0.0,0.0,0.263044,0.090126,-0.0327221,0.0,0.0,0.0,0.0,0,0
1441437220,0.0,0.0,0.0,0.0,0.0,0.0,0.0,0.0,0.0,0.0,0.0,0.0,0.0,0.0,0.0,0.0,0.890211,-0.00080646,0.0166533,0.455242,0.0,0.0,0.0,0.0,0.0789402,0.591225,-0.0541439,0.0,0.0,0.0,0.0,0,0
1441458115,0.0,0.0,0.0,0.0,0.0,0.0,0.0,0.0,0.0,0.0,0.0,0.0,0.0,0.0,0.0,0.0,0.89008,-0.000890537,0.0168663,0.455492,0.0,0.0,0.0,0.0,-0.502986,0.846733,0.0187684,0.0,0.0,0.0,0.0,0,0
1441479174,0.0,0.0,0.0,0.0,0.0,0.0,0.0,0.0,0.0,0.0,0.0,0.0,0.0,0.0,0.0,0.0,0.890048,-0.00157154,0.0171719,0.455541,0.0,0.0,0.0,0.0,-0.261319,0.920774,0.0704123,0.0,0.0,0.0,0.0,0,0
1441500087,0.0,0.0,0.0,0.0,0.0,0.0,0.0,0.0,0.0,0.0,0.0,0.0,0.0,0.0,0.0,0.0,0.889922,-0.00147024,0.0167144,0.455804,0.0,0.0,0.0,0.0,-0.164048,0.554285,0.0554513,0.0,0.0,0.0,0.0,0,0
1441521125,0.0,0.0,0.0,0.0,0.0,0.0,0.0,0.0,0.0,0.0,0.0,0.0,0.0,0.0,0.0,0.0,0.889828,-0.00146692,0.0170224,0.455975,0.0,0.0,0.0,0.0,0.16076,0.50047,-0.0156793,0.0,0.0,0.0,0.0,0,0
1441542136,0.0,0.0,0.0,0.0,0.0,0.0,0.0,0.0,0.0,0.0,0.0,0.0,0.0,0.0,0.0,0.0,0.889726,-0.0010544,0.0165623,0.456193,0.0,0.0,0.0,0.0,0.143697,0.67968,-0.101765,0.0,0.0,0.0,0.0,0,0
1441563093,0.0,0.0,0.0,0.0,0.0,0.0,0.0,0.0,0.0,0.0,0.0,0.0,0.0,0.0,0.0,0.0,0.889611,-0.00140148,0.0170631,0.456399,0.0,0.0,0.0,0.0,0.269552,0.582339,-0.0286271,0.0,0.0,0.0,0.0,0,0
1441584178,0.0,0.0,0.0,0.0,0.0,0.0,0.0,0.0,0.0,0.0,0.0,0.0,0.0,0.0,0.0,0.0,0.889534,-0.000933333,0.0168427,0.456558,0.0,0.0,0.0,0.0,0.180123,0.583771,-0.0200367,0.0,0.0,0.0,0.0,0,0
1441605058,0.0,0.0,0.0,0.0,0.0,0.0,0.0,0.0,0.0,0.0,0.0,0.0,0.0,0.0,0.0,0.0,0.889512,-0.00165249,0.0175473,0.456571,0.0,0.0,0.0,0.0,-0.0373168,0.314895,0.0603702,0.0,0.0,0.0,0.0,0,0
1441626090,0.0,0.0,0.0,0.0,0.0,0.0,0.0,0.0,0.0,0.0,0.0,0.0,0.0,0.0,0.0,0.0,0.889425,-0.00184309,0.0170513,0.45676,0.0,0.0,0.0,0.0,-0.238607,-0.264742,-0.00275857,0.0,0.0,0.0,0.0,0,0
1441646148,0.0,0.0,0.0,0.0,0.0,0.0,0.0,0.0,0.0,0.0,0.0,0.0,0.0,0.0,0.0,0.0,0.88933,-0.00195783,0.0178415,0.456913,0.0,0.0,0.0,0.0,-0.279051,-0.677011,0.0480785,0.0,0.0,0.0,0.0,0,0
1441668263,0.0,0.0,0.0,0.0,0.0,0.0,0.0,0.0,0.0,0.0,0.0,0.0,0.0,0.0,0.0,0.0,0.889373,-0.00146973,0.0172672,0.456854,0.0,0.0,0.0,0.0,-0.00160837,-1.12162,0.0933321,0.0,0.0,0.0,0.0,0,0
1441689166,0.0,0.0,0.0,0.0,0.0,0.0,0.0,0.0,0.0,0.0,0.0,0.0,0.0,0.0,0.0,0.0,0.889198,-0.00197901,0.0176535,0.457178,0.0,0.0,0.0,0.0,0.087246,-1.28658,0.0537375,0.0,0.0,0.0,0.0,0,0
1441710153,0.0,0.0,0.0,0.0,0.0,0.0,0.0,0.0,0.0,0.0,0.0,0.0,0.0,0.0,0.0,0.0,0.889153,-0.00162123,0.0173617,0.457277,0.0,0.0,0.0,0.0,-0.143576,-0.873012,-0.0217599,0.0,0.0,0.0,0.0,0,0
1441731111,0.0,0.0,0.0,0.0,0.0,0.0,0.0,0.0,0.0,0.0,0.0,0.0,0.0,0.0,0.0,0.0,0.889218,-0.00230618,0.0181841,0.457116,0.0,0.0,0.0,0.0,-0.307407,-0.604931,-0.0507072,0.0,0.0,0.0,0.0,0,0
1441752100,0.0,0.0,0.0,0.0,0.0,0.0,0.0,0.0,0.0,0.0,0.0,0.0,0.0,0.0,0.0,0.0,0.889185,-0.00217296,0.0182296,0.457179,0.0,0.0,0.0,0.0,-0.242473,1.18432,-0.0165237,0.0,0.0,0.0,0.0,0,0
1441773015,0.0,0.0,0.0,0.0,0.0,0.0,0.0,0.0,0.0,0.0,0.0,0.0,0.0,0.0,0.0,0.0,0.889078,-0.00262051,0.0186083,0.457371,0.0,0.0,0.0,0.0,-0.0600757,-0.612624,0.14936,0.0,0.0,0.0,0.0,0,0
1441794100,0.0,0.0,0.0,0.0,0.0,0.0,0.0,0.0,0.0,0.0,0.0,0.0,0.0,0.0,0.0,0.0,0.889029,-0.0024803,0.0179283,0.457493,0.0,0.0,0.0,0.0,0.0230294,-0.447107,0.0658505,0.0,0.0,0.0,0.0,0,0
1441815168,0.0,0.0,0.0,0.0,0.0,0.0,0.0,0.0,0.0,0.0,0.0,0.0,0.0,0.0,0.0,0.0,0.889041,-0.00277374,0.0183251,0.457452,0.0,0.0,0.0,0.0,0.122194,-0.260938,0.00747372,0.0,0.0,0.0,0.0,0,0
1441836292,0.0,0.0,0.0,0.0,0.0,0.0,0.0,0.0,0.0,0.0,0.0,0.0,0.0,0.0,0.0,0.0,0.888974,-0.00208608,0.0177934,0.457608,0.0,0.0,0.0,0.0,0.0561455,0.570596,-0.0786991,0.0,0.0,0.0,0.0,0,0
1441857073,0.0,0.0,0.0,0.0,0.0,0.0,0.0,0.0,0.0,0.0,0.0,0.0,0.0,0.0,0.0,0.0,0.888907,-0.00250557,0.0183488,0.457714,0.0,0.0,0.0,0.0,0.0890784,0.967054,-0.050163,0.0,0.0,0.0,0.0,0,0
1441878165,0.0,0.0,0.0,0.0,0.0,0.0,0.0,0.0,0.0,0.0,0.0,0.0,0.0,0.0,0.0,0.0,0.888881,-0.00219595,0.0178059,0.457787,0.0,0.0,0.0,0.0,-0.208082,1.32072,-0.0093465,0.0,0.0,0.0,0.0,0,0
1441899047,0.0,0.0,0.0,0.0,0.0,0.0,0.0,0.0,0.0,0.0,0.0,0.0,0.0,0.0,0.0,0.0,0.888828,-0.00311175,0.0180607,0.457874,0.0,0.0,0.0,0.0,-0.385046,1.06869,0.0358166,0.0,0.0,0.0,0.0,0,0
1441920149,0.0,0.0,0.0,0.0,0.0,0.0,0.0,0.0,0.0,0.0,0.0,0.0,0.0,0.0,0.0,0.0,0.888828,-0.00284168,0.0177401,0.457889,0.0,0.0,0.0,0.0,-0.274138,1.00857,0.0232204,0.0,0.0,0.0,0.0,0,0
1441941124,0.0,0.0,0.0,0.0,0.0,0.0,0.0,0.0,0.0,0.0,0.0,0.0,0.0,0.0,0.0,0.0,0.888806,-0.00307151,0.0173726,0.457945,0.0,0.0,0.0,0.0,-0.271718,0.67003,-0.0148733,0.0,0.0,0.0,0.0,0,0
1441962063,0.0,0.0,0.0,0.0,0.0,0.0,0.0,0.0,0.0,0.0,0.0,0.0,0.0,0.0,0.0,0.0,0.888842,-0.00288556,0.0170716,0.457886,0.0,0.0,0.0,0.0,0.0219798,0.794755,-0.0774647,0.0,0.0,0.0,0.0,0,0
1441983121,0.0,0.0,0.0,0.0,0.0,0.0,0.0,0.0,0.0,0.0,0.0,0.0,0.0,0.0,0.0,0.0,0.888746,-0.0027089,0.0173986,0.458062,0.0,0.0,0.0,0.0,0.432029,0.42017,-0.0485287,0.0,0.0,0.0,0.0,0,0
1442004113,0.0,0.0,0.0,0.0,0.0,0.0,0.0,0.0,0.0,0.0,0.0,0.0,0.0,0.0,0.0,0.0,0.88882,-0.0020404,0.016813,0.457943,0.0,0.0,0.0,0.0,0.364527,0.578379,0.0596012,0.0,0.0,0.0,0.0,0,0
1442025147,0.0,0.0,0.0,0.0,0.0,0.0,0.0,0.0,0.0,0.0,0.0,0.0,0.0,0.0,0.0,0.0,0.888686,-0.00327888,0.0179807,0.458152,0.0,0.0,0.0,0.0,0.10613,0.465845,0.0342968,0.0,0.0,0.0,0.0,0,0
1442046221,0.0,0.0,0.0,0.0,0.0,0.0,0.0,0.0,0.0,0.0,0.0,0.0,0.0,0.0,0.0,0.0,0.888699,-0.00318959,0.017377,0.458151,0.0,0.0,0.0,0.0,-0.482582,0.141334,0.0267331,0.0,0.0,0.0,0.0,0,0
1442067097,0.0,0.0,0.0,0.0,0.0,0.0,0.0,0.0,0.0,0.0,0.0,0.0,0.0,0.0,0.0,0.0,0.888698,-0.0035526,0.0177988,0.458134,0.0,0.0,0.0,0.0,-0.42717,-0.495416,-0.0691943,0.0,0.0,0.0,0.0,0,0
1442088152,0.0,0.0,0.0,0.0,0.0,0.0,0.0,0.0,0.0,0.0,0.0,0.0,0.0,0.0,0.0,0.0,0.888745,-0.00355738,0.0182651,0.458023,0.0,0.0,0.0,0.0,-0.0292201,-0.640838,-0.0599626,0.0,0.0,0.0,0.0,0,0
1442108102,0.0,0.0,0.0,0.0,0.0,0.0,0.0,0.0,0.0,0.0,0.0,0.0,0.0,0.0,0.0,0.0,0.888773,-0.00414302,0.0187896,0.457943,0.0,0.0,0.0,0.0,0.231862,-0.649513,-0.0264937,0.0,0.0,0.0,0.0,0,0
1442130123,0.0,0.0,0.0,0.0,0.0,0.0,0.0,0.0,0.0,0.0,0.0,0.0,0.0,0.0,0.0,0.0,0.888844,-0.00345997,0.0183915,0.457829,0.0,0.0,0.0,0.0,0.469423,-0.841406,0.0683084,0.0,0.0,0.0,0.0,0,0
1442151165,0.0,0.0,0.0,0.0,0.0,0.0,0.0,0.0,0.0,0.0,0.0,0.0,0.0,0.0,0.0,0.0,0.888872,-0.00411641,0.0186507,0.457757,0.0,0.0,0.0,0.0,0.243351,-1.24104,0.066057,0.0,0.0,0.0,0.0,0,0
1442172151,0.0,0.0,0.0,0.0,0.0,0.0,0.0,0.0,0.0,0.0,0.0,0.0,0.0,0.0,0.0,0.0,0.88883,-0.0038142,0.0190311,0.457826,0.0,0.0,0.0,0.0,-0.190811,-1.02439,-0.0476549,0.0,0.0,0.0,0.0,0,0
1442193124,0.0,0.0,0.0,0.0,0.0,0.0,0.0,0.0,0.0,0.0,0.0,0.0,0.0,0.0,0.0,0.0,0.888849,-0.0044,0.019898,0.457747,0.0,0.0,0.0,0.0,-0.106928,-0.735217,-0.0182258,0.0,0.0,0.0,0.0,0,0
1442214342,0.0,0.0,0.0,0.0,0.0,0.0,0.0,0.0,0.0,0.0,0.0,0.0,0.0,0.0,0.0,0.0,0.888832,-0.00422311,0.0202716,0.457765,0.0,0.0,0.0,0.0,-0.0757789,0.839868,0.0533444,0.0,0.0,0.0,0.0,0,0
1442235121,0.0,0.0,0.0,0.0,0.0,0.0,0.0,0.0,0.0,0.0,0.0,0.0,0.0,0.0,0.0,0.0,0.888763,-0.0048624,0.0202259,0.457894,0.0,0.0,0.0,0.0,-0.479558,-1.02224,0.0527893,0.0,0.0,0.0,0.0,0,0
1442256141,0.0,0.0,0.0,0.0,0.0,0.0,0.0,0.0,0.0,0.0,0.0,0.0,0.0,0.0,0.0,0.0,0.88865,-0.00467393,0.0196936,0.458139,0.0,0.0,0.0,0.0,-0.0350581,-0.311402,0.00263693,0.0,0.0,0.0,0.0,0,0
1442276129,0.0,0.0,0.0,0.0,0.0,0.0,0.0,0.0,0.0,0.0,0.0,0.0,0.0,0.0,0.0,0.0,0.888636,-0.0052314,0.0206277,0.45812,0.0,0.0,0.0,0.0,0.03673,1.0465,-0.0632468,0.0,0.0,0.0,0.0,0,0
1442298086,0.0,0.0,0.0,0.0,0.0,0.0,0.0,0.0,0.0,0.0,0.0,0.0,0.0,0.0,0.0,0.0,0.888643,-0.00494468,0.0201932,0.458129,0.0,0.0,0.0,0.0,0.0382772,-0.357116,0.150447,0.0,0.0,0.0,0.0,0,0
1442319109,0.0,0.0,0.0,0.0,0.0,0.0,0.0,0.0,0.0,0.0,0.0,0.0,0.0,0.0,0.0,0.0,0.888366,-0.00489685,0.0205603,0.45865,0.0,0.0,0.0,0.0,0.146204,0.26433,-0.0197901,0.0,0.0,0.0,0.0,0,0
1442340106,0.0,0.0,0.0,0.0,0.0,0.0,0.0,0.0,0.0,0.0,0.0,0.0,0.0,0.0,0.0,0.0,0.888379,-0.00492249,0.0205964,0.458622,0.0,0.0,0.0,0.0,0.119803,1.5015,-0.089668,0.0,0.0,0.0,0.0,0,0
1442361114,0.0,0.0,0.0,0.0,0.0,0.0,0.0,0.0,0.0,0.0,0.0,0.0,0.0,0.0,0.0,0.0,0.888257,-0.00451276,0.0213053,0.458831,0.0,0.0,0.0,0.0,0.0187392,0.990217,0.0357437,0.0,0.0,0.0,0.0,0,0
1442381062,0.0,0.0,0.0,0.0,0.0,0.0,0.0,0.0,0.0,0.0,0.0,0.0,0.0,0.0,0.0,0.0,0.888327,-0.00510965,0.0206795,0.458717,0.0,0.0,0.0,0.0,-0.267883,-0.63029,0.0463689,0.0,0.0,0.0,0.0,0,0
1442403193,0.0,0.0,0.0,0.0,0.0,0.0,0.0,0.0,0.0,0.0,0.0,0.0,0.0,0.0,0.0,0.0,0.888375,-0.006071,0.0216717,0.458567,0.0,0.0,0.0,0.0,0.245657,0.872803,-0.00607268,0.0,0.0,0.0,0.0,0,0
1442424197,0.0,0.0,0.0,0.0,0.0,0.0,0.0,0.0,0.0,0.0,0.0,0.0,0.0,0.0,0.0,0.0,0.888286,-0.00561286,0.0217529,0.458742,0.0,0.0,0.0,0.0,0.12222,1.14291,-0.035642,0.0,0.0,0.0,0.0,0,0
1442445107,0.0,0.0,0.0,0.0,0.0,0.0,0.0,0.0,0.0,0.0,0.0,0.0,0.0,0.0,0.0,0.0,0.888265,-0.00579547,0.0216636,0.458783,0.0,0.0,0.0,0.0,0.162414,0.627122,0.0379326,0.0,0.0,0.0,0.0,0,0
1442466091,0.0,0.0,0.0,0.0,0.0,0.0,0.0,0.0,0.0,0.0,0.0,0.0,0.0,0.0,0.0,0.0,0.888195,-0.00559397,0.0212924,0.458939,0.0,0.0,0.0,0.0,0.229429,0.819008,-0.0608206,0.0,0.0,0.0,0.0,0,0
1442482086,0.0,0.0,0.0,0.0,0.0,0.0,0.0,0.0,0.0,0.0,0.0,0.0,0.0,0.0,0.0,0.0,0.888134,-0.00592686,0.0216372,0.459036,0.0,0.0,0.0,0.0,-0.542599,-0.921191,0.0455416,0.0,0.0,0.0,0.0,0,0
1442508266,0.0,0.0,0.0,0.0,0.0,0.0,0.0,0.0,0.0,0.0,0.0,0.0,0.0,0.0,0.0,0.0,0.88793,-0.00511201,0.0217791,0.459435,0.0,0.0,0.0,0.0,-0.161385,0.694888,-0.0166802,0.0,0.0,0.0,0.0,0,0
1442529397,0.0,0.0,0.0,0.0,0.0,0.0,0.0,0.0,0.0,0.0,0.0,0.0,0.0,0.0,0.0,0.0,0.887802,-0.00576438,0.0215207,0.459686,0.0,0.0,0.0,0.0,-0.528452,0.0451433,-0.103347,0.0,0.0,0.0,0.0,0,0
1442550175,0.0,0.0,0.0,0.0,0.0,0.0,0.0,0.0,0.0,0.0,0.0,0.0,0.0,0.0,0.0,0.0,0.887867,-0.00593798,0.0217707,0.459546,0.0,0.0,0.0,0.0,0.0670723,0.115784,-0.00234095,0.0,0.0,0.0,0.0,0,0
1442571142,0.0,0.0,0.0,0.0,0.0,0.0,0.0,0.0,0.0,0.0,0.0,0.0,0.0,0.0,0.0,0.0,0.887826,-0.00609723,0.0226137,0.459584,0.0,0.0,0.0,0.0,0.0619702,-0.580554,0.0579433,0.0,0.0,0.0,0.0,0,0
1442592154,0.0,0.0,0.0,0.0,0.0,0.0,0.0,0.0,0.0,0.0,0.0,0.0,0.0,0.0,0.0,0.0,0.887839,-0.00592498,0.0214945,0.459614,0.0,0.0,0.0,0.0,-0.159903,-1.15817,-0.00558438,0.0,0.0,0.0,0.0,0,0
1442612105,0.0,0.0,0.0,0.0,0.0,0.0,0.0,0.0,0.0,0.0,0.0,0.0,0.0,0.0,0.0,0.0,0.887815,-0.0057943,0.02153,0.45966,0.0,0.0,0.0,0.0,0.157194,-1.28542,0.0375705,0.0,0.0,0.0,0.0,0,0
1442633148,0.0,0.0,0.0,0.0,0.0,0.0,0.0,0.0,0.0,0.0,0.0,0.0,0.0,0.0,0.0,0.0,0.887776,-0.00635299,0.0227878,0.459667,0.0,0.0,0.0,0.0,0.379047,-0.772736,0.101075,0.0,0.0,0.0,0.0,0,0
1442655246,0.0,0.0,0.0,0.0,0.0,0.0,0.0,0.0,0.0,0.0,0.0,0.0,0.0,0.0,0.0,0.0,0.887701,-0.0060891,0.0221257,0.459849,0.0,0.0,0.0,0.0,-0.399011,-1.44143,0.0647072,0.0,0.0,0.0,0.0,0,0
1442676223,0.0,0.0,0.0,0.0,0.0,0.0,0.0,0.0,0.0,0.0,0.0,0.0,0.0,0.0,0.0,0.0,0.887633,-0.00656569,0.022164,0.459971,0.0,0.0,0.0,0.0,0.0687069,-0.456243,-0.0492753,0.0,0.0,0.0,0.0,0,0
1442697439,0.0,0.0,0.0,0.0,0.0,0.0,0.0,0.0,0.0,0.0,0.0,0.0,0.0,0.0,0.0,0.0,0.887571,-0.00704215,0.0231086,0.460037,0.0,0.0,0.0,0.0,0.0777454,0.573543,-0.00656823,0.0,0.0,0.0,0.0,0,0
1442718096,0.0,0.0,0.0,0.0,0.0,0.0,0.0,0.0,0.0,0.0,0.0,0.0,0.0,0.0,0.0,0.0,0.887605,-0.0071311,0.0226434,0.459993,0.0,0.0,0.0,0.0,-0.381492,-1.13627,0.0389595,0.0,0.0,0.0,0.0,0,0
1442739114,0.0,0.0,0.0,0.0,0.0,0.0,0.0,0.0,0.0,0.0,0.0,0.0,0.0,0.0,0.0,0.0,0.887568,-0.00674663,0.0220888,0.460097,0.0,0.0,0.0,0.0,0.385191,-0.774878,-0.0557991,0.0,0.0,0.0,0.0,0,0
1442760215,0.0,0.0,0.0,0.0,0.0,0.0,0.0,0.0,0.0,0.0,0.0,0.0,0.0,0.0,0.0,0.0,0.887504,-0.00701489,0.0232731,0.460158,0.0,0.0,0.0,0.0,0.479685,-0.274475,0.036909,0.0,0.0,0.0,0.0,0,0
1442781316,0.0,0.0,0.0,0.0,0.0,0.0,0.0,0.0,0.0,0.0,0.0,0.0,0.0,0.0,0.0,0.0,0.887644,-0.00737574,0.0229252,0.4599,0.0,0.0,0.0,0.0,-0.237977,-0.970444,-0.0043578,0.0,0.0,0.0,0.0,0,0
1442802258,0.0,0.0,0.0,0.0,0.0,0.0,0.0,0.0,0.0,0.0,0.0,0.0,0.0,0.0,0.0,0.0,0.887683,-0.00789757,0.0239441,0.459765,0.0,0.0,0.0,0.0,0.31964,0.320731,-0.0210786,0.0,0.0,0.0,0.0,0,0
1442823106,0.0,0.0,0.0,0.0,0.0,0.0,0.0,0.0,0.0,0.0,0.0,0.0,0.0,0.0,0.0,0.0,0.887683,-0.0072625,0.0242062,0.459762,0.0,0.0,0.0,0.0,0.0436152,0.27072,0.0201472,0.0,0.0,0.0,0.0,0,0
1442844288,0.0,0.0,0.0,0.0,0.0,0.0,0.0,0.0,0.0,0.0,0.0,0.0,0.0,0.0,0.0,0.0,0.887785,-0.00758732,0.0235978,0.45959,0.0,0.0,0.0,0.0,-0.578767,0.379445,0.00820257,0.0,0.0,0.0,0.0,0,0
1442864993,0.0,0.0,0.0,0.0,0.0,0.0,0.0,0.0,0.0,0.0,0.0,0.0,0.0,0.0,0.0,0.0,0.887819,-0.00793021,0.0237003,0.459514,0.0,0.0,0.0,0.0,0.161745,0.665097,-0.050976,0.0,0.0,0.0,0.0,0,0
1442874115,0.0,0.0,0.0,0.0,0.0,0.0,0.0,0.0,0.0,0.0,0.0,0.0,0.0,0.0,0.0,0.0,0.8878,-0.00793089,0.0233131,0.45957,0.0,0.0,0.0,0.0,0.215679,-0.25451,0.00588229,0.0,0.0,0.0,0.0,0,0
1442907144,0.0,0.0,0.0,0.0,0.0,0.0,0.0,0.0,0.0,0.0,0.0,0.0,0.0,0.0,0.0,0.0,0.887629,-0.00729911,0.0236569,0.459894,0.0,0.0,0.0,0.0,-0.249868,-0.0589315,-0.0143072,0.0,0.0,0.0,0.0,0,0
1442928130,0.0,0.0,0.0,0.0,0.0,0.0,0.0,0.0,0.0,0.0,0.0,0.0,0.0,0.0,0.0,0.0,0.887505,-0.0079204,0.0247228,0.460066,0.0,0.0,0.0,0.0,0.0572961,1.44222,-0.0592257,0.0,0.0,0.0,0.0,0,0
1442949039,0.0,0.0,0.0,0.0,0.0,0.0,0.0,0.0,0.0,0.0,0.0,0.0,0.0,0.0,0.0,0.0,0.887372,-0.00732231,0.0245128,0.460344,0.0,0.0,0.0,0.0,0.464326,1.31887,-0.0118047,0.0,0.0,0.0,0.0,0,0
1442970266,0.0,0.0,0.0,0.0,0.0,0.0,0.0,0.0,0.0,0.0,0.0,0.0,0.0,0.0,0.0,0.0,0.887447,-0.00756574,0.0242946,0.460208,0.0,0.0,0.0,0.0,-0.403534,1.06532,-0.0113039,0.0,0.0,0.0,0.0,0,0
1442991134,0.0,0.0,0.0,0.0,0.0,0.0,0.0,0.0,0.0,0.0,0.0,0.0,0.0,0.0,0.0,0.0,0.887288,-0.00727656,0.0237476,0.460546,0.0,0.0,0.0,0.0,-0.108304,1.37721,-0.0442921,0.0,0.0,0.0,0.0,0,0
1443012047,0.0,0.0,0.0,0.0,0.0,0.0,0.0,0.0,0.0,0.0,0.0,0.0,0.0,0.0,0.0,0.0,0.887238,-0.00763245,0.0250244,0.46057,0.0,0.0,0.0,0.0,0.0907187,1.45019,-0.0403464,0.0,0.0,0.0,0.0,0,0
1443033119,0.0,0.0,0.0,0.0,0.0,0.0,0.0,0.0,0.0,0.0,0.0,0.0,0.0,0.0,0.0,0.0,0.887274,-0.00845655,0.0248384,0.460497,0.0,0.0,0.0,0.0,-0.717489,0.519391,-0.0859273,0.0,0.0,0.0,0.0,0,0
1443054063,0.0,0.0,0.0,0.0,0.0,0.0,0.0,0.0,0.0,0.0,0.0,0.0,0.0,0.0,0.0,0.0,0.887262,-0.00894596,0.0251809,0.46049,0.0,0.0,0.0,0.0,0.173355,0.811938,-0.0836033,0.0,0.0,0.0,0.0,0,0
1443075222,0.0,0.0,0.0,0.0,0.0,0.0,0.0,0.0,0.0,0.0,0.0,0.0,0.0,0.0,0.0,0.0,0.887231,-0.00841598,0.0249285,0.460575,0.0,0.0,0.0,0.0,0.343431,-0.987743,0.0584377,0.0,0.0,0.0,0.0,0,0
1443096103,0.0,0.0,0.0,0.0,0.0,0.0,0.0,0.0,0.0,0.0,0.0,0.0,0.0,0.0,0.0,0.0,0.887222,-0.00868335,0.0243941,0.460615,0.0,0.0,0.0,0.0,-0.220034,-1.52134,0.0483718,0.0,0.0,0.0,0.0,0,0
1443117134,0.0,0.0,0.0,0.0,0.0,0.0,0.0,0.0,0.0,0.0,0.0,0.0,0.0,0.0,0.0,0.0,0.887169,-0.0082243,0.0243995,0.460726,0.0,0.0,0.0,0.0,0.471077,0.118266,0.0490508,0.0,0.0,0.0,0.0,0,0
1443138089,0.0,0.0,0.0,0.0,0.0,0.0,0.0,0.0,0.0,0.0,0.0,0.0,0.0,0.0,0.0,0.0,0.88712,-0.0089522,0.0252555,0.46076,0.0,0.0,0.0,0.0,-0.162791,-0.480689,0.113878,0.0,0.0,0.0,0.0,0,0
1443159165,0.0,0.0,0.0,0.0,0.0,0.0,0.0,0.0,0.0,0.0,0.0,0.0,0.0,0.0,0.0,0.0,0.887023,-0.00873993,0.0247442,0.46098,0.0,0.0,0.0,0.0,-0.578339,-1.11492,-0.0555126,0.0,0.0,0.0,0.0,0,0
1443179145,0.0,0.0,0.0,0.0,0.0,0.0,0.0,0.0,0.0,0.0,0.0,0.0,0.0,0.0,0.0,0.0,0.886949,-0.00930238,0.0256741,0.46106,0.0,0.0,0.0,0.0,0.0610901,-0.164812,-0.0463989,0.0,0.0,0.0,0.0,0,0
1443201057,0.0,0.0,0.0,0.0,0.0,0.0,0.0,0.0,0.0,0.0,0.0,0.0,0.0,0.0,0.0,0.0,0.886962,-0.0091781,0.0250404,0.461072,0.0,0.0,0.0,0.0,-0.409504,-1.36487,0.0291501,0.0,0.0,0.0,0.0,0,0
1443222108,0.0,0.0,0.0,0.0,0.0,0.0,0.0,0.0,0.0,0.0,0.0,0.0,0.0,0.0,0.0,0.0,0.886852,-0.0102887,0.0257223,0.461222,0.0,0.0,0.0,0.0,-0.374653,-0.484687,0.00636462,0.0,0.0,0.0,0.0,0,0
1443243109,0.0,0.0,0.0,0.0,0.0,0.0,0.0,0.0,0.0,0.0,0.0,0.0,0.0,0.0,0.0,0.0,0.886782,-0.00844421,0.0246434,0.461453,0.0,0.0,0.0,0.0,0.822254,-1.3019,0.106203,0.0,0.0,0.0,0.0,0,0
1443263087,0.0,0.0,0.0,0.0,0.0,0.0,0.0,0.0,0.0,0.0,0.0,0.0,0.0,0.0,0.0,0.0,0.886676,-0.00955061,0.0261152,0.461554,0.0,0.0,0.0,0.0,-0.0366099,-0.0311514,0.0928265,0.0,0.0,0.0,0.0,0,0
1443285088,0.0,0.0,0.0,0.0,0.0,0.0,0.0,0.0,0.0,0.0,0.0,0.0,0.0,0.0,0.0,0.0,0.886684,-0.00937837,0.024861,0.461612,0.0,0.0,0.0,0.0,0.305151,-1.29708,0.0386228,0.0,0.0,0.0,0.0,0,0
1443306012,0.0,0.0,0.0,0.0,0.0,0.0,0.0,0.0,0.0,0.0,0.0,0.0,0.0,0.0,0.0,0.0,0.886454,-0.0097413,0.0266127,0.461949,0.0,0.0,0.0,0.0,0.243168,-1.01288,0.117621,0.0,0.0,0.0,0.0,0,0
1443327061,0.0,0.0,0.0,0.0,0.0,0.0,0.0,0.0,0.0,0.0,0.0,0.0,0.0,0.0,0.0,0.0,0.886235,-0.00927166,0.0255244,0.462438,0.0,0.0,0.0,0.0,-0.575185,-1.47665,0.0135143,0.0,0.0,0.0,0.0,0,0
1443348095,0.0,0.0,0.0,0.0,0.0,0.0,0.0,0.0,0.0,0.0,0.0,0.0,0.0,0.0,0.0,0.0,0.886084,-0.00985129,0.0259812,0.462691,0.0,0.0,0.0,0.0,-0.0991352,-0.413316,-0.39148,0.0,0.0,0.0,0.0,0,0
1443368092,0.0,0.0,0.0,0.0,0.0,0.0,0.0,0.0,0.0,0.0,0.0,0.0,0.0,0.0,0.0,0.0,0.888398,-0.0120076,0.0260874,0.458175,0.0,0.0,0.0,0.0,0.124102,-0.142216,-0.769757,0.0,0.0,0.0,0.0,0,0
1443390383,0.0,0.0,0.0,0.0,0.0,0.0,0.0,0.0,0.0,0.0,0.0,0.0,0.0,0.0,0.0,0.0,0.891099,-0.00938075,0.0283909,0.452824,0.0,0.0,0.0,0.0,0.349681,-0.009169,0.0520521,0.0,0.0,0.0,0.0,0,0
1443411061,0.0,0.0,0.0,0.0,0.0,0.0,0.0,0.0,0.0,0.0,0.0,0.0,0.0,0.0,0.0,0.0,0.890287,-0.0049716,0.0365438,0.453903,0.0,0.0,0.0,0.0,0.90527,0.427652,0.451478,0.0,0.0,0.0,0.0,0,0
1443432076,0.0,0.0,0.0,0.0,0.0,0.0,0.0,0.0,0.0,0.0,0.0,0.0,0.0,0.0,0.0,0.0,0.887904,-0.00812017,0.0434101,0.457904,0.0,0.0,0.0,0.0,-0.394332,1.0032,0.504648,0.0,0.0,0.0,0.0,0,0
1443453078,0.0,0.0,0.0,0.0,0.0,0.0,0.0,0.0,0.0,0.0,0.0,0.0,0.0,0.0,0.0,0.0,0.88502,-0.0167902,0.0459468,0.462976,0.0,0.0,0.0,0.0,-0.684281,0.70802,0.422321,0.0,0.0,0.0,0.0,0,0
1443473116,0.0,0.0,0.0,0.0,0.0,0.0,0.0,0.0,0.0,0.0,0.0,0.0,0.0,0.0,0.0,0.0,0.882482,-0.0220796,0.0481105,0.467358,0.0,0.0,0.0,0.0,-0.831762,0.61499,0.333058,0.0,0.0,0.0,0.0,0,0
1443494139,0.0,0.0,0.0,0.0,0.0,0.0,0.0,0.0,0.0,0.0,0.0,0.0,0.0,0.0,0.0,0.0,0.880355,-0.0268475,0.0509994,0.4708,0.0,0.0,0.0,0.0,-1.3013,0.399247,0.285948,0.0,0.0,0.0,0.0,0,0
1443516189,0.0,0.0,0.0,0.0,0.0,0.0,0.0,0.0,0.0,0.0,0.0,0.0,0.0,0.0,0.0,0.0,0.878518,-0.0288407,0.0542277,0.473745,0.0,0.0,0.0,0.0,0.859849,0.333666,0.256731,0.0,0.0,0.0,0.0,0,0
1443537119,0.0,0.0,0.0,0.0,0.0,0.0,0.0,0.0,0.0,0.0,0.0,0.0,0.0,0.0,0.0,0.0,0.877421,-0.0302998,0.0553666,0.475552,0.0,0.0,0.0,0.0,-0.657036,0.193832,0.0589701,0.0,0.0,0.0,0.0,0,0
1443558086,0.0,0.0,0.0,0.0,0.0,0.0,0.0,0.0,0.0,0.0,0.0,0.0,0.0,0.0,0.0,0.0,0.876755,-0.0305658,0.0535708,0.476965,0.0,0.0,0.0,0.0,0.632464,-0.324632,0.269536,0.0,0.0,0.0,0.0,0,0
1443579071,0.0,0.0,0.0,0.0,0.0,0.0,0.0,0.0,0.0,0.0,0.0,0.0,0.0,0.0,0.0,0.0,0.876184,-0.0294181,0.050473,0.478423,0.0,0.0,0.0,0.0,-0.305283,-0.52868,0.0497179,0.0,0.0,0.0,0.0,0,0
1443600103,0.0,0.0,0.0,0.0,0.0,0.0,0.0,0.0,0.0,0.0,0.0,0.0,0.0,0.0,0.0,0.0,0.87612,-0.0282398,0.0462566,0.479037,0.0,0.0,0.0,0.0,-0.272635,-0.223589,0.0261832,0.0,0.0,0.0,0.0,0,0
1443621182,0.0,0.0,0.0,0.0,0.0,0.0,0.0,0.0,0.0,0.0,0.0,0.0,0.0,0.0,0.0,0.0,0.876238,-0.0262066,0.0418259,0.479343,0.0,0.0,0.0,0.0,-0.431793,-0.697666,0.08311,0.0,0.0,0.0,0.0,0,0
1443634046,0.0,0.0,0.0,0.0,0.0,0.0,0.0,0.0,0.0,0.0,0.0,0.0,0.0,0.0,0.0,0.0,0.876254,-0.0244528,0.0387026,0.47967,0.0,0.0,0.0,0.0,0.0950415,-0.886206,0.139094,0.0,0.0,0.0,0.0,0,0
1443663173,0.0,0.0,0.0,0.0,0.0,0.0,0.0,0.0,0.0,0.0,0.0,0.0,0.0,0.0,0.0,0.0,0.876203,-0.0210136,0.029886,0.480556,0.0,0.0,0.0,0.0,-0.213002,-0.765601,0.0131988,0.0,0.0,0.0,0.0,0,0
1443684034,0.0,0.0,0.0,0.0,0.0,0.0,0.0,0.0,0.0,0.0,0.0,0.0,0.0,0.0,0.0,0.0,0.876539,-0.0171529,0.0221822,0.480513,0.0,0.0,0.0,0.0,0.236451,-1.04246,0.0227058,0.0,0.0,0.0,0.0,0,0
1443705082,0.0,0.0,0.0,0.0,0.0,0.0,0.0,0.0,0.0,0.0,0.0,0.0,0.0,0.0,0.0,0.0,0.876606,-0.0132834,0.0155999,0.480773,0.0,0.0,0.0,0.0,-0.190265,-0.684781,0.0776564,0.0,0.0,0.0,0.0,0,0
1443726296,0.0,0.0,0.0,0.0,0.0,0.0,0.0,0.0,0.0,0.0,0.0,0.0,0.0,0.0,0.0,0.0,0.876278,-0.00956123,0.00824838,0.481641,0.0,0.0,0.0,0.0,-0.00364156,-0.597814,0.082608,0.0,0.0,0.0,0.0,0,0
1443747153,0.0,0.0,0.0,0.0,0.0,0.0,0.0,0.0,0.0,0.0,0.0,0.0,0.0,0.0,0.0,0.0,0.875941,-0.00635548,-4.16935e-06,0.482377,0.0,0.0,0.0,0.0,-0.266667,-1.09837,0.117972,0.0,0.0,0.0,0.0,0,0
1443767089,0.0,0.0,0.0,0.0,0.0,0.0,0.0,0.0,0.0,0.0,0.0,0.0,0.0,0.0,0.0,0.0,0.875428,-0.00236945,-0.00787222,0.483279,0.0,0.0,0.0,0.0,-0.0276054,-0.865496,0.0951599,0.0,0.0,0.0,0.0,0,0
1443789119,0.0,0.0,0.0,0.0,0.0,0.0,0.0,0.0,0.0,0.0,0.0,0.0,0.0,0.0,0.0,0.0,0.874677,0.0010568,-0.0155399,0.484456,0.0,0.0,0.0,0.0,-0.0321143,-0.479976,0.15265,0.0,0.0,0.0,0.0,0,0
1443809093,0.0,0.0,0.0,0.0,0.0,0.0,0.0,0.0,0.0,0.0,0.0,0.0,0.0,0.0,0.0,0.0,0.873662,0.00299681,-0.0210459,0.486069,0.0,0.0,0.0,0.0,-0.537144,-0.549955,0.189048,0.0,0.0,0.0,0.0,0,0
1443830156,0.0,0.0,0.0,0.0,0.0,0.0,0.0,0.0,0.0,0.0,0.0,0.0,0.0,0.0,0.0,0.0,0.872595,0.00417639,-0.0260131,0.487734,0.0,0.0,0.0,0.0,-0.88234,-0.330305,0.180287,0.0,0.0,0.0,0.0,0,0
1443852060,0.0,0.0,0.0,0.0,0.0,0.0,0.0,0.0,0.0,0.0,0.0,0.0,0.0,0.0,0.0,0.0,0.870823,0.00531216,-0.0307081,0.490608,0.0,0.0,0.0,0.0,-0.722299,-0.52243,0.228137,0.0,0.0,0.0,0.0,0,0
1443873212,0.0,0.0,0.0,0.0,0.0,0.0,0.0,0.0,0.0,0.0,0.0,0.0,0.0,0.0,0.0,0.0,0.869164,0.005514,-0.033595,0.493351,0.0,0.0,0.0,0.0,0.0653158,-0.159656,0.314304,0.0,0.0,0.0,0.0,0,0
1443894248,0.0,0.0,0.0,0.0,0.0,0.0,0.0,0.0,0.0,0.0,0.0,0.0,0.0,0.0,0.0,0.0,0.867404,0.00441153,-0.0357788,0.496298,0.0,0.0,0.0,0.0,0.403723,-0.164262,0.439092,0.0,0.0,0.0,0.0,0,0
1443915158,0.0,0.0,0.0,0.0,0.0,0.0,0.0,0.0,0.0,0.0,0.0,0.0,0.0,0.0,0.0,0.0,0.865395,0.00287766,-0.0369976,0.499715,0.0,0.0,0.0,0.0,-0.23717,-0.14871,0.47276,0.0,0.0,0.0,0.0,0,0
1443936026,0.0,0.0,0.0,0.0,0.0,0.0,0.0,0.0,0.0,0.0,0.0,0.0,0.0,0.0,0.0,0.0,0.86259,0.00141592,-0.0363715,0.504593,0.0,0.0,0.0,0.0,-0.528815,0.283131,0.460764,0.0,0.0,0.0,0.0,0,0
1443956100,0.0,0.0,0.0,0.0,0.0,0.0,0.0,0.0,0.0,0.0,0.0,0.0,0.0,0.0,0.0,0.0,0.85994,-0.000884747,-0.0359795,0.509124,0.0,0.0,0.0,0.0,-0.468991,0.167751,0.58492,0.0,0.0,0.0,0.0,0,0
1443977040,0.0,0.0,0.0,0.0,0.0,0.0,0.0,0.0,0.0,0.0,0.0,0.0,0.0,0.0,0.0,0.0,0.857066,-0.0031065,-0.0347674,0.514023,0.0,0.0,0.0,0.0,-0.91784,0.288211,0.547861,0.0,0.0,0.0,0.0,0,0
