timestamp,timestamp_sample,control[0],control[1],control[2],control[3],control[4],control[5],control[6],control[7]
1437080139,1437079257,-0.0135184,0.00276597,-6.44459e-05,0.08,0.0,0.0,0.0,-1.0
1437081331,1437080051,-0.0135318,0.0031094,-6.657e-05,0.08,0.0,0.0,0.0,-1.0
1437082206,1437081233,-0.0134162,0.00268582,-5.57593e-05,0.08,0.0,0.0,0.0,-1.0
1437084242,1437083154,-0.0134349,0.00194652,-8.49264e-06,0.08,0.0,0.0,0.0,-1.0
1437087165,1437086078,-0.0135223,0.00306007,-5.68871e-05,0.08,0.0,0.0,0.0,-1.0
1437090245,1437089089,-0.0137664,0.00295172,-6.76617e-05,0.08,0.0,0.0,0.0,-1.0
1437094099,1437093304,-0.0136552,0.00283709,-8.90839e-05,0.08,0.0,0.0,0.0,-1.0
1437097346,1437096047,-0.0134161,0.00301036,-4.14888e-05,0.08,0.0,0.0,0.0,-1.0
1437100202,1437099131,-0.0134408,0.00238442,-4.1503e-05,0.08,0.0,0.0,0.0,-1.0
1437104210,1437103117,-0.0137254,0.00270038,-7.66931e-05,0.08,0.0,0.0,0.0,-1.0
1437108219,1437107161,-0.0136145,0.00275816,-7.06656e-05,0.08,0.0,0.0,0.0,-1.0
1437111195,1437110135,-0.0134922,0.00218596,-6.94593e-05,0.08,0.0,0.0,0.0,-1.0
1437115345,1437114160,-0.0133723,0.00313127,-4.25931e-05,0.08,0.0,0.0,0.0,-1.0
1437118328,1437117101,-0.0140478,0.00206728,-9.08119e-05,0.08,0.0,0.0,0.0,-1.0
1437121190,1437120257,-0.0133796,0.00179634,-4.57591e-05,0.08,0.0,0.0,0.0,-1.0
1437125186,1437124156,-0.0139194,0.0029021,-7.83925e-05,0.08,0.0,0.0,0.0,-1.0
1437129151,1437128220,-0.013427,0.00208195,-0.000112845,0.08,0.0,0.0,0.0,-1.0
1437132170,1437131079,-0.0138603,0.00243346,-0.000101503,0.08,0.0,0.0,0.0,-1.0
1437136224,1437135138,-0.0137561,0.00227929,-3.63292e-05,0.08,0.0,0.0,0.0,-1.0
1437139201,1437138322,-0.0135659,0.00220489,-7.14368e-05,0.08,0.0,0.0,0.0,-1.0
1437143214,1437142269,-0.0135022,0.00230463,-7.04735e-05,0.08,0.0,0.0,0.0,-1.0
1437146225,1437145106,-0.0138321,0.00268567,-6.11486e-05,0.08,0.0,0.0,0.0,-1.0
1437150280,1437149126,-0.0133376,0.00349454,-7.79867e-05,0.08,0.0,0.0,0.0,-1.0
1437153361,1437152239,-0.0137622,0.00226253,-2.73603e-05,0.08,0.0,0.0,0.0,-1.0
1437157206,1437156121,-0.0131326,0.00272173,-6.81946e-05,0.08,0.0,0.0,0.0,-1.0
1437160149,1437159155,-0.0137285,0.00199881,-8.98744e-05,0.08,0.0,0.0,0.0,-1.0
1437164260,1437163129,-0.0132744,0.00240249,-6.6056e-05,0.08,0.0,0.0,0.0,-1.0
1437167132,1437166265,-0.0138083,0.00276117,-5.67007e-05,0.08,0.0,0.0,0.0,-1.0
1437171248,1437170153,-0.0131796,0.0021757,-0.000119723,0.08,0.0,0.0,0.0,-1.0
1437174265,1437173140,-0.0137868,0.00325919,-1.71234e-05,0.08,0.0,0.0,0.0,-1.0
1437177311,1437176106,-0.0133155,0.00214063,-3.19207e-05,0.08,0.0,0.0,0.0,-1.0
1437181289,1437180215,-0.0138338,0.00245037,-4.08705e-05,0.08,0.0,0.0,0.0,-1.0
1437185243,1437184078,-0.0131221,0.00201448,-5.86535e-05,0.08,0.0,0.0,0.0,-1.0
1437188165,1437187175,-0.0137506,0.00309482,-2.01529e-05,0.08,0.0,0.0,0.0,-1.0
1437192128,1437191125,-0.0130344,0.00201926,-7.26915e-05,0.08,0.0,0.0,0.0,-1.0
1437195226,1437194110,-0.0139528,0.00218816,-8.06599e-05,0.08,0.0,0.0,0.0,-1.0
1437199221,1437198062,-0.013073,0.00251898,-8.49236e-05,0.08,0.0,0.0,0.0,-1.0
1437206329,1437205165,-0.0133389,0.0028967,-6.22412e-05,0.08,0.0,0.0,0.0,-1.0
1437209215,1437208167,-0.0132655,0.00304182,-2.29414e-05,0.08,0.0,0.0,0.0,-1.0
1437213257,1437212220,-0.01322,0.00269441,-8.39424e-05,0.08,0.0,0.0,0.0,-1.0
1437216207,1437215071,-0.0136594,0.00263129,-5.45963e-05,0.08,0.0,0.0,0.0,-1.0
1437220223,1437219072,-0.0130831,0.00250816,-5.07213e-05,0.08,0.0,0.0,0.0,-1.0
1437223266,1437222178,-0.0136947,0.00288342,-7.43311e-05,0.08,0.0,0.0,0.0,-1.0
1437227217,1437226220,-0.0128749,0.00211356,-8.54434e-05,0.08,0.0,0.0,0.0,-1.0
1437230208,1437229086,-0.013526,0.00267038,-0.000105696,0.08,0.0,0.0,0.0,-1.0
1437234181,1437233110,-0.0131866,0.00265368,-8.40831e-05,0.08,0.0,0.0,0.0,-1.0
1437237172,1437236219,-0.0136462,0.00247613,-8.51423e-05,0.08,0.0,0.0,0.0,-1.0
1437241180,1437240114,-0.01326,0.00268251,-2.60695e-05,0.08,0.0,0.0,0.0,-1.0
1437244259,1437243097,-0.0134642,0.00217585,-8.51533e-05,0.08,0.0,0.0,0.0,-1.0
1437248286,1437247237,-0.0134402,0.00176386,6.95873e-08,0.08,0.0,0.0,0.0,-1.0
1437251214,1437250167,-0.0137599,0.00253873,-9.5255e-05,0.08,0.0,0.0,0.0,-1.0
1437255347,1437254104,-0.0128424,0.00167517,-8.08807e-05,0.08,0.0,0.0,0.0,-1.0
1437256231,1437255251,-0.0127212,0.0019326,-5.43345e-05,0.08,0.0,0.0,0.0,-1.0
1437262275,1437261153,-0.0132134,0.00215756,-5.61424e-05,0.08,0.0,0.0,0.0,-1.0
1437265185,1437264056,-0.0131709,0.00259457,-7.76664e-05,0.08,0.0,0.0,0.0,-1.0
1437269119,1437268193,-0.0131897,0.00255204,-3.90646e-05,0.08,0.0,0.0,0.0,-1.0
1437272383,1437271155,-0.0134463,0.00319733,-5.13011e-05,0.08,0.0,0.0,0.0,-1.0
1437275242,1437274105,-0.0133896,0.00233108,-1.23548e-05,0.08,0.0,0.0,0.0,-1.0
1437278222,1437277073,-0.0134831,0.0028309,-7.22e-05,0.08,0.0,0.0,0.0,-1.0
1437282168,1437281181,-0.0133857,0.0020916,2.17994e-06,0.08,0.0,0.0,0.0,-1.0
1437286277,1437285112,-0.0134677,0.00236629,-5.87854e-05,0.08,0.0,0.0,0.0,-1.0
1437287359,1437286187,-0.013583,0.00284,-5.34583e-05,0.08,0.0,0.0,0.0,-1.0
1437292158,1437291121,-0.0131483,0.00208011,-3.11101e-05,0.08,0.0,0.0,0.0,-1.0
1437296184,1437295090,-0.0134512,0.00222052,-1.96667e-05,0.08,0.0,0.0,0.0,-1.0
1437300188,1437299141,-0.0132705,0.00253236,-5.74151e-05,0.08,0.0,0.0,0.0,-1.0
1437304234,1437303136,-0.013002,0.00217136,1.3845e-05,0.08,0.0,0.0,0.0,-1.0
1437307122,1437306201,-0.013167,0.00331954,-4.52664e-05,0.08,0.0,0.0,0.0,-1.0
1437310195,1437309076,-0.0136468,0.00262796,2.0984e-05,0.08,0.0,0.0,0.0,-1.0
1437313202,1437312198,-0.0128084,0.00255209,-4.58344e-05,0.08,0.0,0.0,0.0,-1.0
1437317306,1437316123,-0.0133679,0.00273062,4.59805e-06,0.08,0.0,0.0,0.0,-1.0
1437321255,1437320109,-0.0131492,0.00256714,-7.27733e-06,0.08,0.0,0.0,0.0,-1.0
1437324186,1437323092,-0.0131951,0.00275596,-3.03771e-06,0.08,0.0,0.0,0.0,-1.0
1437327213,1437326048,-0.0130104,0.00216574,3.47845e-05,0.08,0.0,0.0,0.0,-1.0
1437332216,1437331099,-0.0131114,0.00231888,-1.76307e-05,0.08,0.0,0.0,0.0,-1.0
1437335259,1437334220,-0.012808,0.00298694,-1.00308e-05,0.08,0.0,0.0,0.0,-1.0
1437339178,1437338131,-0.0133919,0.0020962,-3.41845e-05,0.08,0.0,0.0,0.0,-1.0
1437342175,1437341115,-0.0133623,0.00245539,2.09932e-05,0.08,0.0,0.0,0.0,-1.0
1437346236,1437345074,-0.0133349,0.00221588,1.32274e-05,0.08,0.0,0.0,0.0,-1.0
1437349189,1437348097,-0.012884,0.0027825,-1.02825e-05,0.08,0.0,0.0,0.0,-1.0
1437353207,1437352083,-0.0134783,0.00219042,-7.41568e-06,0.08,0.0,0.0,0.0,-1.0
1437356385,1437355083,-0.0129475,0.00355782,-1.72172e-05,0.08,0.0,0.0,0.0,-1.0
1437360299,1437359127,-0.0135252,0.00218149,2.33972e-05,0.08,0.0,0.0,0.0,-1.0
1437363224,1437362173,-0.0127753,0.00179409,-5.53779e-05,0.08,0.0,0.0,0.0,-1.0
1437367242,1437366100,-0.0134861,0.00248321,5.35675e-06,0.08,0.0,0.0,0.0,-1.0
1437369271,1437368139,-0.012989,0.00268081,-9.30477e-06,0.08,0.0,0.0,0.0,-1.0
1437372271,1437371165,-0.0130154,0.00224599,1.19082e-06,0.08,0.0,0.0,0.0,-1.0
1437380156,1437379097,-0.0134832,0.0021365,-4.35799e-05,0.08,0.0,0.0,0.0,-1.0
1437384164,1437383180,-0.0126138,0.00271709,-4.70633e-05,0.08,0.0,0.0,0.0,-1.0
1437388128,1437387256,-0.0133572,0.00252065,3.57103e-05,0.08,0.0,0.0,0.0,-1.0
1437391244,1437390088,-0.0128268,0.00199221,-1.34156e-05,0.08,0.0,0.0,0.0,-1.0
1437392198,1437391153,-0.0131326,0.00201599,-1.79883e-05,0.08,0.0,0.0,0.0,-1.0
1437398148,1437397273,-0.013,0.00188165,1.14199e-05,0.08,0.0,0.0,0.0,-1.0
1437402255,1437401015,-0.0134442,0.00189349,-6.76699e-05,0.08,0.0,0.0,0.0,-1.0
1437405178,1437404181,-0.0128857,0.00220412,-1.41532e-05,0.08,0.0,0.0,0.0,-1.0
1437409249,1437408171,-0.013512,0.00154782,-3.91754e-06,0.08,0.0,0.0,0.0,-1.0
1437412286,1437411094,-0.0130905,0.00219101,-2.08313e-05,0.08,0.0,0.0,0.0,-1.0
1437416122,1437415186,-0.0134829,0.00251582,-4.08447e-05,0.08,0.0,0.0,0.0,-1.0
1437419147,1437418112,-0.0127807,0.00211823,2.02148e-05,0.08,0.0,0.0,0.0,-1.0
1437423171,1437422169,-0.0136522,0.0028052,1.0414e-05,0.08,0.0,0.0,0.0,-1.0
1437426189,1437425145,-0.0128367,0.00194018,-1.66674e-05,0.08,0.0,0.0,0.0,-1.0
1437429259,1437428141,-0.0134095,0.00280046,-5.70042e-05,0.08,0.0,0.0,0.0,-1.0
1437433231,1437432055,-0.0128588,0.00182327,-2.77367e-05,0.08,0.0,0.0,0.0,-1.0
1437436181,1437435141,-0.0131742,0.00244592,-1.16583e-05,0.08,0.0,0.0,0.0,-1.0
1437440122,1437439263,-0.0129382,0.00234754,-5.49183e-05,0.08,0.0,0.0,0.0,-1.0
1437444182,1437443099,-0.0133807,0.00283087,-2.37144e-05,0.08,0.0,0.0,0.0,-1.0
1437447195,1437446088,-0.0130395,0.00157938,-2.92728e-05,0.08,0.0,0.0,0.0,-1.0
1437451201,1437450068,-0.0132746,0.00251751,-3.95048e-05,0.08,0.0,0.0,0.0,-1.0
1437454197,1437453082,-0.0131449,0.00181621,-7.97936e-05,0.08,0.0,0.0,0.0,-1.0
1437458182,1437457092,-0.0132339,0.0026882,-8.4862e-05,0.08,0.0,0.0,0.0,-1.0
1437461225,1437460182,-0.0130579,0.00200201,-4.03638e-05,0.08,0.0,0.0,0.0,-1.0
1437465198,1437464142,-0.0135169,0.0024199,-7.57375e-05,0.08,0.0,0.0,0.0,-1.0
1437468268,1437467182,-0.0131585,0.00190808,2.92777e-06,0.08,0.0,0.0,0.0,-1.0
1437471222,1437470099,-0.0130918,0.00251861,-3.70369e-05,0.08,0.0,0.0,0.0,-1.0
1437475297,1437474139,-0.0128326,0.00255423,-1.05251e-05,0.08,0.0,0.0,0.0,-1.0
1437479135,1437478236,-0.0133746,0.00199842,-6.36586e-05,0.08,0.0,0.0,0.0,-1.0
1437482175,1437481244,-0.0131459,0.00201111,-3.72861e-06,0.08,0.0,0.0,0.0,-1.0
1437486180,1437485104,-0.0130669,0.00228096,-7.8032e-06,0.08,0.0,0.0,0.0,-1.0
1437487357,1437486085,-0.0133854,0.002624,-1.83358e-05,0.08,0.0,0.0,0.0,-1.0
1437493120,1437492348,-0.0131185,0.00211581,-1.39193e-05,0.08,0.0,0.0,0.0,-1.0
1437496202,1437495137,-0.013061,0.00224621,1.42011e-05,0.08,0.0,0.0,0.0,-1.0
1437500201,1437499175,-0.0131727,0.00211467,-2.67195e-05,0.08,0.0,0.0,0.0,-1.0
1437501188,1437500111,-0.0133648,0.00227581,-1.18146e-05,0.08,0.0,0.0,0.0,-1.0
1437507273,1437506084,-0.0132122,0.00259207,-2.73321e-05,0.08,0.0,0.0,0.0,-1.0
1437510230,1437509108,-0.0134395,0.00250308,2.38679e-06,0.08,0.0,0.0,0.0,-1.0
1437513224,1437512141,-0.0126292,0.00219791,4.79224e-06,0.08,0.0,0.0,0.0,-1.0
1437517243,1437516074,-0.0131715,0.00178227,1.64377e-05,0.08,0.0,0.0,0.0,-1.0
1437521188,1437520104,-0.0132489,0.00275065,2.04287e-05,0.08,0.0,0.0,0.0,-1.0
1437524377,1437523080,-0.0130228,0.00206513,2.02218e-05,0.08,0.0,0.0,0.0,-1.0
1437528185,1437527054,-0.0129113,0.00240755,-2.14784e-05,0.08,0.0,0.0,0.0,-1.0
1437531305,1437530146,-0.013125,0.00248625,-1.22759e-05,0.08,0.0,0.0,0.0,-1.0
1437535275,1437534165,-0.0132364,0.002553,-3.91246e-05,0.08,0.0,0.0,0.0,-1.0
1437538165,1437537176,-0.0134613,0.00170656,-2.62675e-05,0.08,0.0,0.0,0.0,-1.0
1437542211,1437541133,-0.01288,0.00245673,-6.59245e-05,0.08,0.0,0.0,0.0,-1.0
1437545251,1437544020,-0.0130594,0.00220472,6.88814e-06,0.08,0.0,0.0,0.0,-1.0
1437548262,1437547131,-0.0133161,0.00213715,1.00945e-05,0.08,0.0,0.0,0.0,-1.0
1437552151,1437551127,-0.0129023,0.00215844,-3.67146e-05,0.08,0.0,0.0,0.0,-1.0
1437556222,1437555156,-0.0131503,0.00279022,-1.16708e-05,0.08,0.0,0.0,0.0,-1.0
1437559226,1437558288,-0.0132517,0.00248193,-2.52941e-05,0.08,0.0,0.0,0.0,-1.0
1437563282,1437562137,-0.0128933,0.00211658,1.09939e-05,0.08,0.0,0.0,0.0,-1.0
1437566134,1437565248,-0.01333,0.00234104,-4.35223e-05,0.08,0.0,0.0,0.0,-1.0
1437570226,1437569107,-0.0126484,0.00179286,1.09327e-05,0.08,0.0,0.0,0.0,-1.0
1437573214,1437572117,-0.0133006,0.00222424,-1.62933e-05,0.08,0.0,0.0,0.0,-1.0
1437577238,1437576188,-0.0128545,0.00262068,-5.26992e-05,0.08,0.0,0.0,0.0,-1.0
1437580308,1437579124,-0.0130352,0.00242569,-4.66938e-05,0.08,0.0,0.0,0.0,-1.0
1437584279,1437583100,-0.0126639,0.0026903,-3.53056e-05,0.08,0.0,0.0,0.0,-1.0
1437587118,1437586223,-0.0129609,0.00270834,-2.91346e-05,0.08,0.0,0.0,0.0,-1.0
1437589256,1437588171,-0.0128457,0.00201771,-1.70523e-05,0.08,0.0,0.0,0.0,-1.0
1437594319,1437593097,-0.0136422,0.0023365,-2.91489e-05,0.08,0.0,0.0,0.0,-1.0
1437598268,1437597163,-0.0126328,0.00277502,1.22325e-05,0.08,0.0,0.0,0.0,-1.0
1437601150,1437600118,-0.0132462,0.00224028,-2.41512e-05,0.08,0.0,0.0,0.0,-1.0
1437605481,1437604139,-0.0129879,0.00208029,-1.29353e-06,0.08,0.0,0.0,0.0,-1.0
1437608131,1437607177,-0.0130657,0.00249717,-2.07371e-05,0.08,0.0,0.0,0.0,-1.0
1437612187,1437611192,-0.0126735,0.00155282,-1.75287e-05,0.08,0.0,0.0,0.0,-1.0
1437615320,1437614070,-0.0132689,0.00274349,-4.67553e-05,0.08,0.0,0.0,0.0,-1.0
1437618184,1437617102,-0.0128826,0.00295977,-1.52393e-05,0.08,0.0,0.0,0.0,-1.0
1437622328,1437621122,-0.0128912,0.00231873,-1.38683e-05,0.08,0.0,0.0,0.0,-1.0
1437626251,1437625082,-0.0127536,0.00146372,-3.20547e-05,0.08,0.0,0.0,0.0,-1.0
1437629248,1437628030,-0.013265,0.00251364,-1.80663e-05,0.08,0.0,0.0,0.0,-1.0
1437633168,1437632226,-0.0124862,0.00197545,-3.83312e-05,0.08,0.0,0.0,0.0,-1.0
1437636219,1437635146,-0.0134393,0.00212235,-2.11553e-05,0.08,0.0,0.0,0.0,-1.0
1437640282,1437639079,-0.0124071,0.0021395,-4.78538e-05,0.08,0.0,0.0,0.0,-1.0
1437643138,1437642166,-0.012739,0.00286922,-1.03015e-05,0.08,0.0,0.0,0.0,-1.0
1437647186,1437646215,-0.0124742,0.00224408,-4.63953e-05,0.08,0.0,0.0,0.0,-1.0
1437650311,1437649095,-0.013141,0.00212818,5.63423e-07,0.08,0.0,0.0,0.0,-1.0
1437654246,1437653135,-0.01281,0.00140786,6.18394e-06,0.08,0.0,0.0,0.0,-1.0
1437657298,1437656089,-0.0133877,0.00254202,-5.8685e-05,0.08,0.0,0.0,0.0,-1.0
1437661255,1437660076,-0.0125048,0.00212714,1.04006e-05,0.08,0.0,0.0,0.0,-1.0
1437664191,1437663105,-0.0132422,0.0023411,-4.42829e-05,0.08,0.0,0.0,0.0,-1.0
1437668172,1437667194,-0.0123694,0.00146133,1.79175e-05,0.08,0.0,0.0,0.0,-1.0
1437669273,1437668079,-0.0123385,0.00160065,1.24193e-05,0.08,0.0,0.0,0.0,-1.0
1437678166,1437677122,-0.0129812,0.00200842,-3.8898e-05,0.08,0.0,0.0,0.0,-1.0
1437687174,1437686124,-0.0131727,0.00225345,-8.46477e-05,0.08,0.0,0.0,0.0,-1.0
1437691250,1437690094,-0.0125655,0.00196583,-2.20361e-05,0.08,0.0,0.0,0.0,-1.0
1437696276,1437695187,-0.0127857,0.00215175,-4.28403e-05,0.08,0.0,0.0,0.0,-1.0
1437699172,1437698260,-0.0128847,0.00203284,-6.34673e-05,0.08,0.0,0.0,0.0,-1.0
1437703206,1437702125,-0.0129637,0.00239401,-2.8068e-05,0.08,0.0,0.0,0.0,-1.0
1437706186,1437705087,-0.0128973,0.00219623,-3.68413e-05,0.08,0.0,0.0,0.0,-1.0
1437710215,1437709118,-0.0127202,0.00232875,-2.77218e-05,0.08,0.0,0.0,0.0,-1.0
1437713261,1437712411,-0.0127458,0.00295485,-4.69679e-05,0.08,0.0,0.0,0.0,-1.0
1437717120,1437716231,-0.0130368,0.00211276,-7.35006e-05,0.08,0.0,0.0,0.0,-1.0
1437720193,1437719144,-0.0125158,0.00288129,2.30087e-06,0.08,0.0,0.0,0.0,-1.0
1437724171,1437723161,-0.0126779,0.00228904,-2.79082e-05,0.08,0.0,0.0,0.0,-1.0
1437727246,1437726111,-0.0129038,0.00233935,-5.00108e-05,0.08,0.0,0.0,0.0,-1.0
1437731259,1437730186,-0.0129462,0.00194907,2.65545e-05,0.08,0.0,0.0,0.0,-1.0
1437734188,1437733073,-0.0124753,0.00208199,1.00345e-05,0.08,0.0,0.0,0.0,-1.0
1437738195,1437737106,-0.0126857,0.00200548,-2.58212e-05,0.08,0.0,0.0,0.0,-1.0
1437741201,1437740118,-0.0125388,0.00323634,-1.31143e-05,0.08,0.0,0.0,0.0,-1.0
1437744203,1437743072,-0.0128451,0.002005,-5.44004e-05,0.08,0.0,0.0,0.0,-1.0
1437748097,1437747373,-0.0127222,0.00233378,-2.04336e-05,0.08,0.0,0.0,0.0,-1.0
1437752155,1437751106,-0.0129816,0.00174191,-1.8216e-05,0.08,0.0,0.0,0.0,-1.0
1437755137,1437754204,-0.0125967,0.00172863,-3.30446e-06,0.08,0.0,0.0,0.0,-1.0
1437759266,1437758303,-0.0127526,0.0021561,-5.48344e-06,0.08,0.0,0.0,0.0,-1.0
1437762280,1437761198,-0.012634,0.00243037,-4.93327e-06,0.08,0.0,0.0,0.0,-1.0
1437766231,1437765206,-0.012756,0.00224958,-2.43706e-05,0.08,0.0,0.0,0.0,-1.0
1437769222,1437768067,-0.0127311,0.00222345,-7.50808e-06,0.08,0.0,0.0,0.0,-1.0
1437773262,1437772108,-0.012848,0.00158525,-4.95111e-05,0.08,0.0,0.0,0.0,-1.0
1437776219,1437775120,-0.0125964,0.00222018,-3.58443e-05,0.08,0.0,0.0,0.0,-1.0
1437780197,1437779102,-0.0131021,0.00211254,-1.835e-05,0.08,0.0,0.0,0.0,-1.0
1437783258,1437782049,-0.0125755,0.00212648,-4.15614e-05,0.08,0.0,0.0,0.0,-1.0
1437787101,1437786196,-0.0129641,0.00146,3.87373e-05,0.08,0.0,0.0,0.0,-1.0
1437790181,1437789163,-0.012402,0.00192044,-1.89649e-05,0.08,0.0,0.0,0.0,-1.0
1437793268,1437792162,-0.0129514,0.00240283,-4.91598e-05,0.08,0.0,0.0,0.0,-1.0
1437796189,1437795176,-0.012405,0.00218233,-6.09274e-05,0.08,0.0,0.0,0.0,-1.0
1437801296,1437800117,-0.0131026,0.00191099,-7.02673e-05,0.08,0.0,0.0,0.0,-1.0
1437804248,1437803147,-0.0123652,0.00209605,-4.15631e-05,0.08,0.0,0.0,0.0,-1.0
1437807301,1437806033,-0.0127216,0.00176444,-9.20925e-05,0.08,0.0,0.0,0.0,-1.0
1437811250,1437810108,-0.0129029,0.00151822,-4.18171e-05,0.08,0.0,0.0,0.0,-1.0
1437815184,1437814088,-0.0127636,0.00220596,-7.47323e-05,0.08,0.0,0.0,0.0,-1.0
1437818202,1437817111,-0.0125216,0.00235688,-4.48287e-06,0.08,0.0,0.0,0.0,-1.0
1437821389,1437820147,-0.0130918,0.00165272,-2.91521e-05,0.08,0.0,0.0,0.0,-1.0
1437825235,1437824097,-0.0126696,0.00234144,-1.94824e-05,0.08,0.0,0.0,0.0,-1.0
1437828255,1437827089,-0.0127839,0.00174104,-4.77916e-05,0.08,0.0,0.0,0.0,-1.0
1437832429,1437831276,-0.0125427,0.00211755,-2.38306e-06,0.08,0.0,0.0,0.0,-1.0
1437836212,1437835147,-0.0128501,0.00192218,-6.29034e-05,0.08,0.0,0.0,0.0,-1.0
1437839257,1437838175,-0.0125098,0.00229742,-3.15362e-05,0.08,0.0,0.0,0.0,-1.0
1437842191,1437841091,-0.012552,0.00220319,-4.34094e-05,0.08,0.0,0.0,0.0,-1.0
1437844338,1437843223,-0.01275,0.00228738,2.02821e-06,0.08,0.0,0.0,0.0,-1.0
1437850249,1437849043,-0.0130395,0.00210249,-3.77453e-05,0.08,0.0,0.0,0.0,-1.0
1437853231,1437852168,-0.0126272,0.00220852,-4.79238e-05,0.08,0.0,0.0,0.0,-1.0
1437857301,1437856201,-0.013093,0.00237697,-9.32404e-05,0.08,0.0,0.0,0.0,-1.0
1437860230,1437859278,-0.0122246,0.00194296,-5.73813e-05,0.08,0.0,0.0,0.0,-1.0
1437864225,1437863122,-0.012765,0.00198519,-4.17176e-05,0.08,0.0,0.0,0.0,-1.0
1437867237,1437866122,-0.0124048,0.00188097,-1.62094e-05,0.08,0.0,0.0,0.0,-1.0
1437871216,1437870104,-0.0128526,0.00154799,-6.40998e-05,0.08,0.0,0.0,0.0,-1.0
1437874243,1437873121,-0.0125456,0.00162824,-3.77368e-05,0.08,0.0,0.0,0.0,-1.0
1437877248,1437876229,-0.0128392,0.00183246,-4.23259e-05,0.08,0.0,0.0,0.0,-1.0
1437881244,1437880115,-0.0124297,0.00186973,-5.08547e-05,0.08,0.0,0.0,0.0,-1.0
1437885201,1437884084,-0.0125946,0.00232603,-4.41433e-05,0.08,0.0,0.0,0.0,-1.0
1437888176,1437887168,-0.0126289,0.00188252,-2.91166e-05,0.08,0.0,0.0,0.0,-1.0
1437892171,1437891119,-0.0126741,0.00260481,-4.06596e-05,0.08,0.0,0.0,0.0,-1.0
1437895228,1437894125,-0.0124967,0.00131233,-2.62138e-05,0.08,0.0,0.0,0.0,-1.0
1437899237,1437898117,-0.0130248,0.00275083,-3.70255e-05,0.08,0.0,0.0,0.0,-1.0
1437902381,1437901129,-0.0124894,0.00183619,-3.99933e-05,0.08,0.0,0.0,0.0,-1.0
1437906199,1437905119,-0.0124649,0.00238708,-2.04771e-05,0.08,0.0,0.0,0.0,-1.0
1437909299,1437908089,-0.0123132,0.00187453,-7.45572e-06,0.08,0.0,0.0,0.0,-1.0
1437913255,1437912145,-0.0126962,0.00213766,-5.44572e-05,0.08,0.0,0.0,0.0,-1.0
1437916239,1437915123,-0.0126403,0.00143021,-5.59296e-05,0.08,0.0,0.0,0.0,-1.0
1437920224,1437919168,-0.0127554,0.00301308,-3.22028e-05,0.08,0.0,0.0,0.0,-1.0
1437923247,1437922151,-0.0123533,0.00124874,-3.28904e-05,0.08,0.0,0.0,0.0,-1.0
1437926183,1437925140,-0.0125399,0.00281355,-4.67796e-05,0.08,0.0,0.0,0.0,-1.0
1437930225,1437929127,-0.0128995,0.00155102,-2.06106e-05,0.08,0.0,0.0,0.0,-1.0
1437934327,1437933109,-0.012647,0.00187207,-3.55576e-05,0.08,0.0,0.0,0.0,-1.0
1437937273,1437936166,-0.012952,0.00200526,-4.54303e-05,0.08,0.0,0.0,0.0,-1.0
1437941229,1437940308,-0.0125172,0.00238895,-6.2196e-05,0.08,0.0,0.0,0.0,-1.0
1437944340,1437943216,-0.0125206,0.00162415,-5.85322e-05,0.08,0.0,0.0,0.0,-1.0
1437948234,1437947125,-0.0126189,0.00290155,-6.37443e-05,0.08,0.0,0.0,0.0,-1.0
1437951196,1437950086,-0.0125465,0.00149674,-2.00341e-05,0.08,0.0,0.0,0.0,-1.0
1437955276,1437954147,-0.0125246,0.002688,-3.15026e-05,0.08,0.0,0.0,0.0,-1.0
1437958331,1437957106,-0.0131992,0.0024865,-3.39822e-05,0.08,0.0,0.0,0.0,-1.0
1437961223,1437960126,-0.0122586,0.0020279,-7.07375e-05,0.08,0.0,0.0,0.0,-1.0
1437965141,1437964192,-0.0125658,0.00231404,-4.1424e-05,0.08,0.0,0.0,0.0,-1.0
1437968273,1437967094,-0.0124326,0.00166688,-5.54184e-05,0.08,0.0,0.0,0.0,-1.0
1437972195,1437971147,-0.0123623,0.00221949,-4.22536e-05,0.08,0.0,0.0,0.0,-1.0
1437975264,1437974133,-0.0122115,0.00203603,-2.81541e-05,0.08,0.0,0.0,0.0,-1.0
1437978234,1437977125,-0.012728,0.00255643,-5.75252e-05,0.08,0.0,0.0,0.0,-1.0
1437983221,1437982112,-0.0125298,0.00239406,-3.31665e-05,0.08,0.0,0.0,0.0,-1.0
1437986176,1437985126,-0.0124889,0.00235646,-4.15306e-05,0.08,0.0,0.0,0.0,-1.0
1437990146,1437989353,-0.0123762,0.00233628,-8.92336e-06,0.08,0.0,0.0,0.0,-1.0
1437993257,1437992128,-0.0130493,0.00252231,-4.16965e-05,0.08,0.0,0.0,0.0,-1.0
1437996227,1437995221,-0.0124102,0.00190854,-3.78612e-05,0.08,0.0,0.0,0.0,-1.0
1438000349,1437999198,-0.0126063,0.00213805,-4.03943e-05,0.08,0.0,0.0,0.0,-1.0
1438003325,1438002147,-0.0125321,0.00176588,-2.30712e-05,0.08,0.0,0.0,0.0,-1.0
1438007215,1438006197,-0.0126618,0.00197761,-6.05639e-05,0.08,0.0,0.0,0.0,-1.0
1438011223,1438010147,-0.0120816,0.0018565,1.02416e-05,0.08,0.0,0.0,0.0,-1.0
1438014255,1438013139,-0.0126186,0.00195636,-1.83885e-05,0.08,0.0,0.0,0.0,-1.0
1438018328,1438017172,-0.0123816,0.00210659,-7.76705e-06,0.08,0.0,0.0,0.0,-1.0
1438021238,1438020123,-0.0124224,0.00212748,-1.49877e-05,0.08,0.0,0.0,0.0,-1.0
1438024267,1438023013,-0.0123989,0.00167476,1.26061e-05,0.08,0.0,0.0,0.0,-1.0
1438028205,1438027040,-0.0126083,0.00137627,-1.61175e-05,0.08,0.0,0.0,0.0,-1.0
1438031217,1438030186,-0.0126032,0.00226125,-3.78601e-05,0.08,0.0,0.0,0.0,-1.0
1438035253,1438034107,-0.0127517,0.0021466,-5.80955e-05,0.08,0.0,0.0,0.0,-1.0
1438039187,1438038272,-0.012201,0.00199868,-4.81046e-05,0.08,0.0,0.0,0.0,-1.0
1438042202,1438041131,-0.0126595,0.00194829,-2.48006e-05,0.08,0.0,0.0,0.0,-1.0
1438045266,1438044157,-0.0121907,0.00155953,-4.28931e-05,0.08,0.0,0.0,0.0,-1.0
1438049250,1438048210,-0.0129564,0.00179204,-3.86907e-05,0.08,0.0,0.0,0.0,-1.0
1438053144,1438052287,-0.0121261,0.00214158,7.93278e-06,0.08,0.0,0.0,0.0,-1.0
1438056212,1438055199,-0.0126305,0.00198223,-4.84681e-05,0.08,0.0,0.0,0.0,-1.0
1438060308,1438059100,-0.0120655,0.00108369,-4.28322e-05,0.08,0.0,0.0,0.0,-1.0
1438063151,1438062186,-0.0128275,0.00234325,-6.95867e-06,0.08,0.0,0.0,0.0,-1.0
1438067214,1438066117,-0.0117333,0.00184656,-2.32907e-05,0.08,0.0,0.0,0.0,-1.0
1438070199,1438069035,-0.012704,0.00191446,-4.03685e-05,0.08,0.0,0.0,0.0,-1.0
1438074147,1438073212,-0.0123917,0.00135003,-6.06081e-06,0.08,0.0,0.0,0.0,-1.0
1438077264,1438076166,-0.0127136,0.00189287,-4.71724e-05,0.08,0.0,0.0,0.0,-1.0
1438081238,1438080147,-0.0120929,0.00161576,-1.24483e-05,0.08,0.0,0.0,0.0,-1.0
1438084216,1438083223,-0.0127845,0.00180899,-3.66195e-05,0.08,0.0,0.0,0.0,-1.0
1438087234,1438086115,-0.0121787,0.00170859,-8.18904e-05,0.08,0.0,0.0,0.0,-1.0
1438091251,1438090134,-0.0126925,0.00246779,-4.70431e-05,0.08,0.0,0.0,0.0,-1.0
1438095246,1438094031,-0.0121382,0.00158927,-6.19195e-05,0.08,0.0,0.0,0.0,-1.0
1438098303,1438097234,-0.0126749,0.00196622,-7.39385e-05,0.08,0.0,0.0,0.0,-1.0
1438101270,1438100098,-0.011901,0.00208662,-2.0482e-05,0.08,0.0,0.0,0.0,-1.0
1438104132,1438103220,-0.0127649,0.00207789,-6.11831e-05,0.08,0.0,0.0,0.0,-1.0
1438107201,1438106162,-0.0126325,0.0017391,-2.0405e-05,0.08,0.0,0.0,0.0,-1.0
1438111168,1438110151,-0.0119905,0.00203449,-2.07631e-05,0.08,0.0,0.0,0.0,-1.0
1438114248,1438113139,-0.0125867,0.00205671,-1.40608e-05,0.08,0.0,0.0,0.0,-1.0
1438117290,1438116208,-0.0119737,0.0015238,-4.54225e-05,0.08,0.0,0.0,0.0,-1.0
1438121172,1438120090,-0.0125529,0.00168521,-2.19228e-05,0.08,0.0,0.0,0.0,-1.0
1438129226,1438128126,-0.0123667,0.00162385,2.4301e-05,0.08,0.0,0.0,0.0,-1.0
1438132150,1438131125,-0.0118018,0.00194718,-3.15266e-05,0.08,0.0,0.0,0.0,-1.0
1438137275,1438136135,-0.0121221,0.0016439,-2.9678e-05,0.08,0.0,0.0,0.0,-1.0
1438140187,1438139116,-0.0125598,0.0020257,-9.77469e-06,0.08,0.0,0.0,0.0,-1.0
1438144198,1438143053,-0.0125253,0.00187658,-3.89484e-05,0.08,0.0,0.0,0.0,-1.0
1438147153,1438146238,-0.0123839,0.00189165,-1.34595e-05,0.08,0.0,0.0,0.0,-1.0
1438151126,1438150216,-0.0124905,0.00198466,-1.9276e-05,0.08,0.0,0.0,0.0,-1.0
1438154384,1438153167,-0.0121879,0.00199097,-5.62147e-05,0.08,0.0,0.0,0.0,-1.0
1438158290,1438157129,-0.0124138,0.00173822,-5.80152e-05,0.08,0.0,0.0,0.0,-1.0
1438161304,1438160214,-0.0124033,0.00212265,-5.66435e-05,0.08,0.0,0.0,0.0,-1.0
1438164282,1438163103,-0.0126564,0.0020452,-2.84016e-05,0.08,0.0,0.0,0.0,-1.0
1438168215,1438167211,-0.0120944,0.00164234,-1.71076e-05,0.08,0.0,0.0,0.0,-1.0
1438171220,1438170031,-0.0120988,0.00137175,1.08578e-05,0.08,0.0,0.0,0.0,-1.0
1438175361,1438174133,-0.012549,0.00216638,-5.87683e-05,0.08,0.0,0.0,0.0,-1.0
1438177116,1438176339,-0.0126618,0.00179965,-7.36937e-05,0.08,0.0,0.0,0.0,-1.0
1438182180,1438181082,-0.0122629,0.00145796,4.60164e-06,0.08,0.0,0.0,0.0,-1.0
1438186186,1438185130,-0.0124543,0.00155375,-3.46198e-05,0.08,0.0,0.0,0.0,-1.0
1438189124,1438188298,-0.0121337,0.00241365,-8.18891e-06,0.08,0.0,0.0,0.0,-1.0
1438193164,1438192189,-0.0125681,0.00177464,-4.75603e-05,0.08,0.0,0.0,0.0,-1.0
1438195224,1438194218,-0.0121448,0.00197278,-3.91483e-05,0.08,0.0,0.0,0.0,-1.0
1438200217,1438199220,-0.0120904,0.00197662,-5.53152e-05,0.08,0.0,0.0,0.0,-1.0
1438203260,1438202069,-0.0119901,0.00188407,-4.24593e-05,0.08,0.0,0.0,0.0,-1.0
1438207202,1438206268,-0.0125463,0.00197471,-3.72754e-05,0.08,0.0,0.0,0.0,-1.0
1438210212,1438209011,-0.0118408,0.00194986,-5.36699e-06,0.08,0.0,0.0,0.0,-1.0
1438214149,1438213373,-0.0127504,0.00206755,-3.82697e-05,0.08,0.0,0.0,0.0,-1.0
1438217221,1438216067,-0.0119298,0.0016861,-6.58609e-07,0.08,0.0,0.0,0.0,-1.0
1438221201,1438220063,-0.0121902,0.00272763,-5.22938e-05,0.08,0.0,0.0,0.0,-1.0
1438224331,1438223215,-0.0118296,0.00165781,1.56159e-05,0.08,0.0,0.0,0.0,-1.0
1438228195,1438227161,-0.01234,0.00153383,-3.38814e-05,0.08,0.0,0.0,0.0,-1.0
1438231275,1438230105,-0.0117956,0.00171263,-4.95526e-05,0.08,0.0,0.0,0.0,-1.0
1438234253,1438233117,-0.0123932,0.00184584,-3.92197e-05,0.08,0.0,0.0,0.0,-1.0
1438238219,1438237121,-0.0119807,0.00262075,-4.7423e-05,0.08,0.0,0.0,0.0,-1.0
1438242244,1438241155,-0.012501,0.00159982,-3.94276e-05,0.08,0.0,0.0,0.0,-1.0
1438245325,1438244096,-0.0117707,0.0015491,-1.5788e-05,0.08,0.0,0.0,0.0,-1.0
1438249241,1438248110,-0.0127199,0.00169714,9.32474e-06,0.08,0.0,0.0,0.0,-1.0
1438252237,1438251090,-0.0120114,0.00167827,-9.04947e-10,0.08,0.0,0.0,0.0,-1.0
1438256197,1438255131,-0.0125302,0.00148898,-6.02072e-05,0.08,0.0,0.0,0.0,-1.0
1438259194,1438258221,-0.0121461,0.00190304,-2.42059e-05,0.08,0.0,0.0,0.0,-1.0
1438263271,1438262069,-0.0125884,0.00218087,-7.79242e-06,0.08,0.0,0.0,0.0,-1.0
1438266138,1438265138,-0.0117643,0.00177018,-4.98749e-05,0.08,0.0,0.0,0.0,-1.0
1438270170,1438269119,-0.0125752,0.0015811,-4.21075e-05,0.08,0.0,0.0,0.0,-1.0
1438273203,1438272095,-0.0120802,0.00201087,-3.63625e-05,0.08,0.0,0.0,0.0,-1.0
1438277210,1438276180,-0.0123941,0.0017637,-4.01001e-05,0.08,0.0,0.0,0.0,-1.0
1438280285,1438279098,-0.0117337,0.00127918,3.14847e-05,0.08,0.0,0.0,0.0,-1.0
1438284285,1438283219,-0.0125782,0.00167123,-7.30286e-05,0.08,0.0,0.0,0.0,-1.0
1438287383,1438286066,-0.0119724,0.00188433,-1.94688e-05,0.08,0.0,0.0,0.0,-1.0
1438291160,1438290228,-0.0124001,0.00207017,-1.49819e-05,0.08,0.0,0.0,0.0,-1.0
1438294296,1438293189,-0.0122381,0.00160791,-4.53781e-05,0.08,0.0,0.0,0.0,-1.0
1438297197,1438296095,-0.0122933,0.00267377,-7.74655e-05,0.08,0.0,0.0,0.0,-1.0
1438301225,1438300114,-0.0121318,0.00131738,1.25363e-05,0.08,0.0,0.0,0.0,-1.0
1438305133,1438304165,-0.0125042,0.00172444,-5.85412e-05,0.08,0.0,0.0,0.0,-1.0
1438308175,1438307151,-0.0121813,0.00186798,1.307e-05,0.08,0.0,0.0,0.0,-1.0
1438312148,1438311084,-0.0121194,0.0016706,-4.58764e-05,0.08,0.0,0.0,0.0,-1.0
1438315240,1438314097,-0.0122563,0.00192853,-4.29194e-05,0.08,0.0,0.0,0.0,-1.0
1438318186,1438317167,-0.0121735,0.00209231,-3.58509e-05,0.08,0.0,0.0,0.0,-1.0
1438322206,1438321113,-0.0121368,0.00162322,-1.55857e-05,0.08,0.0,0.0,0.0,-1.0
1438326277,1438325070,-0.0121622,0.00178416,2.71768e-05,0.08,0.0,0.0,0.0,-1.0
1438329210,1438328136,-0.0120648,0.00204148,-1.13306e-05,0.08,0.0,0.0,0.0,-1.0
1438333193,1438332183,-0.0124819,0.00207237,-2.39989e-05,0.08,0.0,0.0,0.0,-1.0
1438336237,1438335120,-0.0117608,0.00184936,3.06102e-05,0.08,0.0,0.0,0.0,-1.0
1438340275,1438339053,-0.0125847,0.00243663,-5.51958e-05,0.08,0.0,0.0,0.0,-1.0
1438343175,1438342084,-0.0118588,0.00170578,-4.76417e-07,0.08,0.0,0.0,0.0,-1.0
1438347143,1438346165,-0.0120595,0.00250118,-5.71085e-05,0.08,0.0,0.0,0.0,-1.0
1438350243,1438349138,-0.012111,0.00130719,-2.63228e-05,0.08,0.0,0.0,0.0,-1.0
1438354248,1438353016,-0.0121631,0.00250434,-4.58501e-05,0.08,0.0,0.0,0.0,-1.0
1438357240,1438356093,-0.0121299,0.00141717,1.68016e-05,0.08,0.0,0.0,0.0,-1.0
1438360246,1438359147,-0.012085,0.00186653,-3.73971e-05,0.08,0.0,0.0,0.0,-1.0
1438364295,1438363111,-0.0120874,0.00186177,2.47779e-05,0.08,0.0,0.0,0.0,-1.0
1438367183,1438366189,-0.0120379,0.00193237,-4.66709e-05,0.08,0.0,0.0,0.0,-1.0
1438371226,1438370092,-0.0120148,0.00214548,-1.26557e-05,0.08,0.0,0.0,0.0,-1.0
1438375222,1438374097,-0.0119739,0.0016806,-6.51008e-06,0.08,0.0,0.0,0.0,-1.0
1438378215,1438377150,-0.0122151,0.0016376,-4.48072e-05,0.08,0.0,0.0,0.0,-1.0
1438382159,1438381158,-0.0120645,0.00215298,-3.36527e-05,0.08,0.0,0.0,0.0,-1.0
1438385166,1438384217,-0.0120977,0.00171774,2.28556e-05,0.08,0.0,0.0,0.0,-1.0
1438389248,1438388074,-0.0119145,0.00183621,-8.4447e-05,0.08,0.0,0.0,0.0,-1.0
1438392376,1438391250,-0.0119227,0.00200674,4.77537e-06,0.08,0.0,0.0,0.0,-1.0
1438395210,1438394101,-0.0119389,0.00172309,5.00318e-05,0.08,0.0,0.0,0.0,-1.0
1438399236,1438398135,-0.0124437,0.00202866,1.52722e-05,0.08,0.0,0.0,0.0,-1.0
1438403223,1438402159,-0.0114788,0.0017251,2.1706e-05,0.08,0.0,0.0,0.0,-1.0
1438406233,1438405153,-0.0124998,0.00148975,2.74144e-05,0.08,0.0,0.0,0.0,-1.0
1438409226,1438408194,-0.0117297,0.00158833,-3.01855e-05,0.08,0.0,0.0,0.0,-1.0
1438413208,1438412208,-0.0121279,0.00180747,3.38155e-05,0.08,0.0,0.0,0.0,-1.0
1438417204,1438416167,-0.0119285,0.00263688,1.87979e-05,0.08,0.0,0.0,0.0,-1.0
1438420204,1438419224,-0.0124336,0.00137664,4.01904e-05,0.08,0.0,0.0,0.0,-1.0
1438424233,1438423191,-0.011779,0.00232504,2.27486e-05,0.08,0.0,0.0,0.0,-1.0
1438427288,1438426091,-0.0124177,0.00175135,8.31295e-05,0.08,0.0,0.0,0.0,-1.0
1438430213,1438429020,-0.0117637,0.00236294,4.72395e-05,0.08,0.0,0.0,0.0,-1.0
1438434203,1438433090,-0.0120587,0.00174248,5.87899e-05,0.08,0.0,0.0,0.0,-1.0
1438438222,1438437118,-0.0114599,0.00156934,1.02051e-05,0.08,0.0,0.0,0.0,-1.0
1438441150,1438440145,-0.0124824,0.00228614,1.05881e-05,0.08,0.0,0.0,0.0,-1.0
1438445268,1438444118,-0.0115972,0.00208983,4.88815e-05,0.08,0.0,0.0,0.0,-1.0
1438448179,1438447225,-0.0120356,0.00202313,6.52143e-05,0.08,0.0,0.0,0.0,-1.0
1438452316,1438451178,-0.01168,0.0018712,3.75113e-05,0.08,0.0,0.0,0.0,-1.0
1438455249,1438454195,-0.0122841,0.00183,9.07416e-06,0.08,0.0,0.0,0.0,-1.0
1438459266,1438458163,-0.0118402,0.001876,3.84634e-05,0.08,0.0,0.0,0.0,-1.0
1438462250,1438461116,-0.01239,0.00185616,4.67906e-05,0.08,0.0,0.0,0.0,-1.0
1438466190,1438465182,-0.011569,0.00185936,4.14889e-05,0.08,0.0,0.0,0.0,-1.0
1438469146,1438468122,-0.0120643,0.00216101,1.85898e-05,0.08,0.0,0.0,0.0,-1.0
1438473196,1438472163,-0.0116599,0.00149078,2.8568e-05,0.08,0.0,0.0,0.0,-1.0
1438476336,1438475131,-0.0122134,0.00196239,7.12913e-05,0.08,0.0,0.0,0.0,-1.0
1438480252,1438479106,-0.011823,0.00158504,5.52258e-05,0.08,0.0,0.0,0.0,-1.0
1438483163,1438482285,-0.01244,0.00196121,3.62891e-05,0.08,0.0,0.0,0.0,-1.0
1438487131,1438486183,-0.0114132,0.00176454,5.48604e-05,0.08,0.0,0.0,0.0,-1.0
1438490276,1438489087,-0.0122883,0.00162614,5.97933e-05,0.08,0.0,0.0,0.0,-1.0
1438494135,1438493194,-0.0109294,0.00171718,-1.58684e-05,0.08,0.0,0.0,0.0,-1.0
1438497198,1438496183,-0.0130314,0.0031146,-0.000142568,0.08,0.0,0.0,0.0,-1.0
1438500205,1438499140,-0.0129883,-0.00162825,7.41726e-05,0.08,0.0,0.0,0.0,-1.0
1438504243,1438503090,-0.00870201,-0.00206106,0.000448557,0.08,0.0,0.0,0.0,-1.0
1438507228,1438506128,-0.0135394,0.00585622,0.000206882,0.08,0.0,0.0,0.0,-1.0
1438511127,1438510061,-0.0109865,0.0077605,-0.000401028,0.08,0.0,0.0,0.0,-1.0
1438514143,1438513116,-0.0140563,-0.00434807,-0.000100408,0.08,0.0,0.0,0.0,-1.0
1438518348,1438517172,-0.0108296,-0.00353857,0.000187762,0.08,0.0,0.0,0.0,-1.0
1438522164,1438521103,-0.0171267,0.0017256,2.17235e-06,0.08,0.0,0.0,0.0,-1.0
1438525180,1438524321,-0.00747511,0.00586363,-7.04278e-05,0.08,0.0,0.0,0.0,-1.0
1438529156,1438528120,-0.00783628,0.0013365,0.000128366,0.08,0.0,0.0,0.0,-1.0
1438532478,1438531338,-0.0149965,-0.0073963,0.000160832,0.08,0.0,0.0,0.0,-1.0
1438536288,1438535256,-0.0087116,0.000102026,6.20936e-05,0.08,0.0,0.0,0.0,-1.0
1438539286,1438538081,-0.0145955,0.0105137,-7.66904e-05,0.08,0.0,0.0,0.0,-1.0
1438542181,1438541116,-0.00599908,-0.00335514,-4.19781e-05,0.08,0.0,0.0,0.0,-1.0
1438546179,1438545109,-0.0169983,-0.00762031,-6.65332e-05,0.08,0.0,0.0,0.0,-1.0
1438549264,1438548103,-0.0139424,0.00301276,0.000180559,0.08,0.0,0.0,0.0,-1.0
1438553206,1438552026,0.00530184,0.0123046,0.000543732,0.08,0.0,0.0,0.0,-1.0
1438557207,1438556070,-0.0143928,0.00737385,-0.000376206,0.08,0.0,0.0,0.0,-1.0
1438560184,1438559235,-0.0166912,-0.00414007,-0.000497233,0.08,0.0,0.0,0.0,-1.0
1438564186,1438563175,-0.00566796,-0.00536921,0.00062616,0.08,0.0,0.0,0.0,-1.0
1438567369,1438566133,-0.0132387,0.0015699,0.000283989,0.08,0.0,0.0,0.0,-1.0
1438571268,1438570415,-0.0122705,0.0138233,-0.000377328,0.08,0.0,0.0,0.0,-1.0
1438574334,1438573107,-0.011487,0.00516695,-8.77708e-05,0.08,0.0,0.0,0.0,-1.0
1438577199,1438576144,-0.00848103,-0.0119456,0.000183256,0.08,0.0,0.0,0.0,-1.0
1438581192,1438580022,-0.0153524,-0.00105116,-0.000170275,0.08,0.0,0.0,0.0,-1.0
1438584212,1438583057,-0.0151534,0.0130026,0.000334307,0.08,0.0,0.0,0.0,-1.0
1438588267,1438587027,-0.0109832,0.00868865,0.000742336,0.08,0.0,0.0,0.0,-1.0
1438592226,1438591071,-0.00762239,-0.00438025,-0.00058673,0.08,0.0,0.0,0.0,-1.0
1438595151,1438594118,-0.0149826,-0.0075413,-0.000342655,0.08,0.0,0.0,0.0,-1.0
1438599152,1438598212,-0.011495,0.0125871,-8.27577e-05,0.08,0.0,0.0,0.0,-1.0
1438602207,1438601084,-0.0152575,0.00951118,0.000128579,0.08,0.0,0.0,0.0,-1.0
1438605278,1438604113,-0.000723421,-0.014641,0.000538876,0.08,0.0,0.0,0.0,-1.0
1438609257,1438608061,-0.00574859,-0.00363765,7.69827e-05,0.08,0.0,0.0,0.0,-1.0
1438613223,1438612034,0.000178692,0.00387873,-1.20181e-05,0.08,0.0,0.0,0.0,-1.0
1438616107,1438615240,-0.0287461,0.000951391,-0.000288642,0.08,0.0,0.0,0.0,-1.0
1438620263,1438619066,-0.0300898,0.00611542,-0.000434977,0.08,0.0,0.0,0.0,-1.0
1438623165,1438622056,0.00884404,-0.00060022,0.000128713,0.08,0.0,0.0,0.0,-1.0
1438627174,1438626009,0.00243554,0.0102245,0.000207996,0.08,0.0,0.0,0.0,-1.0
1438630190,1438629124,-0.0311387,-0.00550817,0.000167543,0.08,0.0,0.0,0.0,-1.0
1438633093,1438632325,0.00891163,-0.00144356,8.69083e-05,0.08,0.0,0.0,0.0,-1.0
1438637197,1438636126,-0.00919507,0.00511252,-0.00026073,0.08,0.0,0.0,0.0,-1.0
1438641204,1438640135,-0.0173878,0.0205619,-0.000490502,0.08,0.0,0.0,0.0,-1.0
1438644191,1438643186,-0.00773549,0.00341699,0.000391587,0.08,0.0,0.0,0.0,-1.0
1438647308,1438646058,-0.00664891,-0.0163475,0.000648238,0.08,0.0,0.0,0.0,-1.0
1438648176,1438647218,-0.0203141,-0.0202625,0.000480827,0.08,0.0,0.0,0.0,-1.0
1438654192,1438653082,-0.0206834,0.0113126,-0.000784722,0.08,0.0,0.0,0.0,-1.0
1438658192,1438657060,-0.00701059,0.0100864,-0.0002833,0.08,0.0,0.0,0.0,-1.0
1438662262,1438661233,-0.0123225,-0.00567112,0.000236657,0.08,0.0,0.0,0.0,-1.0
1438665232,1438664022,-0.010092,-0.000367854,0.00110805,0.08,0.0,0.0,0.0,-1.0
1438667261,1438666116,-0.0144858,0.00377956,0.00121925,0.08,0.0,0.0,0.0,-1.0
1438675211,1438674169,-0.0238972,-0.00729554,-0.00113367,0.08,0.0,0.0,0.0,-1.0
1438679277,1438678203,-0.00269787,-0.000617232,-8.59017e-05,0.08,0.0,0.0,0.0,-1.0
1438683210,1438682085,-0.013046,-0.0104051,0.00162972,0.08,0.0,0.0,0.0,-1.0
1438684105,1438683112,-0.0143929,-0.00245785,0.00131585,0.08,0.0,0.0,0.0,-1.0
1438686202,1438685022,-0.0130916,0.0240365,-0.00016906,0.08,0.0,0.0,0.0,-1.0
1438689195,1438688135,-0.033755,0.0176595,-0.00149225,0.08,0.0,0.0,0.0,-1.0
1438697149,1438696077,-0.000899808,-0.0222976,0.000748575,0.08,0.0,0.0,0.0,-1.0
1438700107,1438699129,-0.0200074,0.0152281,-0.000798654,0.08,0.0,0.0,0.0,-1.0
1438704212,1438703049,-0.00484605,0.00442691,0.00066905,0.08,0.0,0.0,0.0,-1.0
1438707157,1438706111,-0.0186282,-0.00217726,0.000506867,0.08,0.0,0.0,0.0,-1.0
1438711209,1438710046,-0.0131508,-0.0095016,-0.000884142,0.08,0.0,0.0,0.0,-1.0
1438714397,1438713160,0.00775895,0.00316127,0.000526708,0.08,0.0,0.0,0.0,-1.0
1438717212,1438716012,-0.0200332,-0.00707849,0.000899514,0.08,0.0,0.0,0.0,-1.0
1438721194,1438720079,-0.00591594,0.00576821,-0.000881842,0.08,0.0,0.0,0.0,-1.0
1438725209,1438724033,-0.00590646,0.0166086,0.000439352,0.08,0.0,0.0,0.0,-1.0
1438728286,1438727062,-0.0198483,-0.0155584,0.000739748,0.08,0.0,0.0,0.0,-1.0
1438732181,1438731120,0.0066452,-0.0136769,-0.00141212,0.08,0.0,0.0,0.0,-1.0
1438735095,1438734192,-0.0248319,0.0218517,-0.0012391,0.08,0.0,0.0,0.0,-1.0
1438738191,1438737076,-0.009596,0.00582328,0.00023804,0.08,0.0,0.0,0.0,-1.0
1438742249,1438741116,-0.00612814,-0.0119206,-0.000479986,0.08,0.0,0.0,0.0,-1.0
1438746183,1438745073,-0.00327363,0.00935588,0.000415395,0.08,0.0,0.0,0.0,-1.0
1438749256,1438748253,-0.0212645,-0.00414803,0.000721357,0.08,0.0,0.0,0.0,-1.0
1438752126,1438751072,-0.027434,-0.00061357,-0.000623382,0.08,0.0,0.0,0.0,-1.0
1438756316,1438755065,0.0187122,0.0127525,-4.58656e-05,0.08,0.0,0.0,0.0,-1.0
1438760240,1438759095,-0.0370098,0.00613726,3.14874e-05,0.08,0.0,0.0,0.0,-1.0
1438763292,1438762069,-0.0203921,-0.00885019,-0.00141593,0.08,0.0,0.0,0.0,-1.0
1438767133,1438766235,0.00884701,0.006545,0.00075709,0.08,0.0,0.0,0.0,-1.0
1438768206,1438767044,0.00360522,0.0154306,0.00133932,0.08,0.0,0.0,0.0,-1.0
1438770143,1438769087,-0.0181803,-0.00231665,0.00127306,0.08,0.0,0.0,0.0,-1.0
1438773143,1438772038,-0.0387609,0.00116751,-0.000999729,0.08,0.0,0.0,0.0,-1.0
1438777168,1438776129,0.0157597,0.00773931,-2.93916e-05,0.08,0.0,0.0,0.0,-1.0
1438778203,1438777078,0.0168864,0.0011781,0.000800802,0.08,0.0,0.0,0.0,-1.0
1438783175,1438782031,-0.0283914,-0.0119186,-0.000728067,0.08,0.0,0.0,0.0,-1.0
1438787212,1438786038,0.000270914,-0.00471927,-0.000763292,0.08,0.0,0.0,0.0,-1.0
1438790230,1438788970,0.016553,0.00121976,0.00184904,0.08,0.0,0.0,0.0,-1.0
1438805185,1438804118,-0.0471306,0.0100679,-0.00117552,0.08,0.0,0.0,0.0,-1.0
1438809228,1438808138,0.0106619,0.0138398,-0.000592183,0.08,0.0,0.0,0.0,-1.0
1438812221,1438811100,-0.00364417,-0.00570181,0.0022882,0.08,0.0,0.0,0.0,-1.0
1438816185,1438815077,-0.0416007,-0.00432107,-0.00167056,0.08,0.0,0.0,0.0,-1.0
1438819127,1438818255,-0.0149241,0.0150078,-0.00207897,0.08,0.0,0.0,0.0,-1.0
1438822306,1438821135,0.0232886,0.00373685,0.00212997,0.08,0.0,0.0,0.0,-1.0
1438826220,1438825080,-0.0342496,-0.00498941,0.000191294,0.08,0.0,0.0,0.0,-1.0
1438829176,1438828110,-0.0192683,9.40479e-06,-0.00286083,0.08,0.0,0.0,0.0,-1.0
1438833254,1438832038,0.00692012,-0.0130868,0.00192818,0.08,0.0,0.0,0.0,-1.0
1438837218,1438836213,-0.038827,-0.0164459,-0.000117766,0.08,0.0,0.0,0.0,-1.0
1438840117,1438839265,-0.00823324,0.00539852,-0.00231737,0.08,0.0,0.0,0.0,-1.0
1438844281,1438843089,0.00590149,-0.00159511,0.00193498,0.08,0.0,0.0,0.0,-1.0
1438847210,1438846137,-0.0147395,-0.016032,0.00107717,0.08,0.0,0.0,0.0,-1.0
1438851176,1438850099,-0.0209695,0.0236603,-0.00232142,0.08,0.0,0.0,0.0,-1.0
1438854179,1438853156,0.00457103,0.00379503,0.000884429,0.08,0.0,0.0,0.0,-1.0
1438857196,1438856148,-0.0291287,-0.0186994,0.00194917,0.08,0.0,0.0,0.0,-1.0
1438861201,1438860113,-0.0213149,0.00223234,-0.00245828,0.08,0.0,0.0,0.0,-1.0
1438865187,1438864168,0.00166967,0.00917774,0.000932245,0.08,0.0,0.0,0.0,-1.0
1438867279,1438866079,-0.00107185,-0.00427352,0.0025393,0.08,0.0,0.0,0.0,-1.0
1438872194,1438871089,-0.0158454,0.016038,-0.00222334,0.08,0.0,0.0,0.0,-1.0
1438875221,1438874174,-0.00840708,0.0177586,-0.000489784,0.08,0.0,0.0,0.0,-1.0
1438879163,1438878171,-0.0239192,-0.0193417,0.001564,0.08,0.0,0.0,0.0,-1.0
1438882070,1438881318,-0.023298,-0.00589036,-0.0015568,0.08,0.0,0.0,0.0,-1.0
1438885292,1438884111,0.00638339,0.0199002,-0.000914505,0.08,0.0,0.0,0.0,-1.0
1438889116,1438888329,-0.0168248,-0.0139912,0.00166087,0.08,0.0,0.0,0.0,-1.0
1438893181,1438892202,-0.00183375,-0.00868914,-0.00130791,0.08,0.0,0.0,0.0,-1.0
1438896229,1438895425,-0.00353576,0.0197636,-0.00057982,0.08,0.0,0.0,0.0,-1.0
1438900114,1438899158,-0.0170147,-0.0097367,0.00136534,0.08,0.0,0.0,0.0,-1.0
1438903261,1438902163,-0.0258561,-0.00689681,-0.0010782,0.08,0.0,0.0,0.0,-1.0
1438906390,1438905145,0.00904524,0.00513683,-0.00102839,0.08,0.0,0.0,0.0,-1.0
1438910234,1438909077,-0.0212804,-0.00819307,0.00124959,0.08,0.0,0.0,0.0,-1.0
1438913244,1438912538,-0.0174481,-0.0111257,-0.000324746,0.08,0.0,0.0,0.0,-1.0
1438917152,1438916190,0.0141241,0.0169962,-0.000300521,0.08,0.0,0.0,0.0,-1.0
1438921131,1438920267,-0.0256683,-0.00189481,0.000767183,0.08,0.0,0.0,0.0,-1.0
1438924185,1438923089,-0.0311657,-0.00827887,-0.000824836,0.08,0.0,0.0,0.0,-1.0
1438928176,1438927260,0.000198583,0.00959703,-2.17379e-05,0.08,0.0,0.0,0.0,-1.0
1438931277,1438930078,-0.0155418,-0.000802062,0.000935421,0.08,0.0,0.0,0.0,-1.0
1438935187,1438934168,-0.030556,-0.00715163,-0.00117901,0.08,0.0,0.0,0.0,-1.0
1438938298,1438937119,0.0193216,0.00979405,-0.000137563,0.08,0.0,0.0,0.0,-1.0
1438941169,1438940150,-0.00551964,0.0040668,0.00130872,0.08,0.0,0.0,0.0,-1.0
1438945191,1438944147,-0.03997,-0.0030525,-0.00133797,0.08,0.0,0.0,0.0,-1.0
1438949259,1438948240,0.0165849,0.00362737,4.78765e-05,0.08,0.0,0.0,0.0,-1.0
1438952167,1438951115,-0.0187442,-0.00372563,0.00153581,0.08,0.0,0.0,0.0,-1.0
1438955119,1438954371,-0.0249898,-0.00620729,-0.000708635,0.08,0.0,0.0,0.0,-1.0
1438959206,1438958130,-6.07716e-05,0.00711096,-0.0005852,0.08,0.0,0.0,0.0,-1.0
1438963123,1438962124,-0.00154431,-0.0110113,0.00165285,0.08,0.0,0.0,0.0,-1.0
1438966227,1438965078,-0.0422621,-0.00605432,-0.00104773,0.08,0.0,0.0,0.0,-1.0
1438970210,1438969121,0.00133181,0.0171935,-0.000492162,0.08,0.0,0.0,0.0,-1.0
1438972204,1438971105,0.0040971,0.00366323,0.00189676,0.08,0.0,0.0,0.0,-1.0
1438976388,1438975039,-0.0403396,-0.00621464,-0.000493599,0.08,0.0,0.0,0.0,-1.0
1438980367,1438979106,-0.0063115,0.0162759,-0.00162188,0.08,0.0,0.0,0.0,-1.0
1438984363,1438983145,-0.00709253,-0.00972678,0.00246243,0.08,0.0,0.0,0.0,-1.0
1438985461,1438984268,-0.0209726,-0.0129335,0.00191697,0.08,0.0,0.0,0.0,-1.0
1438989132,1438988195,-0.0461509,0.0105498,-0.00251097,0.08,0.0,0.0,0.0,-1.0
1438994186,1438993094,0.0130162,-0.00268596,0.00191402,0.08,0.0,0.0,0.0,-1.0
1438997177,1438996152,-0.0306058,-0.0234404,0.000666331,0.08,0.0,0.0,0.0,-1.0
1439001269,1439000086,-0.0266337,0.0190843,-0.00209925,0.08,0.0,0.0,0.0,-1.0
1439004129,1439003165,0.0111039,-0.00509171,0.00128931,0.08,0.0,0.0,0.0,-1.0
1439007238,1439006106,-0.000689981,-0.0253866,0.00179241,0.08,0.0,0.0,0.0,-1.0
1439012229,1439011128,-0.0085002,0.00780578,-0.00175779,0.08,0.0,0.0,0.0,-1.0
1439015256,1439014089,0.0037655,0.00607151,0.00128936,0.08,0.0,0.0,0.0,-1.0
1439019329,1439018181,-0.0131888,-0.021237,0.000655126,0.08,0.0,0.0,0.0,-1.0
1439022224,1439021093,-0.0412152,0.0311191,-0.00199547,0.08,0.0,0.0,0.0,-1.0
1439025461,1439024085,-0.00588521,0.0117748,0.000423658,0.08,0.0,0.0,0.0,-1.0
1439029358,1439028027,-0.0254545,-0.0246279,0.000920466,0.08,0.0,0.0,0.0,-1.0
1439033160,1439032212,-0.0229621,0.00956463,-0.00175428,0.08,0.0,0.0,0.0,-1.0
1439036135,1439035187,-0.000908908,0.00453936,0.000480301,0.08,0.0,0.0,0.0,-1.0
1439040156,1439039128,-0.00723546,-0.0280074,0.0012653,0.08,0.0,0.0,0.0,-1.0
1439043211,1439042178,-0.0263825,0.0190333,-0.00132972,0.08,0.0,0.0,0.0,-1.0
1439046366,1439045200,-0.0163164,0.0151329,-0.00068187,0.08,0.0,0.0,0.0,-1.0
1439050259,1439049172,-0.0203857,-0.0234816,0.00114018,0.08,0.0,0.0,0.0,-1.0
1439053217,1439052069,-0.0137761,-0.0214971,-0.000359682,0.08,0.0,0.0,0.0,-1.0
1439057202,1439056123,0.0109136,-0.0112037,-2.32621e-05,0.08,0.0,0.0,0.0,-1.0
1439061185,1439060458,-0.0223825,-0.0385882,0.000712061,0.08,0.0,0.0,0.0,-1.0
1439064323,1439063118,0.000661142,0.00518695,-0.000336654,0.08,0.0,0.0,0.0,-1.0
1439068152,1439067404,0.00505333,0.0227618,0.000444707,0.08,0.0,0.0,0.0,-1.0
1439071377,1439070164,-0.0326992,-0.00268063,0.000293287,0.08,0.0,0.0,0.0,-1.0
1439074205,1439073089,-0.0216899,-0.0266184,-0.000438083,0.08,0.0,0.0,0.0,-1.0
1439077281,1439076141,0.0175237,0.005655,-8.02904e-05,0.08,0.0,0.0,0.0,-1.0
1439079200,1439078066,-0.0305194,0.00775378,0.000222492,0.08,0.0,0.0,0.0,-1.0
1439085342,1439084128,-0.0190136,0.00751398,-0.000319494,0.08,0.0,0.0,0.0,-1.0
1439089192,1439088124,0.0301068,0.0177856,0.000820387,0.08,0.0,0.0,0.0,-1.0
1439092287,1439091171,-0.0486353,0.0165169,-0.000200235,0.08,0.0,0.0,0.0,-1.0
1439095199,1439094106,-0.0157595,-0.0154518,-0.00107397,0.08,0.0,0.0,0.0,-1.0
1439099181,1439098159,-0.0268757,-0.0137327,0.000699735,0.08,0.0,0.0,0.0,-1.0
1439102191,1439101121,0.0178976,-0.0195977,0.000770468,0.08,0.0,0.0,0.0,-1.0
1439106174,1439105032,-0.0261884,-0.00911418,-0.00109432,0.08,0.0,0.0,0.0,-1.0
1439109182,1439108101,0.0194,0.0334118,3.08469e-05,0.08,0.0,0.0,0.0,-1.0
1439113237,1439112395,-0.00910443,0.00967235,0.000724414,0.08,0.0,0.0,0.0,-1.0
1439116204,1439115172,-0.0399773,-0.0149021,-0.00147113,0.08,0.0,0.0,0.0,-1.0
1439120429,1439119225,-0.00493059,-0.00879878,0.000303647,0.08,0.0,0.0,0.0,-1.0
1439124197,1439123165,-0.0585426,-0.0337882,0.000507462,0.08,0.0,0.0,0.0,-1.0
1439127275,1439126191,0.0106921,-0.0231216,-0.00106539,0.08,0.0,0.0,0.0,-1.0
1439131193,1439130099,-0.0293182,-0.00468151,0.00020985,0.08,0.0,0.0,0.0,-1.0
1439134203,1439133116,0.0448679,0.00249966,0.00170424,0.08,0.0,0.0,0.0,-1.0
1439137200,1439136097,-0.0662106,0.00295244,-0.00102667,0.08,0.0,0.0,0.0,-1.0
1439141182,1439140103,0.00601471,0.0180477,-0.000619226,0.08,0.0,0.0,0.0,-1.0
1439145127,1439144155,-0.0485817,-0.0293826,0.000825633,0.08,0.0,0.0,0.0,-1.0
1439147338,1439146159,0.04211,-0.0145617,0.000306066,0.08,0.0,0.0,0.0,-1.0
1439151152,1439150290,-0.0297101,0.0275781,-0.000625066,0.08,0.0,0.0,0.0,-1.0
1439155489,1439154099,0.0342138,0.00680873,0.00130593,0.08,0.0,0.0,0.0,-1.0
1439158373,1439157104,-0.0430539,0.00917602,-0.000264487,0.08,0.0,0.0,0.0,-1.0
1439162364,1439161095,-0.0251299,0.044965,-0.00152839,0.08,0.0,0.0,0.0,-1.0
1439166317,1439165075,-0.0110434,-0.0130418,0.000952396,0.08,0.0,0.0,0.0,-1.0
1439169156,1439168148,-0.0406957,-0.0384625,0.000183324,0.08,0.0,0.0,0.0,-1.0
1439170467,1439169071,-0.0645727,0.00690508,-0.00046669,0.08,0.0,0.0,0.0,-1.0
1439173249,1439172014,0.00355213,-0.0135083,-0.000282678,0.08,0.0,0.0,0.0,-1.0
1439176141,1439175215,-0.0205129,-0.00760242,0.000244906,0.08,0.0,0.0,0.0,-1.0
1439180243,1439179089,0.0442877,-0.0105632,0.000200691,0.08,0.0,0.0,0.0,-1.0
1439184281,1439183080,-0.0144147,0.0277853,0.000126979,0.08,0.0,0.0,0.0,-1.0
1439190136,1439189321,-0.0592628,-0.0337048,-0.000207896,0.08,0.0,0.0,0.0,-1.0
1439194132,1439193119,-0.0148403,0.00111987,-0.000701894,0.08,0.0,0.0,0.0,-1.0
1439197275,1439196213,-0.0313883,-0.0233202,5.8608e-05,0.08,0.0,0.0,0.0,-1.0
1439201148,1439200160,0.0250354,-0.0237238,0.000505271,0.08,0.0,0.0,0.0,-1.0
1439204318,1439203058,0.00871266,0.0271114,0.000504482,0.08,0.0,0.0,0.0,-1.0
1439207163,1439206230,-0.0215553,0.0138107,0.000149109,0.08,0.0,0.0,0.0,-1.0
1439211157,1439210159,-0.0383796,-0.0251883,-0.000400807,0.08,0.0,0.0,0.0,-1.0
1439215225,1439214120,-0.0397957,0.0241108,0.000211454,0.08,0.0,0.0,0.0,-1.0
1439218280,1439217077,-0.0164076,-0.0214414,0.000677838,0.08,0.0,0.0,0.0,-1.0
1439222147,1439221118,-0.0132453,-0.0263361,-2.41916e-05,0.08,0.0,0.0,0.0,-1.0
1439225207,1439224157,0.0303684,0.0172838,0.000612814,0.08,0.0,0.0,0.0,-1.0
1439228230,1439227255,-0.0427983,0.0411412,-1.05073e-05,0.08,0.0,0.0,0.0,-1.0
1439232252,1439231105,-0.0300031,0.00770212,-0.000522115,0.08,0.0,0.0,0.0,-1.0
1439235484,1439234299,-0.0402267,-0.00759288,0.000499527,0.08,0.0,0.0,0.0,-1.0
1439239375,1439238137,-0.0435555,-0.0148498,0.000547344,0.08,0.0,0.0,0.0,-1.0
1439242150,1439241190,0.00519953,-0.0308732,-0.000114106,0.08,0.0,0.0,0.0,-1.0
1439246202,1439245097,-0.00116523,-0.0101282,0.000931379,0.08,0.0,0.0,0.0,-1.0
1439249332,1439248125,0.0102092,0.0284045,0.00118581,0.08,0.0,0.0,0.0,-1.0
1439253179,1439252175,-0.035744,0.020441,-0.000708344,0.08,0.0,0.0,0.0,-1.0
1439257308,1439256020,0.0173356,0.0317729,0.00080462,0.08,0.0,0.0,0.0,-1.0
1439260202,1439259160,-0.0706386,0.00172412,0.000884218,0.08,0.0,0.0,0.0,-1.0
1439263148,1439262324,0.0318918,-0.0588423,0.000409325,0.08,0.0,0.0,0.0,-1.0
1439267170,1439266173,-0.0271884,-0.025853,0.000547224,0.08,0.0,0.0,0.0,-1.0
1439270179,1439269209,0.0605189,0.0191677,0.00146605,0.08,0.0,0.0,0.0,-1.0
1439273139,1439272147,-0.0732638,0.0176577,-0.000477533,0.08,0.0,0.0,0.0,-1.0
1439278148,1439277312,0.0121176,0.0512668,0.000480078,0.08,0.0,0.0,0.0,-1.0
1439281220,1439280126,-0.0601129,0.020276,0.00152108,0.08,0.0,0.0,0.0,-1.0
1439284200,1439283150,-0.00559359,-0.0602879,0.000371659,0.08,0.0,0.0,0.0,-1.0
1439288278,1439287133,-0.0122551,-0.0373376,3.07013e-05,0.08,0.0,0.0,0.0,-1.0
1439292158,1439291116,-0.0557403,-0.0587465,0.00111624,0.08,0.0,0.0,0.0,-1.0
1439295320,1439294085,0.042179,-0.0062168,0.000345598,0.08,0.0,0.0,0.0,-1.0
1439297208,1439296281,-0.0154182,-0.0190695,-0.000565267,0.08,0.0,0.0,0.0,-1.0
1439300145,1439299142,-0.0372069,-0.0368847,0.00136852,0.08,0.0,0.0,0.0,-1.0
1439304256,1439303156,0.00603066,-0.0712994,0.00120315,0.08,0.0,0.0,0.0,-1.0
1439306163,1439305112,-0.052438,0.0137579,-0.000452748,0.08,0.0,0.0,0.0,-1.0
1439313171,1439312141,-0.0774352,-0.0606282,0.00127884,0.08,0.0,0.0,0.0,-1.0
1439316161,1439315327,0.0397115,-0.0322724,0.000844402,0.08,0.0,0.0,0.0,-1.0
1439319154,1439318182,-0.00693438,0.051534,0.000452059,0.08,0.0,0.0,0.0,-1.0
1439323177,1439322161,0.0112965,0.0558635,0.00127405,0.08,0.0,0.0,0.0,-1.0
1439327158,1439326121,-0.0134604,0.0294132,-0.000187819,0.08,0.0,0.0,0.0,-1.0
1439330138,1439329137,-0.0118541,-6.63262e-05,0.000378858,0.08,0.0,0.0,0.0,-1.0
1439333194,1439332155,-0.0324034,-0.0234429,0.00188775,0.08,0.0,0.0,0.0,-1.0
1439337240,1439336152,0.000756553,-0.0433392,0.00105879,0.08,0.0,0.0,0.0,-1.0
1439340243,1439339121,0.0262152,0.0358123,0.000627796,0.08,0.0,0.0,0.0,-1.0
1439344246,1439343139,-0.00537369,0.0277984,0.00149081,0.08,0.0,0.0,0.0,-1.0
1439348164,1439347168,0.0252008,0.0141208,0.000532031,0.08,0.0,0.0,0.0,-1.0
1439351249,1439350161,-0.0245306,-0.00406395,0.000669628,0.08,0.0,0.0,0.0,-1.0
1439355232,1439354086,-0.0419709,0.0364246,0.00136378,0.08,0.0,0.0,0.0,-1.0
1439358150,1439357119,-0.0316693,-0.0684706,0.000774277,0.08,0.0,0.0,0.0,-1.0
1439361125,1439360136,0.0217341,-0.000444923,0.000550003,0.08,0.0,0.0,0.0,-1.0
1439365165,1439364221,-0.000183081,-0.014314,0.00183044,0.08,0.0,0.0,0.0,-1.0
1439369175,1439368131,0.022575,0.00424107,0.000976737,0.08,0.0,0.0,0.0,-1.0
1439372113,1439371104,-0.00301675,0.00806763,0.0010337,0.08,0.0,0.0,0.0,-1.0
1439377151,1439376096,-0.00169968,0.0194331,0.00139402,0.08,0.0,0.0,0.0,-1.0
1439379130,1439378163,-0.0313369,-0.0403078,0.000639223,0.08,0.0,0.0,0.0,-1.0
1439383194,1439382098,-0.0568112,-0.00898816,0.00115411,0.08,0.0,0.0,0.0,-1.0
1439387146,1439386133,-0.0304083,-0.0160465,0.00147201,0.08,0.0,0.0,0.0,-1.0
1439390197,1439389332,-0.00193002,-0.0249837,0.00106115,0.08,0.0,0.0,0.0,-1.0
1439394199,1439393110,0.0329979,0.000527219,0.00200788,0.08,0.0,0.0,0.0,-1.0
1439395178,1439394114,-0.0353587,-0.00612732,0.00181384,0.08,0.0,0.0,0.0,-1.0
1439403167,1439402156,-0.0308508,-0.0430167,0.00123627,0.08,0.0,0.0,0.0,-1.0
1439413235,1439412048,0.00653708,0.0394482,0.000827663,0.08,0.0,0.0,0.0,-1.0
1439418164,1439417143,0.0392561,0.0100787,0.00275854,0.08,0.0,0.0,0.0,-1.0
1439421174,1439420146,-0.059752,0.0323237,0.000371186,0.08,0.0,0.0,0.0,-1.0
1439424218,1439423118,-0.00788752,-0.0359422,0.00107611,0.08,0.0,0.0,0.0,-1.0
1439428250,1439427089,-0.0940417,-0.0275645,0.0023115,0.08,0.0,0.0,0.0,-1.0
1439431154,1439430326,0.041351,-0.0384519,0.00201775,0.08,0.0,0.0,0.0,-1.0
1439435217,1439434081,-0.00495015,-0.00599765,0.00143622,0.08,0.0,0.0,0.0,-1.0
1439438141,1439437233,0.0230001,0.0457979,0.00259221,0.08,0.0,0.0,0.0,-1.0
1439442104,1439441129,-0.0472991,0.0307615,0.000793546,0.08,0.0,0.0,0.0,-1.0
1439446211,1439445273,0.0113905,0.0428213,0.00150165,0.08,0.0,0.0,0.0,-1.0
1439449260,1439448144,-0.0855636,-0.0175228,0.0027341,0.08,0.0,0.0,0.0,-1.0
1439452186,1439451116,0.0176985,-0.0657534,0.00232332,0.08,0.0,0.0,0.0,-1.0
1439456237,1439455143,0.00363811,-0.0339326,0.00134758,0.08,0.0,0.0,0.0,-1.0
1439460237,1439459143,-0.00715238,-0.0317813,0.00244941,0.08,0.0,0.0,0.0,-1.0
1439463236,1439462111,0.00558318,0.031163,0.0014729,0.08,0.0,0.0,0.0,-1.0
1439466122,1439465179,-0.0122886,0.0176673,0.000942322,0.08,0.0,0.0,0.0,-1.0
1439468225,1439467137,-0.000583021,-0.00860364,0.00249093,0.08,0.0,0.0,0.0,-1.0
1439471248,1439470114,0.017467,0.0485699,0.00291906,0.08,0.0,0.0,0.0,-1.0
1439477127,1439476110,0.00545635,-0.0306707,0.00111387,0.08,0.0,0.0,0.0,-1.0
1439481102,1439480135,-0.046653,-0.0437351,0.00300982,0.08,0.0,0.0,0.0,-1.0
1439483234,1439482214,-0.0360455,0.0387909,0.0024442,0.08,0.0,0.0,0.0,-1.0
1439487169,1439486136,-0.00475694,0.0160633,0.00145482,0.08,0.0,0.0,0.0,-1.0
1439491159,1439490333,-0.0199486,0.0493334,0.00258109,0.08,0.0,0.0,0.0,-1.0
1439494336,1439493098,-0.0730529,-0.06382,0.00158632,0.08,0.0,0.0,0.0,-1.0
1439498242,1439497097,-0.00816863,-0.0200761,0.00101421,0.08,0.0,0.0,0.0,-1.0
1439501178,1439500145,-0.0115457,-0.0182084,0.00303736,0.08,0.0,0.0,0.0,-1.0
1439505263,1439504078,0.0261233,-0.0219463,0.00262007,0.08,0.0,0.0,0.0,-1.0
1439508384,1439507032,0.00425489,0.0233103,0.00170929,0.08,0.0,0.0,0.0,-1.0
1439512408,1439511176,0.00238674,0.041781,0.00296245,0.08,0.0,0.0,0.0,-1.0
1439515175,1439514148,-0.0690406,-0.0142129,0.00171744,0.08,0.0,0.0,0.0,-1.0
1439519265,1439518264,-0.0303019,-0.0113648,0.00127972,0.08,0.0,0.0,0.0,-1.0
1439523214,1439522112,-0.0559544,0.0123586,0.00315663,0.08,0.0,0.0,0.0,-1.0
1439526348,1439525226,0.0117536,-0.0658908,0.00295237,0.08,0.0,0.0,0.0,-1.0
1439530183,1439529153,0.00304832,-0.0277239,0.00179713,0.08,0.0,0.0,0.0,-1.0
1439533274,1439532166,0.0213628,0.0100226,0.00346239,0.08,0.0,0.0,0.0,-1.0
1439536252,1439535212,-0.0488566,0.0372082,0.0024516,0.08,0.0,0.0,0.0,-1.0
1439540280,1439539126,-0.0178861,0.0125343,0.00184739,0.08,0.0,0.0,0.0,-1.0
1439543394,1439542085,-0.0577551,-0.00655673,0.00288406,0.08,0.0,0.0,0.0,-1.0
1439547367,1439546067,-0.0199416,-0.055776,0.00259643,0.08,0.0,0.0,0.0,-1.0
1439550158,1439549136,0.021567,-0.0168815,0.00186725,0.08,0.0,0.0,0.0,-1.0
1439554211,1439553132,0.0166137,-0.000917868,0.0036206,0.08,0.0,0.0,0.0,-1.0
1439558211,1439557076,0.0205466,-0.0182871,0.00315299,0.08,0.0,0.0,0.0,-1.0
1439561136,1439560205,0.00110156,0.0258484,0.00202004,0.08,0.0,0.0,0.0,-1.0
1439564162,1439563129,-0.0642462,-0.00431742,0.0027817,0.08,0.0,0.0,0.0,-1.0
1439568216,1439567174,-0.0478805,-0.0286198,0.00255073,0.08,0.0,0.0,0.0,-1.0
1439570172,1439569115,0.0145933,0.0161656,0.00226448,0.08,0.0,0.0,0.0,-1.0
1439575233,1439574117,0.00642525,-0.0187716,0.00345767,0.08,0.0,0.0,0.0,-1.0
1439578246,1439577197,-0.0109452,0.01814,0.00339741,0.08,0.0,0.0,0.0,-1.0
1439582196,1439581187,0.033345,0.033674,0.00249925,0.08,0.0,0.0,0.0,-1.0
1439586211,1439585240,-0.00268893,0.0411231,0.00373898,0.08,0.0,0.0,0.0,-1.0
1439588189,1439587071,-0.0380385,-0.0453502,0.00306928,0.08,0.0,0.0,0.0,-1.0
1439592204,1439591211,4.50974e-05,-0.0557634,0.00255868,0.08,0.0,0.0,0.0,-1.0
1439596181,1439595255,-0.0279395,-0.032394,0.00350695,0.08,0.0,0.0,0.0,-1.0
1439599306,1439598174,0.0112743,0.0070186,0.00349463,0.08,0.0,0.0,0.0,-1.0
1439603169,1439602281,0.0338333,0.0121231,0.002804,0.08,0.0,0.0,0.0,-1.0
1439607193,1439606266,0.0249329,0.0253272,0.00409062,0.08,0.0,0.0,0.0,-1.0
1439610348,1439609210,-0.0586941,0.03119,0.00272386,0.08,0.0,0.0,0.0,-1.0
1439613269,1439612115,-0.0311008,-0.050806,0.00259964,0.08,0.0,0.0,0.0,-1.0
1439617223,1439616068,-0.0445077,-0.0117169,0.00371057,0.08,0.0,0.0,0.0,-1.0
1439620173,1439619140,0.000902586,-0.0276531,0.00403113,0.08,0.0,0.0,0.0,-1.0
1439624202,1439623101,0.0102981,-0.00482592,0.00260034,0.08,0.0,0.0,0.0,-1.0
1439627273,1439626380,0.0165638,0.012669,0.00377849,0.08,0.0,0.0,0.0,-1.0
1439631291,1439630117,-0.04425,0.0405205,0.00330189,0.08,0.0,0.0,0.0,-1.0
1439634220,1439633141,-0.0126859,-0.0333406,0.00292066,0.08,0.0,0.0,0.0,-1.0
1439638179,1439637143,-0.0737828,-0.000961022,0.00388275,0.08,0.0,0.0,0.0,-1.0
1439642228,1439641137,-0.0382983,-0.0266372,0.00284408,0.08,0.0,0.0,0.0,-1.0
1439645348,1439644137,-0.0146551,-0.0395306,0.002701,0.08,0.0,0.0,0.0,-1.0
1439648293,1439647085,0.0514021,0.0130588,0.00467213,0.08,0.0,0.0,0.0,-1.0
1439652337,1439651221,-0.00221793,0.0118702,0.00421389,0.08,0.0,0.0,0.0,-1.0
1439655119,1439654104,-0.0145829,0.0161431,0.00243541,0.08,0.0,0.0,0.0,-1.0
1439659305,1439658095,-0.0220809,0.0170594,0.00430984,0.08,0.0,0.0,0.0,-1.0
1439663270,1439662119,-0.0831073,0.0190916,0.00305904,0.08,0.0,0.0,0.0,-1.0
1439666372,1439665060,0.0105089,-0.0518474,0.00300057,0.08,0.0,0.0,0.0,-1.0
1439669221,1439668089,0.0162101,0.00481387,0.00444182,0.08,0.0,0.0,0.0,-1.0
1439673185,1439672244,0.0395225,-0.0144744,0.00489394,0.08,0.0,0.0,0.0,-1.0
1439676309,1439675072,-0.0423542,0.0437882,0.00237599,0.08,0.0,0.0,0.0,-1.0
1439680131,1439679142,0.0205878,0.0473722,0.00414647,0.08,0.0,0.0,0.0,-1.0
1439683259,1439682066,-0.0976589,-0.0210048,0.00432754,0.08,0.0,0.0,0.0,-1.0
1439687232,1439686115,0.00252172,-0.0392622,0.00307951,0.08,0.0,0.0,0.0,-1.0
1439690342,1439689211,-0.0210218,-0.0243233,0.00425363,0.08,0.0,0.0,0.0,-1.0
1439693151,1439692203,0.0248839,0.0226458,0.00536537,0.08,0.0,0.0,0.0,-1.0
1439697181,1439696200,-0.0210831,0.0282883,0.0030779,0.08,0.0,0.0,0.0,-1.0
1439701184,1439700154,0.0225148,0.0401533,0.00444196,0.08,0.0,0.0,0.0,-1.0
1439704138,1439703318,-0.0817523,0.00432714,0.00475389,0.08,0.0,0.0,0.0,-1.0
1439708215,1439707145,-0.0332836,-0.000899832,0.00326621,0.08,0.0,0.0,0.0,-1.0
1439711303,1439710255,-0.010429,-0.0341713,0.00418027,0.08,0.0,0.0,0.0,-1.0
1439715240,1439714235,-0.0345084,-0.0699431,0.00447227,0.08,0.0,0.0,0.0,-1.0
1439718249,1439717084,0.0267597,0.0085097,0.00364355,0.08,0.0,0.0,0.0,-1.0
1439722242,1439721066,0.0174881,0.0119332,0.0050579,0.08,0.0,0.0,0.0,-1.0
1439725208,1439724155,-0.03251,0.0360689,0.00541374,0.08,0.0,0.0,0.0,-1.0
1439729188,1439728210,-0.0362093,-0.000397554,0.00329832,0.08,0.0,0.0,0.0,-1.0
1439732270,1439731120,-0.0115153,-0.0138017,0.00392049,0.08,0.0,0.0,0.0,-1.0
1439736192,1439735161,-0.0707765,-0.0631354,0.00493084,0.08,0.0,0.0,0.0,-1.0
1439740198,1439739127,-0.00824884,-0.0433292,0.00377023,0.08,0.0,0.0,0.0,-1.0
1439743284,1439742121,0.0182633,-0.00597029,0.00522479,0.08,0.0,0.0,0.0,-1.0
1439746230,1439745112,-0.00383285,0.0447682,0.00551562,0.08,0.0,0.0,0.0,-1.0
1439750103,1439749356,-0.0252068,0.0250201,0.00343458,0.08,0.0,0.0,0.0,-1.0
1439753234,1439752141,-0.0473402,-0.00866382,0.00366195,0.08,0.0,0.0,0.0,-1.0
1439757311,1439756176,-0.0616142,-0.0182368,0.0052071,0.08,0.0,0.0,0.0,-1.0
1439760369,1439759037,-0.00396674,-0.058661,0.00475186,0.08,0.0,0.0,0.0,-1.0
1439764225,1439763120,0.0194047,-0.0144139,0.00482877,0.08,0.0,0.0,0.0,-1.0
1439767208,1439766027,0.0036999,-0.000434267,0.00586249,0.08,0.0,0.0,0.0,-1.0
1439771214,1439770120,0.0191595,0.0329941,0.00405345,0.08,0.0,0.0,0.0,-1.0
1439773197,1439772272,-0.0281934,-0.0457235,0.00424319,0.08,0.0,0.0,0.0,-1.0
1439778179,1439777122,-0.0565828,0.023996,0.00551053,0.08,0.0,0.0,0.0,-1.0
1439781251,1439780302,-0.00477127,-0.0611934,0.00498182,0.08,0.0,0.0,0.0,-1.0
1439785322,1439784129,-0.0164807,-0.0208802,0.00449457,0.08,0.0,0.0,0.0,-1.0
1439788346,1439787150,0.0240374,-0.0237066,0.00594913,0.08,0.0,0.0,0.0,-1.0
1439792296,1439791082,0.0295164,-0.0136795,0.00493634,0.08,0.0,0.0,0.0,-1.0
1439795351,1439794104,-0.00311264,0.0304744,0.00512883,0.08,0.0,0.0,0.0,-1.0
1439799241,1439798226,-0.0372587,0.0288687,0.00606781,0.08,0.0,0.0,0.0,-1.0
