timestamp,noutputs,output[0],output[1],output[2],output[3],output[4],output[5],output[6],output[7],output[8],output[9],output[10],output[11],output[12],output[13],output[14],output[15]
1437073225,4,-0.816667,-0.863695,-0.854951,-0.824687,nan,nan,nan,nan,nan,nan,nan,nan,nan,nan,nan,nan
1437126209,4,-0.817264,-0.863051,-0.855586,-0.824099,nan,nan,nan,nan,nan,nan,nan,nan,nan,nan,nan,nan
1437180308,4,-0.817268,-0.863006,-0.855879,-0.823846,nan,nan,nan,nan,nan,nan,nan,nan,nan,nan,nan,nan
1437229167,4,-0.818211,-0.862223,-0.854986,-0.82458,nan,nan,nan,nan,nan,nan,nan,nan,nan,nan,nan,nan
1437279267,4,-0.817154,-0.863173,-0.85567,-0.824003,nan,nan,nan,nan,nan,nan,nan,nan,nan,nan,nan,nan
1437336231,4,-0.816751,-0.863271,-0.854389,-0.825589,nan,nan,nan,nan,nan,nan,nan,nan,nan,nan,nan,nan
1437386192,4,-0.817402,-0.862737,-0.854783,-0.825078,nan,nan,nan,nan,nan,nan,nan,nan,nan,nan,nan,nan
1437439359,4,-0.818769,-0.861223,-0.855864,-0.824143,nan,nan,nan,nan,nan,nan,nan,nan,nan,nan,nan,nan
1437493120,4,-0.818483,-0.861572,-0.855532,-0.824412,nan,nan,nan,nan,nan,nan,nan,nan,nan,nan,nan,nan
1437546327,4,-0.818973,-0.860997,-0.855336,-0.824695,nan,nan,nan,nan,nan,nan,nan,nan,nan,nan,nan,nan
1437600216,4,-0.817466,-0.862661,-0.854805,-0.825068,nan,nan,nan,nan,nan,nan,nan,nan,nan,nan,nan,nan
1437653230,4,-0.81902,-0.860991,-0.856101,-0.823889,nan,nan,nan,nan,nan,nan,nan,nan,nan,nan,nan,nan
1437702213,4,-0.818548,-0.861614,-0.855427,-0.824411,nan,nan,nan,nan,nan,nan,nan,nan,nan,nan,nan,nan
1437756201,4,-0.818912,-0.861134,-0.85513,-0.824824,nan,nan,nan,nan,nan,nan,nan,nan,nan,nan,nan,nan
1437809216,4,-0.820248,-0.860093,-0.856045,-0.823614,nan,nan,nan,nan,nan,nan,nan,nan,nan,nan,nan,nan
1437863236,4,-0.818783,-0.861298,-0.854473,-0.825446,nan,nan,nan,nan,nan,nan,nan,nan,nan,nan,nan,nan
1437912237,4,-0.81977,-0.86039,-0.854712,-0.825128,nan,nan,nan,nan,nan,nan,nan,nan,nan,nan,nan,nan
1437965141,4,-0.81904,-0.861126,-0.854415,-0.825419,nan,nan,nan,nan,nan,nan,nan,nan,nan,nan,nan,nan
1438018328,4,-0.819526,-0.860505,-0.854516,-0.825453,nan,nan,nan,nan,nan,nan,nan,nan,nan,nan,nan,nan
1438072268,4,-0.819585,-0.860684,-0.855054,-0.824677,nan,nan,nan,nan,nan,nan,nan,nan,nan,nan,nan,nan
1438121172,4,-0.819908,-0.86018,-0.855325,-0.824587,nan,nan,nan,nan,nan,nan,nan,nan,nan,nan,nan,nan
1438174233,4,-0.819712,-0.86053,-0.854125,-0.825633,nan,nan,nan,nan,nan,nan,nan,nan,nan,nan,nan,nan
1438228195,4,-0.820447,-0.859688,-0.855214,-0.82465,nan,nan,nan,nan,nan,nan,nan,nan,nan,nan,nan,nan
1438281236,4,-0.820682,-0.859269,-0.853729,-0.82632,nan,nan,nan,nan,nan,nan,nan,nan,nan,nan,nan,nan
1438334184,4,-0.819305,-0.860666,-0.854755,-0.825275,nan,nan,nan,nan,nan,nan,nan,nan,nan,nan,nan,nan
1438388182,4,-0.82134,-0.858951,-0.854401,-0.825308,nan,nan,nan,nan,nan,nan,nan,nan,nan,nan,nan,nan
1438437198,4,-0.821828,-0.857996,-0.85406,-0.826115,nan,nan,nan,nan,nan,nan,nan,nan,nan,nan,nan,nan
1438497198,4,-0.817451,-0.863119,-0.853739,-0.82569,nan,nan,nan,nan,nan,nan,nan,nan,nan,nan,nan,nan
1438549264,4,-0.815661,-0.863617,-0.855818,-0.824904,nan,nan,nan,nan,nan,nan,nan,nan,nan,nan,nan,nan
1438602207,4,-0.804715,-0.874771,-0.848384,-0.832131,nan,nan,nan,nan,nan,nan,nan,nan,nan,nan,nan,nan
1438654192,4,-0.79632,-0.886819,-0.851683,-0.825178,nan,nan,nan,nan,nan,nan,nan,nan,nan,nan,nan,nan
1438707157,4,-0.815721,-0.862251,-0.870437,-0.81159,nan,nan,nan,nan,nan,nan,nan,nan,nan,nan,nan,nan
1438759182,4,-0.795321,-0.883218,-0.868265,-0.813197,nan,nan,nan,nan,nan,nan,nan,nan,nan,nan,nan,nan
1438812221,4,-0.838334,-0.832514,-0.857794,-0.831359,nan,nan,nan,nan,nan,nan,nan,nan,nan,nan,nan,nan
1438864266,4,-0.804537,-0.877065,-0.807157,-0.871242,nan,nan,nan,nan,nan,nan,nan,nan,nan,nan,nan,nan
1438917152,4,-0.836539,-0.844663,-0.795388,-0.88341,nan,nan,nan,nan,nan,nan,nan,nan,nan,nan,nan,nan
1438969214,4,-0.792951,-0.89348,-0.837201,-0.836368,nan,nan,nan,nan,nan,nan,nan,nan,nan,nan,nan,nan
1439022224,4,-0.741695,-0.946287,-0.850287,-0.821731,nan,nan,nan,nan,nan,nan,nan,nan,nan,nan,nan,nan
1439074205,4,-0.847846,-0.833906,-0.907442,-0.770806,nan,nan,nan,nan,nan,nan,nan,nan,nan,nan,nan,nan
1439127275,4,-0.889951,-0.794311,-0.855447,-0.820291,nan,nan,nan,nan,nan,nan,nan,nan,nan,nan,nan,nan
1439176141,4,-0.821252,-0.857768,-0.880251,-0.800729,nan,nan,nan,nan,nan,nan,nan,nan,nan,nan,nan,nan
1439232252,4,-0.787721,-0.894367,-0.870494,-0.807418,nan,nan,nan,nan,nan,nan,nan,nan,nan,nan,nan,nan
1439284200,4,-0.916606,-0.761907,-0.933914,-0.747573,nan,nan,nan,nan,nan,nan,nan,nan,nan,nan,nan,nan
1439337240,4,-0.900243,-0.775522,-0.902339,-0.781897,nan,nan,nan,nan,nan,nan,nan,nan,nan,nan,nan,nan
1439379130,4,-0.851408,-0.826035,-0.942599,-0.739957,nan,nan,nan,nan,nan,nan,nan,nan,nan,nan,nan,nan
1439442104,4,-0.728018,-0.948807,-0.864975,-0.818199,nan,nan,nan,nan,nan,nan,nan,nan,nan,nan,nan,nan
1439494336,4,-0.793375,-0.81949,-1.0,-0.612865,nan,nan,nan,nan,nan,nan,nan,nan,nan,nan,nan,nan
1439547367,4,-0.885485,-0.78413,-0.952274,-0.738112,nan,nan,nan,nan,nan,nan,nan,nan,nan,nan,nan,nan
1439599306,4,-0.839029,-0.826992,-0.821119,-0.872859,nan,nan,nan,nan,nan,nan,nan,nan,nan,nan,nan,nan
1439652337,4,-0.811649,-0.851496,-0.834777,-0.862078,nan,nan,nan,nan,nan,nan,nan,nan,nan,nan,nan,nan
1439704138,4,-0.708758,-0.952227,-0.959003,-0.740012,nan,nan,nan,nan,nan,nan,nan,nan,nan,nan,nan,nan
1439757311,4,-0.768241,-0.890931,-0.963341,-0.737488,nan,nan,nan,nan,nan,nan,nan,nan,nan,nan,nan,nan
1439809361,4,-0.859956,-0.795908,-0.906373,-0.797764,nan,nan,nan,nan,nan,nan,nan,nan,nan,nan,nan,nan
1439862241,4,-0.914948,-0.736096,-0.860989,-0.847967,nan,nan,nan,nan,nan,nan,nan,nan,nan,nan,nan,nan
1439914241,4,-0.751001,-0.898894,-0.879584,-0.830521,nan,nan,nan,nan,nan,nan,nan,nan,nan,nan,nan,nan
1439967217,4,-0.711041,-0.937287,-0.935342,-0.77633,nan,nan,nan,nan,nan,nan,nan,nan,nan,nan,nan,nan
1440019317,4,-0.838528,-0.841399,-1.0,-0.679928,nan,nan,nan,nan,nan,nan,nan,nan,nan,nan,nan,nan
1440072267,4,-0.825412,-0.817232,-0.954685,-0.76267,nan,nan,nan,nan,nan,nan,nan,nan,nan,nan,nan,nan
1440124284,4,-0.884282,-0.755448,-0.757123,-0.963147,nan,nan,nan,nan,nan,nan,nan,nan,nan,nan,nan,nan
1440176213,4,-0.806466,-0.833622,-0.83819,-0.881722,nan,nan,nan,nan,nan,nan,nan,nan,nan,nan,nan,nan
1440229293,4,-0.757686,-0.883365,-0.841777,-0.877172,nan,nan,nan,nan,nan,nan,nan,nan,nan,nan,nan,nan
1440282287,4,-0.795606,-0.843073,-0.917981,-0.80334,nan,nan,nan,nan,nan,nan,nan,nan,nan,nan,nan,nan
1440334196,4,-0.851117,-0.784179,-0.900755,-0.82395,nan,nan,nan,nan,nan,nan,nan,nan,nan,nan,nan,nan
1440382199,4,-0.851269,-0.782287,-0.805076,-0.921368,nan,nan,nan,nan,nan,nan,nan,nan,nan,nan,nan,nan
1440439242,4,-0.858798,-0.777188,-0.828052,-0.895962,nan,nan,nan,nan,nan,nan,nan,nan,nan,nan,nan,nan
1440492220,4,-0.796343,-0.838611,-0.818087,-0.906959,nan,nan,nan,nan,nan,nan,nan,nan,nan,nan,nan,nan
1440544274,4,-0.825363,-0.812039,-0.899429,-0.82317,nan,nan,nan,nan,nan,nan,nan,nan,nan,nan,nan,nan
1440596166,4,-0.919094,-0.718771,-0.950279,-0.771855,nan,nan,nan,nan,nan,nan,nan,nan,nan,nan,nan,nan
1440649234,4,-0.825743,-0.809738,-0.884788,-0.839731,nan,nan,nan,nan,nan,nan,nan,nan,nan,nan,nan,nan
1440702260,4,-0.907873,-0.727792,-0.997031,-0.727305,nan,nan,nan,nan,nan,nan,nan,nan,nan,nan,nan,nan
1440754334,4,-0.798399,-0.837569,-0.901173,-0.82286,nan,nan,nan,nan,nan,nan,nan,nan,nan,nan,nan,nan
1440807252,4,-0.856804,-0.783178,-1.0,-0.720017,nan,nan,nan,nan,nan,nan,nan,nan,nan,nan,nan,nan
1440859212,4,-0.979326,-0.670658,-1.0,-0.649983,nan,nan,nan,nan,nan,nan,nan,nan,nan,nan,nan,nan
1440912306,4,-0.826318,-0.814456,-0.82659,-0.892636,nan,nan,nan,nan,nan,nan,nan,nan,nan,nan,nan,nan
1440964242,4,-0.90246,-0.740865,-0.971051,-0.745624,nan,nan,nan,nan,nan,nan,nan,nan,nan,nan,nan,nan
1441017261,4,-0.967699,-0.673636,-0.936403,-0.782262,nan,nan,nan,nan,nan,nan,nan,nan,nan,nan,nan,nan
1441068242,4,-0.891737,-0.751579,-0.961716,-0.754969,nan,nan,nan,nan,nan,nan,nan,nan,nan,nan,nan,nan
1441122207,4,-0.920686,-0.718885,-0.989139,-0.73129,nan,nan,nan,nan,nan,nan,nan,nan,nan,nan,nan,nan
1441174180,4,-0.981408,-0.698225,-1.0,-0.679633,nan,nan,nan,nan,nan,nan,nan,nan,nan,nan,nan,nan
1441227171,4,-0.766209,-0.877,-0.853212,-0.863578,nan,nan,nan,nan,nan,nan,nan,nan,nan,nan,nan,nan
1441279175,4,-0.853655,-0.794066,-0.972134,-0.740146,nan,nan,nan,nan,nan,nan,nan,nan,nan,nan,nan,nan
1441332331,4,-0.920409,-0.726474,-0.87521,-0.837907,nan,nan,nan,nan,nan,nan,nan,nan,nan,nan,nan,nan
1441384236,4,-0.691537,-0.961685,-0.738133,-0.968646,nan,nan,nan,nan,nan,nan,nan,nan,nan,nan,nan,nan
1441437307,4,-0.815204,-0.704796,-1.0,-0.52,nan,nan,nan,nan,nan,nan,nan,nan,nan,nan,nan,nan
1441489345,4,-0.842619,-0.815192,-0.967911,-0.734277,nan,nan,nan,nan,nan,nan,nan,nan,nan,nan,nan,nan
1441542221,4,-0.730747,-0.925731,-0.839921,-0.863601,nan,nan,nan,nan,nan,nan,nan,nan,nan,nan,nan,nan
1441594328,4,-0.98893,-0.660255,-0.970755,-0.72271,nan,nan,nan,nan,nan,nan,nan,nan,nan,nan,nan,nan
1441646232,4,-0.991188,-0.608849,-0.960783,-0.674502,nan,nan,nan,nan,nan,nan,nan,nan,nan,nan,nan,nan
1441699325,4,-0.84626,-0.817474,-0.706876,-0.989391,nan,nan,nan,nan,nan,nan,nan,nan,nan,nan,nan,nan
1441751218,4,-0.937443,-0.639086,-1.0,-0.576529,nan,nan,nan,nan,nan,nan,nan,nan,nan,nan,nan,nan
1441804267,4,-0.791706,-0.874255,-0.792341,-0.901698,nan,nan,nan,nan,nan,nan,nan,nan,nan,nan,nan,nan
1441857167,4,-0.880261,-0.742836,-1.0,-0.623098,nan,nan,nan,nan,nan,nan,nan,nan,nan,nan,nan,nan
1441909175,4,-0.874118,-0.796741,-0.992164,-0.696977,nan,nan,nan,nan,nan,nan,nan,nan,nan,nan,nan,nan
1441962153,4,-0.807426,-0.860795,-0.771174,-0.920605,nan,nan,nan,nan,nan,nan,nan,nan,nan,nan,nan,nan
1442014238,4,-0.99427,-0.51427,-0.998941,-0.532519,nan,nan,nan,nan,nan,nan,nan,nan,nan,nan,nan,nan
1442067182,4,-0.784998,-0.882498,-0.693972,-0.998533,nan,nan,nan,nan,nan,nan,nan,nan,nan,nan,nan,nan
1442119210,4,-0.78402,-0.883893,-0.905172,-0.786914,nan,nan,nan,nan,nan,nan,nan,nan,nan,nan,nan,nan
1442172246,4,-0.88993,-0.775948,-0.930207,-0.763915,nan,nan,nan,nan,nan,nan,nan,nan,nan,nan,nan,nan
1442224335,4,-0.685923,-0.985772,-0.740717,-0.947588,nan,nan,nan,nan,nan,nan,nan,nan,nan,nan,nan,nan
1442276215,4,-0.966534,-0.69939,-0.950273,-0.743803,nan,nan,nan,nan,nan,nan,nan,nan,nan,nan,nan,nan
1442329376,4,-0.851587,-0.820536,-0.809092,-0.878785,nan,nan,nan,nan,nan,nan,nan,nan,nan,nan,nan,nan
1442380229,4,-0.809242,-0.865949,-0.838514,-0.846296,nan,nan,nan,nan,nan,nan,nan,nan,nan,nan,nan,nan
1442434216,4,-0.923871,-0.596129,-1.0,-0.52,nan,nan,nan,nan,nan,nan,nan,nan,nan,nan,nan,nan
1442481159,4,-0.935622,-0.6773,-1.0,-0.612922,nan,nan,nan,nan,nan,nan,nan,nan,nan,nan,nan,nan
1442539189,4,-0.998518,-0.610663,-0.908859,-0.706249,nan,nan,nan,nan,nan,nan,nan,nan,nan,nan,nan,nan
1442592241,4,-0.670734,-0.951999,-0.619901,-0.999056,nan,nan,nan,nan,nan,nan,nan,nan,nan,nan,nan,nan
1442644166,4,-0.910473,-0.773347,-0.882539,-0.793642,nan,nan,nan,nan,nan,nan,nan,nan,nan,nan,nan,nan
1442696145,4,-0.929506,-0.590494,-1.0,-0.52,nan,nan,nan,nan,nan,nan,nan,nan,nan,nan,nan,nan
1442749142,4,-0.649643,-1.0,-0.751551,-0.898092,nan,nan,nan,nan,nan,nan,nan,nan,nan,nan,nan,nan
1442802349,4,-0.925611,-0.594389,-1.0,-0.52,nan,nan,nan,nan,nan,nan,nan,nan,nan,nan,nan,nan
1442854201,4,-0.812239,-0.868027,-0.743659,-0.936075,nan,nan,nan,nan,nan,nan,nan,nan,nan,nan,nan,nan
1442906210,4,-0.727827,-0.953753,-0.683661,-0.994759,nan,nan,nan,nan,nan,nan,nan,nan,nan,nan,nan,nan
1442959300,4,-0.958367,-0.566019,-0.997807,-0.517807,nan,nan,nan,nan,nan,nan,nan,nan,nan,nan,nan,nan
1443012141,4,-0.858148,-0.827105,-0.943378,-0.731369,nan,nan,nan,nan,nan,nan,nan,nan,nan,nan,nan,nan
1443064339,4,-0.903928,-0.620225,-0.997924,-0.517924,nan,nan,nan,nan,nan,nan,nan,nan,nan,nan,nan,nan
1443117218,4,-0.653778,-1.0,-0.807267,-0.846511,nan,nan,nan,nan,nan,nan,nan,nan,nan,nan,nan,nan
1443169198,4,-0.92,-0.767078,-0.864899,-0.808023,nan,nan,nan,nan,nan,nan,nan,nan,nan,nan,nan,nan
1443221192,4,-1.0,-0.52,-0.893109,-0.626891,nan,nan,nan,nan,nan,nan,nan,nan,nan,nan,nan,nan
1443273168,4,-0.733183,-0.962206,-0.696189,-0.968422,nan,nan,nan,nan,nan,nan,nan,nan,nan,nan,nan,nan
1443327146,4,-0.941747,-0.757225,-0.867592,-0.793437,nan,nan,nan,nan,nan,nan,nan,nan,nan,nan,nan,nan
1443379302,4,-0.22557,-0.45347,-0.237566,-0.648051,nan,nan,nan,nan,nan,nan,nan,nan,nan,nan,nan,nan
1443432171,4,-0.441017,-0.354151,-0.476592,-0.427483,nan,nan,nan,nan,nan,nan,nan,nan,nan,nan,nan,nan
1443484235,4,-0.325409,-0.527221,-0.494469,-0.352756,nan,nan,nan,nan,nan,nan,nan,nan,nan,nan,nan,nan
1443537215,4,-0.511974,-0.326662,-0.492672,-0.298585,nan,nan,nan,nan,nan,nan,nan,nan,nan,nan,nan,nan
1443589205,4,-0.440756,-0.32198,-0.392447,-0.311218,nan,nan,nan,nan,nan,nan,nan,nan,nan,nan,nan,nan
1443634138,4,-0.409958,-0.253363,-0.233095,-0.402829,nan,nan,nan,nan,nan,nan,nan,nan,nan,nan,nan,nan
1443694328,4,-0.336328,-0.190554,-0.291915,-0.270043,nan,nan,nan,nan,nan,nan,nan,nan,nan,nan,nan,nan
1443746389,4,-0.195244,-0.230887,-0.18532,-0.328794,nan,nan,nan,nan,nan,nan,nan,nan,nan,nan,nan,nan
1443799174,4,-0.12862,-0.222296,-0.200205,-0.282831,nan,nan,nan,nan,nan,nan,nan,nan,nan,nan,nan,nan
1443852150,4,-0.228572,-0.0967579,-0.207275,-0.291797,nan,nan,nan,nan,nan,nan,nan,nan,nan,nan,nan,nan
1443904316,4,-0.135207,-0.181814,-0.127085,-0.390925,nan,nan,nan,nan,nan,nan,nan,nan,nan,nan,nan,nan
1443956186,4,-0.200854,-0.138779,-0.187548,-0.369294,nan,nan,nan,nan,nan,nan,nan,nan,nan,nan,nan,nan
1444009163,4,-0.15059,-0.223758,-0.289259,-0.323066,nan,nan,nan,nan,nan,nan,nan,nan,nan,nan,nan,nan
1444062116,4,-0.153015,-0.28766,-0.360146,-0.305972,nan,nan,nan,nan,nan,nan,nan,nan,nan,nan,nan,nan
1444114389,4,-0.30935,-0.196793,-0.262719,-0.460836,nan,nan,nan,nan,nan,nan,nan,nan,nan,nan,nan,nan
1444167260,4,-0.274521,-0.308704,-0.489513,-0.284837,nan,nan,nan,nan,nan,nan,nan,nan,nan,nan,nan,nan
1444219195,4,-0.52121,-0.166301,-0.292035,-0.537347,nan,nan,nan,nan,nan,nan,nan,nan,nan,nan,nan,nan
1444272219,4,-0.506396,-0.276317,-0.346314,-0.558362,nan,nan,nan,nan,nan,nan,nan,nan,nan,nan,nan,nan
1444324155,4,-0.392376,-0.471692,-0.509728,-0.489169,nan,nan,nan,nan,nan,nan,nan,nan,nan,nan,nan,nan
1444377218,4,-0.360672,-0.562491,-0.493582,-0.548833,nan,nan,nan,nan,nan,nan,nan,nan,nan,nan,nan,nan
1444429230,4,-0.48394,-0.487277,-0.483274,-0.581244,nan,nan,nan,nan,nan,nan,nan,nan,nan,nan,nan,nan
1444478230,4,-0.519016,-0.476421,-0.618926,-0.467892,nan,nan,nan,nan,nan,nan,nan,nan,nan,nan,nan,nan
1444534236,4,-0.452901,-0.539684,-0.575633,-0.514131,nan,nan,nan,nan,nan,nan,nan,nan,nan,nan,nan,nan
1444587191,4,-0.523753,-0.417678,-0.540534,-0.578146,nan,nan,nan,nan,nan,nan,nan,nan,nan,nan,nan,nan
1444639171,4,-0.421069,-0.504062,-0.70536,-0.430301,nan,nan,nan,nan,nan,nan,nan,nan,nan,nan,nan,nan
1444691097,4,-0.506411,-0.365746,-0.525995,-0.606444,nan,nan,nan,nan,nan,nan,nan,nan,nan,nan,nan,nan
1444744221,4,-0.4366,-0.405016,-0.475104,-0.654871,nan,nan,nan,nan,nan,nan,nan,nan,nan,nan,nan,nan
1444797183,4,-0.325647,-0.490811,-0.553394,-0.566011,nan,nan,nan,nan,nan,nan,nan,nan,nan,nan,nan,nan
1444849267,4,-0.426107,-0.412561,-0.485417,-0.598993,nan,nan,nan,nan,nan,nan,nan,nan,nan,nan,nan,nan
1444902259,4,-0.502261,-0.357473,-0.477808,-0.595709,nan,nan,nan,nan,nan,nan,nan,nan,nan,nan,nan,nan
1444954356,4,-0.373479,-0.576105,-0.578855,-0.468906,nan,nan,nan,nan,nan,nan,nan,nan,nan,nan,nan,nan
1445007210,4,-0.331362,-0.697573,-0.407082,-0.588291,nan,nan,nan,nan,nan,nan,nan,nan,nan,nan,nan,nan
1445059247,4,-0.446858,-0.613935,-0.393911,-0.573231,nan,nan,nan,nan,nan,nan,nan,nan,nan,nan,nan,nan
1445109208,4,-0.411373,-0.653073,-0.467255,-0.492827,nan,nan,nan,nan,nan,nan,nan,nan,nan,nan,nan,nan
1445164142,4,-0.574211,-0.438115,-0.435205,-0.511839,nan,nan,nan,nan,nan,nan,nan,nan,nan,nan,nan,nan
1445217155,4,-0.568922,-0.344325,-0.476038,-0.452255,nan,nan,nan,nan,nan,nan,nan,nan,nan,nan,nan,nan
1445269189,4,-0.378339,-0.489643,-0.359701,-0.483665,nan,nan,nan,nan,nan,nan,nan,nan,nan,nan,nan,nan
1445322193,4,-0.402869,-0.405518,-0.331663,-0.422804,nan,nan,nan,nan,nan,nan,nan,nan,nan,nan,nan,nan
1445374259,4,-0.253167,-0.520981,-0.432855,-0.214329,nan,nan,nan,nan,nan,nan,nan,nan,nan,nan,nan,nan
1445425362,4,-0.303322,-0.411276,-0.280808,-0.309562,nan,nan,nan,nan,nan,nan,nan,nan,nan,nan,nan,nan
1445479178,4,-0.376676,-0.29104,-0.272078,-0.258789,nan,nan,nan,nan,nan,nan,nan,nan,nan,nan,nan,nan
1445531198,4,-0.357121,-0.253167,-0.263726,-0.237409,nan,nan,nan,nan,nan,nan,nan,nan,nan,nan,nan,nan
1445584210,4,-0.218907,-0.36427,-0.266904,-0.203612,nan,nan,nan,nan,nan,nan,nan,nan,nan,nan,nan,nan
1445635162,4,-0.229429,-0.338065,-0.318151,-0.169864,nan,nan,nan,nan,nan,nan,nan,nan,nan,nan,nan,nan
1445689185,4,-0.282208,-0.291254,-0.233299,-0.261612,nan,nan,nan,nan,nan,nan,nan,nan,nan,nan,nan,nan
1445741209,4,-0.322224,-0.224651,-0.262143,-0.252753,nan,nan,nan,nan,nan,nan,nan,nan,nan,nan,nan,nan
1445794142,4,-0.207316,-0.348083,-0.234704,-0.285244,nan,nan,nan,nan,nan,nan,nan,nan,nan,nan,nan,nan
1445846201,4,-0.317318,-0.30616,-0.253541,-0.272484,nan,nan,nan,nan,nan,nan,nan,nan,nan,nan,nan,nan
1445899194,4,-0.300341,-0.358071,-0.354028,-0.203937,nan,nan,nan,nan,nan,nan,nan,nan,nan,nan,nan,nan
1445951223,4,-0.428456,-0.318886,-0.386947,-0.236129,nan,nan,nan,nan,nan,nan,nan,nan,nan,nan,nan,nan
1446004229,4,-0.432402,-0.365269,-0.305631,-0.414276,nan,nan,nan,nan,nan,nan,nan,nan,nan,nan,nan,nan
1446057334,4,-0.335795,-0.44179,-0.351178,-0.522987,nan,nan,nan,nan,nan,nan,nan,nan,nan,nan,nan,nan
1446109207,4,-0.157587,-0.557891,-0.460958,-0.520377,nan,nan,nan,nan,nan,nan,nan,nan,nan,nan,nan,nan
1446162207,4,-0.335066,-0.381011,-0.554573,-0.50978,nan,nan,nan,nan,nan,nan,nan,nan,nan,nan,nan,nan
1446214187,4,-0.323931,-0.389911,-0.546102,-0.529985,nan,nan,nan,nan,nan,nan,nan,nan,nan,nan,nan,nan
1446266234,4,-0.281627,-0.433974,-0.478968,-0.503551,nan,nan,nan,nan,nan,nan,nan,nan,nan,nan,nan,nan
1446319250,4,-0.365334,-0.354583,-0.2786,-0.554866,nan,nan,nan,nan,nan,nan,nan,nan,nan,nan,nan,nan
1446371218,4,-0.273929,-0.430605,-0.315154,-0.332626,nan,nan,nan,nan,nan,nan,nan,nan,nan,nan,nan,nan
1446424200,4,-0.212736,-0.425234,-0.278583,-0.202306,nan,nan,nan,nan,nan,nan,nan,nan,nan,nan,nan,nan
1446476328,4,-0.29637,-0.287852,-0.160199,-0.179064,nan,nan,nan,nan,nan,nan,nan,nan,nan,nan,nan,nan
1446529262,4,-0.25583,-0.32751,-0.129418,-0.147533,nan,nan,nan,nan,nan,nan,nan,nan,nan,nan,nan,nan
1446582196,4,-0.218556,-0.373054,-0.16961,-0.0854127,nan,nan,nan,nan,nan,nan,nan,nan,nan,nan,nan,nan
1446634169,4,-0.406152,-0.225748,-0.0498885,-0.229151,nan,nan,nan,nan,nan,nan,nan,nan,nan,nan,nan,nan
1446687208,4,-0.167765,-0.494733,-0.240688,-0.0831923,nan,nan,nan,nan,nan,nan,nan,nan,nan,nan,nan,nan
1446739162,4,-0.326829,-0.47778,-0.204892,-0.223894,nan,nan,nan,nan,nan,nan,nan,nan,nan,nan,nan,nan
1446792177,4,-0.513127,-0.291739,-0.159739,-0.422528,nan,nan,nan,nan,nan,nan,nan,nan,nan,nan,nan,nan
1446844283,4,-0.2924,-0.450633,-0.453399,-0.340843,nan,nan,nan,nan,nan,nan,nan,nan,nan,nan,nan,nan
1446896214,4,-0.397098,-0.248273,-0.528335,-0.508815,nan,nan,nan,nan,nan,nan,nan,nan,nan,nan,nan,nan
1446949202,4,-0.347294,-0.231012,-0.732128,-0.479897,nan,nan,nan,nan,nan,nan,nan,nan,nan,nan,nan,nan
1447002181,4,-0.346764,-0.238126,-0.769063,-0.525023,nan,nan,nan,nan,nan,nan,nan,nan,nan,nan,nan,nan
1447054191,4,-0.311546,-0.311883,-0.608939,-0.606003,nan,nan,nan,nan,nan,nan,nan,nan,nan,nan,nan,nan
1447106258,4,-0.340048,-0.29054,-0.353588,-0.58897,nan,nan,nan,nan,nan,nan,nan,nan,nan,nan,nan,nan
1447159231,4,-0.464704,-0.153387,-0.267606,-0.420716,nan,nan,nan,nan,nan,nan,nan,nan,nan,nan,nan,nan
1447212202,4,-0.230465,-0.366922,-0.277335,-0.17417,nan,nan,nan,nan,nan,nan,nan,nan,nan,nan,nan,nan
1447264121,4,-0.326192,-0.250115,-0.108642,-0.179338,nan,nan,nan,nan,nan,nan,nan,nan,nan,nan,nan,nan
1447317222,4,-0.223524,-0.341432,-0.112072,-0.08937,nan,nan,nan,nan,nan,nan,nan,nan,nan,nan,nan,nan
1447369263,4,-0.276557,-0.291106,-0.116552,-0.0347253,nan,nan,nan,nan,nan,nan,nan,nan,nan,nan,nan,nan
1447421201,4,-0.353346,-0.30325,0.011229,-0.148098,nan,nan,nan,nan,nan,nan,nan,nan,nan,nan,nan,nan
1447474476,4,-0.341108,-0.337094,-0.0520879,-0.115864,nan,nan,nan,nan,nan,nan,nan,nan,nan,nan,nan,nan
1447526314,4,-0.381494,-0.305365,-0.0340207,-0.239018,nan,nan,nan,nan,nan,nan,nan,nan,nan,nan,nan,nan
1447579281,4,-0.412645,-0.300532,-0.140291,-0.25745,nan,nan,nan,nan,nan,nan,nan,nan,nan,nan,nan,nan
1447630178,4,-0.404582,-0.353733,-0.177717,-0.415861,nan,nan,nan,nan,nan,nan,nan,nan,nan,nan,nan,nan
1447684188,4,-0.35045,-0.436467,-0.420782,-0.361139,nan,nan,nan,nan,nan,nan,nan,nan,nan,nan,nan,nan
1447736204,4,-0.47271,-0.44939,-0.291699,-0.652687,nan,nan,nan,nan,nan,nan,nan,nan,nan,nan,nan,nan
1447788268,4,-0.328622,-0.678259,-0.496314,-0.491079,nan,nan,nan,nan,nan,nan,nan,nan,nan,nan,nan,nan
1447841252,4,-0.419992,-0.567396,-0.600387,-0.401428,nan,nan,nan,nan,nan,nan,nan,nan,nan,nan,nan,nan
1447894226,4,-0.372128,-0.473631,-0.672179,-0.344714,nan,nan,nan,nan,nan,nan,nan,nan,nan,nan,nan,nan
1447947233,4,-0.505141,-0.165072,-0.580606,-0.392229,nan,nan,nan,nan,nan,nan,nan,nan,nan,nan,nan,nan
1447999385,4,-0.40266,-0.124905,-0.445412,-0.407823,nan,nan,nan,nan,nan,nan,nan,nan,nan,nan,nan,nan
1448051189,4,-0.265759,-0.101062,-0.518082,-0.184526,nan,nan,nan,nan,nan,nan,nan,nan,nan,nan,nan,nan
1448104255,4,-0.255384,-0.0147604,-0.298081,-0.352128,nan,nan,nan,nan,nan,nan,nan,nan,nan,nan,nan,nan
1448157258,4,-0.137509,-0.0611757,-0.399886,-0.243106,nan,nan,nan,nan,nan,nan,nan,nan,nan,nan,nan,nan
1448206260,4,-0.107857,-0.03025,-0.341131,-0.357236,nan,nan,nan,nan,nan,nan,nan,nan,nan,nan,nan,nan
1448262181,4,-0.044064,-0.0672389,-0.526879,-0.297708,nan,nan,nan,nan,nan,nan,nan,nan,nan,nan,nan,nan
1448314162,4,-0.0887129,0.0186465,-0.428541,-0.574511,nan,nan,nan,nan,nan,nan,nan,nan,nan,nan,nan,nan
1448367197,4,-0.0355021,0.0470626,-0.773963,-0.571881,nan,nan,nan,nan,nan,nan,nan,nan,nan,nan,nan,nan
1448419162,4,0.109067,0.025537,-0.953744,-0.794974,nan,nan,nan,nan,nan,nan,nan,nan,nan,nan,nan,nan
1448472126,4,0.139249,0.0147876,-1.0,-0.970527,nan,nan,nan,nan,nan,nan,nan,nan,nan,nan,nan,nan
1448524194,4,-0.052527,-0.166345,-0.866845,-0.785323,nan,nan,nan,nan,nan,nan,nan,nan,nan,nan,nan,nan
1448576229,4,-0.113317,-0.387543,-0.445173,-0.583628,nan,nan,nan,nan,nan,nan,nan,nan,nan,nan,nan,nan
1448629256,4,-0.0960299,-0.363415,-0.159959,-0.343095,nan,nan,nan,nan,nan,nan,nan,nan,nan,nan,nan,nan
1448682178,4,-0.0577029,-0.159466,0.0513912,-0.289394,nan,nan,nan,nan,nan,nan,nan,nan,nan,nan,nan,nan
1448734217,4,0.0630894,-0.238578,-0.0839647,-0.230066,nan,nan,nan,nan,nan,nan,nan,nan,nan,nan,nan,nan
1448786279,4,-0.0403046,-0.189745,-0.206323,-0.283915,nan,nan,nan,nan,nan,nan,nan,nan,nan,nan,nan,nan
1448839249,4,-0.070959,-0.387612,-0.281474,-0.338687,nan,nan,nan,nan,nan,nan,nan,nan,nan,nan,nan,nan
1448891184,4,-0.529585,-0.195089,-0.277208,-0.358816,nan,nan,nan,nan,nan,nan,nan,nan,nan,nan,nan,nan
1448944171,4,-0.686411,-0.326445,-0.189034,-0.3366,nan,nan,nan,nan,nan,nan,nan,nan,nan,nan,nan,nan
1448996452,4,-0.759684,-0.570871,-0.225447,-0.136479,nan,nan,nan,nan,nan,nan,nan,nan,nan,nan,nan,nan
1449049342,4,-0.925762,-0.65274,-0.189164,-0.128646,nan,nan,nan,nan,nan,nan,nan,nan,nan,nan,nan,nan
1449101264,4,-1.0,-0.623259,-0.161702,-0.282257,nan,nan,nan,nan,nan,nan,nan,nan,nan,nan,nan,nan
1449153152,4,-0.795503,-0.797704,-0.374636,-0.124142,nan,nan,nan,nan,nan,nan,nan,nan,nan,nan,nan,nan
1449206132,4,-0.658123,-0.73489,-0.199371,-0.315501,nan,nan,nan,nan,nan,nan,nan,nan,nan,nan,nan,nan
1449259143,4,-0.419324,-0.783765,-0.28977,-0.116673,nan,nan,nan,nan,nan,nan,nan,nan,nan,nan,nan,nan
1449311168,4,-0.427523,-0.538192,-0.0891204,-0.118782,nan,nan,nan,nan,nan,nan,nan,nan,nan,nan,nan,nan
1449364292,4,-0.315932,-0.442387,-0.0958632,-0.0798304,nan,nan,nan,nan,nan,nan,nan,nan,nan,nan,nan,nan
1449416358,4,-0.199623,-0.424932,-0.120606,-0.0469671,nan,nan,nan,nan,nan,nan,nan,nan,nan,nan,nan,nan
1449469198,4,-0.146312,-0.42738,-0.21471,-0.0201294,nan,nan,nan,nan,nan,nan,nan,nan,nan,nan,nan,nan
1449522181,4,-0.284444,-0.294686,-0.121322,-0.183695,nan,nan,nan,nan,nan,nan,nan,nan,nan,nan,nan,nan
1449573294,4,-0.272638,-0.36113,-0.205304,-0.166983,nan,nan,nan,nan,nan,nan,nan,nan,nan,nan,nan,nan
1449626235,4,-0.294506,-0.470093,-0.353109,-0.058361,nan,nan,nan,nan,nan,nan,nan,nan,nan,nan,nan,nan
1449679277,4,-0.404336,-0.391763,-0.344667,-0.171935,nan,nan,nan,nan,nan,nan,nan,nan,nan,nan,nan,nan
1449731317,4,-0.437213,-0.367938,-0.309917,-0.304344,nan,nan,nan,nan,nan,nan,nan,nan,nan,nan,nan,nan
1449784181,4,-0.241783,-0.402718,-0.529199,-0.325804,nan,nan,nan,nan,nan,nan,nan,nan,nan,nan,nan,nan
1449836372,4,-0.179328,-0.223845,-0.382213,-0.68736,nan,nan,nan,nan,nan,nan,nan,nan,nan,nan,nan,nan
1449889230,4,-0.0979366,-0.102712,-0.47825,-0.718323,nan,nan,nan,nan,nan,nan,nan,nan,nan,nan,nan,nan
1449941271,4,-0.113835,-0.0521808,-0.541514,-0.555936,nan,nan,nan,nan,nan,nan,nan,nan,nan,nan,nan,nan
1449994223,4,-0.0731426,-0.129633,-0.325936,-0.506973,nan,nan,nan,nan,nan,nan,nan,nan,nan,nan,nan,nan
1450046151,4,-0.0802814,-0.125497,-0.17648,-0.321428,nan,nan,nan,nan,nan,nan,nan,nan,nan,nan,nan,nan
1450099121,4,-0.040756,-0.129932,-0.144172,-0.0725291,nan,nan,nan,nan,nan,nan,nan,nan,nan,nan,nan,nan
1450152189,4,-0.0726948,-0.135745,-0.101585,0.0237696,nan,nan,nan,nan,nan,nan,nan,nan,nan,nan,nan,nan
1450204145,4,-0.130765,-0.125436,-0.0648375,0.0343878,nan,nan,nan,nan,nan,nan,nan,nan,nan,nan,nan,nan
1450256398,4,-0.104492,-0.273798,-0.0275506,-0.0403664,nan,nan,nan,nan,nan,nan,nan,nan,nan,nan,nan,nan
1450309196,4,-0.305017,-0.211572,0.0297356,-0.220792,nan,nan,nan,nan,nan,nan,nan,nan,nan,nan,nan,nan
1450362172,4,-0.326783,-0.282854,-0.191759,-0.199532,nan,nan,nan,nan,nan,nan,nan,nan,nan,nan,nan,nan
1450414226,4,-0.206239,-0.481474,-0.405758,-0.26778,nan,nan,nan,nan,nan,nan,nan,nan,nan,nan,nan,nan
1450466237,4,-0.276285,-0.342776,-0.491812,-0.586988,nan,nan,nan,nan,nan,nan,nan,nan,nan,nan,nan,nan
1450519132,4,-0.332653,-0.143936,-0.917462,-0.67535,nan,nan,nan,nan,nan,nan,nan,nan,nan,nan,nan,nan
1450572282,4,-0.194564,-0.202967,-1.0,-0.782724,nan,nan,nan,nan,nan,nan,nan,nan,nan,nan,nan,nan
1450624295,4,-0.14396,-0.161134,-0.984591,-0.852432,nan,nan,nan,nan,nan,nan,nan,nan,nan,nan,nan,nan
1450674241,4,-0.264639,-0.230117,-0.694312,-0.704055,nan,nan,nan,nan,nan,nan,nan,nan,nan,nan,nan,nan
1450728372,4,-0.30118,-0.30768,-0.495591,-0.45451,nan,nan,nan,nan,nan,nan,nan,nan,nan,nan,nan,nan
1450781196,4,-0.447331,-0.210692,-0.303667,-0.313731,nan,nan,nan,nan,nan,nan,nan,nan,nan,nan,nan,nan
1450833173,4,-0.366135,-0.289767,-0.287004,-0.143835,nan,nan,nan,nan,nan,nan,nan,nan,nan,nan,nan,nan
1450885123,4,-0.351132,-0.238149,-0.135118,-0.179659,nan,nan,nan,nan,nan,nan,nan,nan,nan,nan,nan,nan
1450939182,4,-0.254237,-0.332224,-0.217955,-0.0509152,nan,nan,nan,nan,nan,nan,nan,nan,nan,nan,nan,nan
1450991176,4,-0.327084,-0.234239,-0.189742,-0.0683017,nan,nan,nan,nan,nan,nan,nan,nan,nan,nan,nan,nan
1451044148,4,-0.256095,-0.327493,-0.19526,-0.0914699,nan,nan,nan,nan,nan,nan,nan,nan,nan,nan,nan,nan
1451097215,4,-0.364471,-0.257834,-0.145671,-0.212993,nan,nan,nan,nan,nan,nan,nan,nan,nan,nan,nan,nan
1451149198,4,-0.512255,-0.16943,-0.121514,-0.340396,nan,nan,nan,nan,nan,nan,nan,nan,nan,nan,nan,nan
1451201178,4,-0.29981,-0.484156,-0.443483,-0.159388,nan,nan,nan,nan,nan,nan,nan,nan,nan,nan,nan,nan
1451254192,4,-0.559539,-0.266752,-0.356038,-0.375517,nan,nan,nan,nan,nan,nan,nan,nan,nan,nan,nan,nan
1451306292,4,-0.468034,-0.358862,-0.408578,-0.373677,nan,nan,nan,nan,nan,nan,nan,nan,nan,nan,nan,nan
1451358439,4,-0.526866,-0.280953,-0.24181,-0.510034,nan,nan,nan,nan,nan,nan,nan,nan,nan,nan,nan,nan
1451411247,4,-0.228228,-0.45398,-0.299037,-0.351929,nan,nan,nan,nan,nan,nan,nan,nan,nan,nan,nan,nan
1451464200,4,-0.169181,-0.315926,-0.0204795,-0.431309,nan,nan,nan,nan,nan,nan,nan,nan,nan,nan,nan,nan
1451516149,4,0.0246322,-0.293844,-0.0859926,-0.101693,nan,nan,nan,nan,nan,nan,nan,nan,nan,nan,nan,nan
1451568172,4,0.0347503,-0.218894,0.0396897,-0.100134,nan,nan,nan,nan,nan,nan,nan,nan,nan,nan,nan,nan
1451621236,4,-0.101553,-0.136372,0.11296,-0.184754,nan,nan,nan,nan,nan,nan,nan,nan,nan,nan,nan,nan
1451674194,4,-0.205996,-0.178791,0.00380349,-0.143625,nan,nan,nan,nan,nan,nan,nan,nan,nan,nan,nan,nan
1451726247,4,-0.262439,-0.335009,0.0105292,-0.247041,nan,nan,nan,nan,nan,nan,nan,nan,nan,nan,nan,nan
1451778231,4,-0.355672,-0.450879,-0.0826557,-0.229818,nan,nan,nan,nan,nan,nan,nan,nan,nan,nan,nan,nan
1451831183,4,-0.491727,-0.644958,-0.106372,-0.220323,nan,nan,nan,nan,nan,nan,nan,nan,nan,nan,nan,nan
1451883215,4,-0.648162,-0.768568,-0.183955,-0.222208,nan,nan,nan,nan,nan,nan,nan,nan,nan,nan,nan,nan
1451936177,4,-0.616002,-0.890523,-0.474191,-0.215441,nan,nan,nan,nan,nan,nan,nan,nan,nan,nan,nan,nan
1451989183,4,-0.480644,-0.658607,-0.978558,-0.425997,nan,nan,nan,nan,nan,nan,nan,nan,nan,nan,nan,nan
1452041163,4,-0.623014,-0.369052,-1.0,-0.624441,nan,nan,nan,nan,nan,nan,nan,nan,nan,nan,nan,nan
1452093207,4,-0.340461,-0.194804,-0.88792,-1.0,nan,nan,nan,nan,nan,nan,nan,nan,nan,nan,nan,nan
1452146235,4,-0.394003,-0.148207,-0.649028,-0.733097,nan,nan,nan,nan,nan,nan,nan,nan,nan,nan,nan,nan
1452199190,4,-0.18046,-0.163326,-0.401919,-0.545296,nan,nan,nan,nan,nan,nan,nan,nan,nan,nan,nan,nan
1452251219,4,0.0584407,-0.170994,-0.146691,-0.506332,nan,nan,nan,nan,nan,nan,nan,nan,nan,nan,nan,nan
1452304224,4,0.164032,-0.138871,-0.173739,-0.41686,nan,nan,nan,nan,nan,nan,nan,nan,nan,nan,nan,nan
1452356308,4,0.200114,-0.103425,-0.333475,-0.458989,nan,nan,nan,nan,nan,nan,nan,nan,nan,nan,nan,nan
1452409172,4,0.0809579,0.130266,-0.553175,-0.628411,nan,nan,nan,nan,nan,nan,nan,nan,nan,nan,nan,nan
1452461182,4,0.134208,-0.0069356,-0.574394,-1.0,nan,nan,nan,nan,nan,nan,nan,nan,nan,nan,nan,nan
1452506170,4,-0.148954,-0.0390922,-0.610615,-1.0,nan,nan,nan,nan,nan,nan,nan,nan,nan,nan,nan,nan
1452566267,4,-0.227422,-0.072542,-1.0,-0.861842,nan,nan,nan,nan,nan,nan,nan,nan,nan,nan,nan,nan
1452619225,4,-0.322038,-0.179969,-1.0,-0.486531,nan,nan,nan,nan,nan,nan,nan,nan,nan,nan,nan,nan
1452669183,4,-0.0767299,0.0743871,-1.0,-0.818247,nan,nan,nan,nan,nan,nan,nan,nan,nan,nan,nan,nan
1452724231,4,0.00221229,-0.0238206,-1.0,-0.727705,nan,nan,nan,nan,nan,nan,nan,nan,nan,nan,nan,nan
1452776287,4,0.125579,0.137543,-1.0,-0.837634,nan,nan,nan,nan,nan,nan,nan,nan,nan,nan,nan,nan
1452829135,4,-0.0307909,-0.203694,-0.638493,-0.37273,nan,nan,nan,nan,nan,nan,nan,nan,nan,nan,nan,nan
1452881326,4,-0.00259238,-0.375525,-0.107075,-0.114413,nan,nan,nan,nan,nan,nan,nan,nan,nan,nan,nan,nan
1452934174,4,-0.0407399,-0.339907,0.106331,-0.000904739,nan,nan,nan,nan,nan,nan,nan,nan,nan,nan,nan,nan
1452986210,4,-0.152506,-0.335186,0.0730124,-0.0111793,nan,nan,nan,nan,nan,nan,nan,nan,nan,nan,nan,nan
1453039140,4,-0.340006,-0.385662,-0.0200231,-0.105913,nan,nan,nan,nan,nan,nan,nan,nan,nan,nan,nan,nan
1453091190,4,-0.436849,-0.550598,-0.183654,-0.250901,nan,nan,nan,nan,nan,nan,nan,nan,nan,nan,nan,nan
1453144314,4,-0.542015,-0.69521,-0.340971,-0.309886,nan,nan,nan,nan,nan,nan,nan,nan,nan,nan,nan,nan
1453196215,4,-0.676482,-0.701599,-0.350967,-0.523102,nan,nan,nan,nan,nan,nan,nan,nan,nan,nan,nan,nan
1453249191,4,-0.785297,-0.699738,-0.613214,-0.508656,nan,nan,nan,nan,nan,nan,nan,nan,nan,nan,nan,nan
1453301285,4,-0.832129,-0.747836,-0.63543,-0.601177,nan,nan,nan,nan,nan,nan,nan,nan,nan,nan,nan,nan
1453353276,4,-0.886962,-0.789386,-0.515252,-0.682992,nan,nan,nan,nan,nan,nan,nan,nan,nan,nan,nan,nan
1453406144,4,-0.909519,-0.791516,-0.503231,-0.474951,nan,nan,nan,nan,nan,nan,nan,nan,nan,nan,nan,nan
1453459158,4,-0.911448,-0.654835,-0.453247,-0.301449,nan,nan,nan,nan,nan,nan,nan,nan,nan,nan,nan,nan
1453511227,4,-0.666532,-0.718719,-0.413397,-0.137798,nan,nan,nan,nan,nan,nan,nan,nan,nan,nan,nan,nan
1453564282,4,-0.606038,-0.629575,-0.351516,-0.0974609,nan,nan,nan,nan,nan,nan,nan,nan,nan,nan,nan,nan
1453616221,4,-0.520176,-0.586327,-0.215926,-0.218738,nan,nan,nan,nan,nan,nan,nan,nan,nan,nan,nan,nan
1453669150,4,-0.539216,-0.466461,-0.249566,-0.210171,nan,nan,nan,nan,nan,nan,nan,nan,nan,nan,nan,nan
1453721354,4,-0.475916,-0.422921,-0.324198,-0.159076,nan,nan,nan,nan,nan,nan,nan,nan,nan,nan,nan,nan
1453774452,4,-0.427372,-0.322771,-0.184835,-0.324779,nan,nan,nan,nan,nan,nan,nan,nan,nan,nan,nan,nan
1453826237,4,-0.324371,-0.325707,-0.298582,-0.174919,nan,nan,nan,nan,nan,nan,nan,nan,nan,nan,nan,nan
1453879230,4,-0.272603,-0.168236,-0.0940861,-0.429944,nan,nan,nan,nan,nan,nan,nan,nan,nan,nan,nan,nan
1453931291,4,-0.161808,-0.152245,-0.154843,-0.393514,nan,nan,nan,nan,nan,nan,nan,nan,nan,nan,nan,nan
1453984290,4,-0.0859703,-0.14715,-0.15429,-0.439272,nan,nan,nan,nan,nan,nan,nan,nan,nan,nan,nan,nan
1454036209,4,-0.0282525,-0.199873,-0.397021,-0.322869,nan,nan,nan,nan,nan,nan,nan,nan,nan,nan,nan,nan
1454089156,4,-0.139083,-0.14407,-0.378053,-0.494599,nan,nan,nan,nan,nan,nan,nan,nan,nan,nan,nan,nan
1454141361,4,-0.0967822,-0.283965,-0.554881,-0.461866,nan,nan,nan,nan,nan,nan,nan,nan,nan,nan,nan,nan
1454194218,4,-0.131061,-0.329482,-0.606261,-0.522579,nan,nan,nan,nan,nan,nan,nan,nan,nan,nan,nan,nan
1454246228,4,-0.103754,-0.394183,-0.539445,-0.65057,nan,nan,nan,nan,nan,nan,nan,nan,nan,nan,nan,nan
1454299189,4,-0.169548,-0.374642,-0.52767,-0.640421,nan,nan,nan,nan,nan,nan,nan,nan,nan,nan,nan,nan
1454351208,4,-0.32655,-0.290346,-0.56831,-0.515062,nan,nan,nan,nan,nan,nan,nan,nan,nan,nan,nan,nan
1454404120,4,-0.304627,-0.389619,-0.432962,-0.559747,nan,nan,nan,nan,nan,nan,nan,nan,nan,nan,nan,nan
1454456200,4,-0.41414,-0.335515,-0.560994,-0.369343,nan,nan,nan,nan,nan,nan,nan,nan,nan,nan,nan,nan
1454509181,4,-0.394123,-0.379933,-0.521646,-0.371495,nan,nan,nan,nan,nan,nan,nan,nan,nan,nan,nan,nan
1454561200,4,-0.491799,-0.299777,-0.432073,-0.43808,nan,nan,nan,nan,nan,nan,nan,nan,nan,nan,nan,nan
1454613191,4,-0.45367,-0.34196,-0.47506,-0.381798,nan,nan,nan,nan,nan,nan,nan,nan,nan,nan,nan,nan
1454666210,4,-0.48645,-0.292404,-0.377573,-0.490591,nan,nan,nan,nan,nan,nan,nan,nan,nan,nan,nan,nan
1454719317,4,-0.341633,-0.436138,-0.403876,-0.471114,nan,nan,nan,nan,nan,nan,nan,nan,nan,nan,nan,nan
1454771315,4,-0.510975,-0.244909,-0.322922,-0.568394,nan,nan,nan,nan,nan,nan,nan,nan,nan,nan,nan,nan
1454824153,4,-0.521729,-0.215813,-0.192013,-0.682563,nan,nan,nan,nan,nan,nan,nan,nan,nan,nan,nan,nan
1454876161,4,-0.414986,-0.433694,-0.540555,-0.441255,nan,nan,nan,nan,nan,nan,nan,nan,nan,nan,nan,nan
1454929197,4,-0.391981,-0.470385,-0.618628,-0.393113,nan,nan,nan,nan,nan,nan,nan,nan,nan,nan,nan,nan
1454981202,4,-0.358959,-0.510391,-0.497295,-0.546127,nan,nan,nan,nan,nan,nan,nan,nan,nan,nan,nan,nan
1455034271,4,-0.480669,-0.37611,-0.513399,-0.518049,nan,nan,nan,nan,nan,nan,nan,nan,nan,nan,nan,nan
1455086150,4,-0.533617,-0.268861,-0.348217,-0.646788,nan,nan,nan,nan,nan,nan,nan,nan,nan,nan,nan,nan
1455138181,4,-0.347587,-0.461054,-0.550287,-0.443115,nan,nan,nan,nan,nan,nan,nan,nan,nan,nan,nan,nan
1455191148,4,-0.476992,-0.307841,-0.35436,-0.622602,nan,nan,nan,nan,nan,nan,nan,nan,nan,nan,nan,nan
1455244231,4,-0.319116,-0.492759,-0.546644,-0.439787,nan,nan,nan,nan,nan,nan,nan,nan,nan,nan,nan,nan
1455296191,4,-0.380139,-0.42617,-0.515098,-0.465102,nan,nan,nan,nan,nan,nan,nan,nan,nan,nan,nan,nan
1455349171,4,-0.358184,-0.429773,-0.448919,-0.513318,nan,nan,nan,nan,nan,nan,nan,nan,nan,nan,nan,nan
1455401233,4,-0.250534,-0.518756,-0.621851,-0.316,nan,nan,nan,nan,nan,nan,nan,nan,nan,nan,nan,nan
1455454230,4,-0.429843,-0.361445,-0.530164,-0.429921,nan,nan,nan,nan,nan,nan,nan,nan,nan,nan,nan,nan
1455506211,4,-0.29542,-0.499593,-0.466983,-0.478679,nan,nan,nan,nan,nan,nan,nan,nan,nan,nan,nan,nan
1455559174,4,-0.339716,-0.459169,-0.394173,-0.550709,nan,nan,nan,nan,nan,nan,nan,nan,nan,nan,nan,nan
1455611353,4,-0.521688,-0.292936,-0.418218,-0.529833,nan,nan,nan,nan,nan,nan,nan,nan,nan,nan,nan,nan
1455664239,4,-0.29963,-0.498436,-0.644896,-0.297775,nan,nan,nan,nan,nan,nan,nan,nan,nan,nan,nan,nan
1455716327,4,-0.344649,-0.451658,-0.568272,-0.389736,nan,nan,nan,nan,nan,nan,nan,nan,nan,nan,nan,nan
1455766246,4,-0.403794,-0.399162,-0.485324,-0.488155,nan,nan,nan,nan,nan,nan,nan,nan,nan,nan,nan,nan
1455821220,4,-0.512462,-0.258865,-0.33998,-0.624425,nan,nan,nan,nan,nan,nan,nan,nan,nan,nan,nan,nan
1455873230,4,-0.380584,-0.408542,-0.54886,-0.416187,nan,nan,nan,nan,nan,nan,nan,nan,nan,nan,nan,nan
1455926147,4,-0.382988,-0.390426,-0.475115,-0.487572,nan,nan,nan,nan,nan,nan,nan,nan,nan,nan,nan,nan
1455978186,4,-0.365074,-0.402979,-0.465225,-0.484554,nan,nan,nan,nan,nan,nan,nan,nan,nan,nan,nan,nan
1456031243,4,-0.465352,-0.30578,-0.484816,-0.475208,nan,nan,nan,nan,nan,nan,nan,nan,nan,nan,nan,nan
1456083212,4,-0.40561,-0.379008,-0.38747,-0.56715,nan,nan,nan,nan,nan,nan,nan,nan,nan,nan,nan,nan
1456136272,4,-0.236546,-0.563907,-0.527459,-0.414191,nan,nan,nan,nan,nan,nan,nan,nan,nan,nan,nan,nan
1456188237,4,-0.584895,-0.23515,-0.390541,-0.574973,nan,nan,nan,nan,nan,nan,nan,nan,nan,nan,nan,nan
1456241166,4,-0.39677,-0.446501,-0.53253,-0.425202,nan,nan,nan,nan,nan,nan,nan,nan,nan,nan,nan,nan
1456293207,4,-0.322491,-0.507328,-0.494493,-0.45751,nan,nan,nan,nan,nan,nan,nan,nan,nan,nan,nan,nan
1456346202,4,-0.436949,-0.401489,-0.487927,-0.466923,nan,nan,nan,nan,nan,nan,nan,nan,nan,nan,nan,nan
1456399219,4,-0.51909,-0.320377,-0.449521,-0.493179,nan,nan,nan,nan,nan,nan,nan,nan,nan,nan,nan,nan
1456451209,4,-0.412329,-0.447278,-0.348997,-0.599043,nan,nan,nan,nan,nan,nan,nan,nan,nan,nan,nan,nan
1456504161,4,-0.43625,-0.412599,-0.514284,-0.421642,nan,nan,nan,nan,nan,nan,nan,nan,nan,nan,nan,nan
1456556089,4,-0.355686,-0.478807,-0.362115,-0.556926,nan,nan,nan,nan,nan,nan,nan,nan,nan,nan,nan,nan
1456609146,4,-0.481586,-0.343275,-0.404362,-0.506374,nan,nan,nan,nan,nan,nan,nan,nan,nan,nan,nan,nan
1456661159,4,-0.402892,-0.419858,-0.317571,-0.58063,nan,nan,nan,nan,nan,nan,nan,nan,nan,nan,nan,nan
1456714204,4,-0.475186,-0.340611,-0.318681,-0.58042,nan,nan,nan,nan,nan,nan,nan,nan,nan,nan,nan,nan
1456766239,4,-0.503599,-0.316379,-0.429507,-0.452401,nan,nan,nan,nan,nan,nan,nan,nan,nan,nan,nan,nan
1456818181,4,-0.36803,-0.465351,-0.427899,-0.476071,nan,nan,nan,nan,nan,nan,nan,nan,nan,nan,nan,nan
1456871179,4,-0.314321,-0.527099,-0.444608,-0.447778,nan,nan,nan,nan,nan,nan,nan,nan,nan,nan,nan,nan
1456924344,4,-0.444859,-0.373272,-0.388342,-0.493229,nan,nan,nan,nan,nan,nan,nan,nan,nan,nan,nan,nan
1456968374,4,-0.224033,-0.601764,-0.506373,-0.374414,nan,nan,nan,nan,nan,nan,nan,nan,nan,nan,nan,nan
1457029147,4,-0.440221,-0.401277,-0.343715,-0.527719,nan,nan,nan,nan,nan,nan,nan,nan,nan,nan,nan,nan
1457081204,4,-0.584924,-0.263495,-0.256111,-0.637302,nan,nan,nan,nan,nan,nan,nan,nan,nan,nan,nan,nan
1457134353,4,-0.344834,-0.536536,-0.442308,-0.45446,nan,nan,nan,nan,nan,nan,nan,nan,nan,nan,nan,nan
1457186202,4,-0.269347,-0.609984,-0.58488,-0.326837,nan,nan,nan,nan,nan,nan,nan,nan,nan,nan,nan,nan
1457238261,4,-0.359328,-0.517893,-0.43377,-0.478381,nan,nan,nan,nan,nan,nan,nan,nan,nan,nan,nan,nan
1457291293,4,-0.499823,-0.343921,-0.475023,-0.43178,nan,nan,nan,nan,nan,nan,nan,nan,nan,nan,nan,nan
1457343150,4,-0.418875,-0.407666,-0.358202,-0.53854,nan,nan,nan,nan,nan,nan,nan,nan,nan,nan,nan,nan
1457396313,4,-0.454846,-0.363025,-0.377167,-0.503484,nan,nan,nan,nan,nan,nan,nan,nan,nan,nan,nan,nan
1457449199,4,-0.285883,-0.549474,-0.54258,-0.351979,nan,nan,nan,nan,nan,nan,nan,nan,nan,nan,nan,nan
1457501351,4,-0.329125,-0.515733,-0.402665,-0.481326,nan,nan,nan,nan,nan,nan,nan,nan,nan,nan,nan,nan
1457554201,4,-0.70992,-0.155738,-0.251025,-0.656708,nan,nan,nan,nan,nan,nan,nan,nan,nan,nan,nan,nan
1457604254,4,-0.452959,-0.428124,-0.346687,-0.563213,nan,nan,nan,nan,nan,nan,nan,nan,nan,nan,nan,nan
1457659300,4,-0.391219,-0.473618,-0.342153,-0.566906,nan,nan,nan,nan,nan,nan,nan,nan,nan,nan,nan,nan
1457711205,4,-0.316477,-0.523298,-0.544069,-0.361715,nan,nan,nan,nan,nan,nan,nan,nan,nan,nan,nan,nan
1457764195,4,-0.427548,-0.42938,-0.360695,-0.53788,nan,nan,nan,nan,nan,nan,nan,nan,nan,nan,nan,nan
1457815179,4,-0.454422,-0.398423,-0.441548,-0.471848,nan,nan,nan,nan,nan,nan,nan,nan,nan,nan,nan,nan
1457869150,4,-0.473138,-0.394915,-0.424727,-0.480545,nan,nan,nan,nan,nan,nan,nan,nan,nan,nan,nan,nan
1457921195,4,-0.541568,-0.316182,-0.338209,-0.574236,nan,nan,nan,nan,nan,nan,nan,nan,nan,nan,nan,nan
1457974242,4,-0.426281,-0.438152,-0.450799,-0.466519,nan,nan,nan,nan,nan,nan,nan,nan,nan,nan,nan,nan
1458026250,4,-0.436216,-0.405693,-0.359538,-0.553387,nan,nan,nan,nan,nan,nan,nan,nan,nan,nan,nan,nan
1458079386,4,-0.388176,-0.439339,-0.454464,-0.460409,nan,nan,nan,nan,nan,nan,nan,nan,nan,nan,nan,nan
1458131205,4,-0.496446,-0.330763,-0.333281,-0.5856,nan,nan,nan,nan,nan,nan,nan,nan,nan,nan,nan,nan
1458184198,4,-0.51813,-0.303988,-0.395259,-0.519592,nan,nan,nan,nan,nan,nan,nan,nan,nan,nan,nan,nan
1458236132,4,-0.549753,-0.281764,-0.354028,-0.581028,nan,nan,nan,nan,nan,nan,nan,nan,nan,nan,nan,nan
1458289156,4,-0.321875,-0.504733,-0.535585,-0.403185,nan,nan,nan,nan,nan,nan,nan,nan,nan,nan,nan,nan
1458341136,4,-0.374377,-0.449355,-0.549677,-0.393463,nan,nan,nan,nan,nan,nan,nan,nan,nan,nan,nan,nan
1458394162,4,-0.363736,-0.436153,-0.398924,-0.543656,nan,nan,nan,nan,nan,nan,nan,nan,nan,nan,nan,nan
1458446372,4,-0.589318,-0.192124,-0.300353,-0.642417,nan,nan,nan,nan,nan,nan,nan,nan,nan,nan,nan,nan
1458499137,4,-0.214926,-0.572793,-0.516968,-0.420071,nan,nan,nan,nan,nan,nan,nan,nan,nan,nan,nan,nan
1458551295,4,-0.514249,-0.314336,-0.375276,-0.582125,nan,nan,nan,nan,nan,nan,nan,nan,nan,nan,nan,nan
1458604236,4,-0.359808,-0.442676,-0.381839,-0.553831,nan,nan,nan,nan,nan,nan,nan,nan,nan,nan,nan,nan
1458656242,4,-0.306912,-0.495017,-0.577258,-0.361696,nan,nan,nan,nan,nan,nan,nan,nan,nan,nan,nan,nan
1458709163,4,-0.50747,-0.292343,-0.427083,-0.529907,nan,nan,nan,nan,nan,nan,nan,nan,nan,nan,nan,nan
1458761129,4,-0.501589,-0.296417,-0.434334,-0.500086,nan,nan,nan,nan,nan,nan,nan,nan,nan,nan,nan,nan
1458813209,4,-0.224136,-0.563779,-0.538678,-0.396088,nan,nan,nan,nan,nan,nan,nan,nan,nan,nan,nan,nan
1458866224,4,-0.570546,-0.204645,-0.296753,-0.634233,nan,nan,nan,nan,nan,nan,nan,nan,nan,nan,nan,nan
1458918227,4,-0.262557,-0.522769,-0.559112,-0.374889,nan,nan,nan,nan,nan,nan,nan,nan,nan,nan,nan,nan
1458971271,4,-0.481226,-0.293169,-0.339976,-0.593792,nan,nan,nan,nan,nan,nan,nan,nan,nan,nan,nan,nan
1459023238,4,-0.383745,-0.408206,-0.5503,-0.375365,nan,nan,nan,nan,nan,nan,nan,nan,nan,nan,nan,nan
1459076230,4,-0.48676,-0.309985,-0.342917,-0.590278,nan,nan,nan,nan,nan,nan,nan,nan,nan,nan,nan,nan
1459128183,4,-0.510315,-0.308721,-0.401599,-0.535366,nan,nan,nan,nan,nan,nan,nan,nan,nan,nan,nan,nan
1459181270,4,-0.394965,-0.41167,-0.432081,-0.500145,nan,nan,nan,nan,nan,nan,nan,nan,nan,nan,nan,nan
1459233160,4,-0.544565,-0.238738,-0.314301,-0.619328,nan,nan,nan,nan,nan,nan,nan,nan,nan,nan,nan,nan
1459286232,4,-0.337668,-0.449559,-0.530654,-0.409301,nan,nan,nan,nan,nan,nan,nan,nan,nan,nan,nan,nan
1459339172,4,-0.349561,-0.448723,-0.367903,-0.580946,nan,nan,nan,nan,nan,nan,nan,nan,nan,nan,nan,nan
1459391196,4,-0.367124,-0.416493,-0.428734,-0.511383,nan,nan,nan,nan,nan,nan,nan,nan,nan,nan,nan,nan
1459444125,4,-0.443351,-0.343189,-0.409932,-0.539688,nan,nan,nan,nan,nan,nan,nan,nan,nan,nan,nan,nan
1459495205,4,-0.443597,-0.32676,-0.274055,-0.664448,nan,nan,nan,nan,nan,nan,nan,nan,nan,nan,nan,nan
1459548202,4,-0.319579,-0.470398,-0.540989,-0.395395,nan,nan,nan,nan,nan,nan,nan,nan,nan,nan,nan,nan
1459601197,4,-0.419202,-0.381643,-0.336846,-0.610579,nan,nan,nan,nan,nan,nan,nan,nan,nan,nan,nan,nan
1459653160,4,-0.549246,-0.252868,-0.380042,-0.571374,nan,nan,nan,nan,nan,nan,nan,nan,nan,nan,nan,nan
1459706413,4,-0.254765,-0.554126,-0.499359,-0.449449,nan,nan,nan,nan,nan,nan,nan,nan,nan,nan,nan,nan
1459758336,4,-0.582541,-0.216621,-0.36141,-0.591622,nan,nan,nan,nan,nan,nan,nan,nan,nan,nan,nan,nan
1459810183,4,-0.447352,-0.385152,-0.415606,-0.550064,nan,nan,nan,nan,nan,nan,nan,nan,nan,nan,nan,nan
1459863424,4,-0.373623,-0.466473,-0.518966,-0.442265,nan,nan,nan,nan,nan,nan,nan,nan,nan,nan,nan,nan
1459916177,4,-0.4625,-0.346831,-0.512008,-0.448865,nan,nan,nan,nan,nan,nan,nan,nan,nan,nan,nan,nan
1459968214,4,-0.40194,-0.40162,-0.405296,-0.548274,nan,nan,nan,nan,nan,nan,nan,nan,nan,nan,nan,nan
1460020209,4,-0.267712,-0.514688,-0.53185,-0.41039,nan,nan,nan,nan,nan,nan,nan,nan,nan,nan,nan,nan
1460074248,4,-0.340996,-0.432897,-0.370433,-0.55478,nan,nan,nan,nan,nan,nan,nan,nan,nan,nan,nan,nan
1460126247,4,-0.332089,-0.443928,-0.502053,-0.406662,nan,nan,nan,nan,nan,nan,nan,nan,nan,nan,nan,nan
1460178192,4,-0.329297,-0.442712,-0.448401,-0.464719,nan,nan,nan,nan,nan,nan,nan,nan,nan,nan,nan,nan
1460231243,4,-0.369707,-0.413956,-0.335786,-0.592933,nan,nan,nan,nan,nan,nan,nan,nan,nan,nan,nan,nan
1460283222,4,-0.478816,-0.338538,-0.422157,-0.526342,nan,nan,nan,nan,nan,nan,nan,nan,nan,nan,nan,nan
1460336128,4,-0.538681,-0.294505,-0.410214,-0.550406,nan,nan,nan,nan,nan,nan,nan,nan,nan,nan,nan,nan
1460388205,4,-0.462998,-0.390047,-0.430528,-0.560962,nan,nan,nan,nan,nan,nan,nan,nan,nan,nan,nan,nan
1460441205,4,-0.510706,-0.354665,-0.513513,-0.501233,nan,nan,nan,nan,nan,nan,nan,nan,nan,nan,nan,nan
1460493272,4,-0.43376,-0.415438,-0.433002,-0.569604,nan,nan,nan,nan,nan,nan,nan,nan,nan,nan,nan,nan
1460546224,4,-0.533,-0.322184,-0.434492,-0.583471,nan,nan,nan,nan,nan,nan,nan,nan,nan,nan,nan,nan
1460599241,4,-0.566347,-0.305386,-0.416724,-0.609064,nan,nan,nan,nan,nan,nan,nan,nan,nan,nan,nan,nan
1460651257,4,-0.598113,-0.280333,-0.385116,-0.641383,nan,nan,nan,nan,nan,nan,nan,nan,nan,nan,nan,nan
1460704266,4,-0.460085,-0.413029,-0.366475,-0.649041,nan,nan,nan,nan,nan,nan,nan,nan,nan,nan,nan,nan
1460756203,4,-0.455211,-0.412838,-0.409241,-0.606604,nan,nan,nan,nan,nan,nan,nan,nan,nan,nan,nan,nan
1460806217,4,-0.288282,-0.588645,-0.592829,-0.432576,nan,nan,nan,nan,nan,nan,nan,nan,nan,nan,nan,nan
1460861221,4,-0.498584,-0.399227,-0.395857,-0.65154,nan,nan,nan,nan,nan,nan,nan,nan,nan,nan,nan,nan
1460913257,4,-0.391812,-0.504475,-0.50778,-0.533377,nan,nan,nan,nan,nan,nan,nan,nan,nan,nan,nan,nan
1460964265,4,-0.481004,-0.412453,-0.522062,-0.519156,nan,nan,nan,nan,nan,nan,nan,nan,nan,nan,nan,nan
1461019188,4,-0.50676,-0.435429,-0.385982,-0.70056,nan,nan,nan,nan,nan,nan,nan,nan,nan,nan,nan,nan
1461071329,4,-0.384226,-0.595867,-0.647377,-0.491579,nan,nan,nan,nan,nan,nan,nan,nan,nan,nan,nan,nan
1461123246,4,-0.561868,-0.484126,-0.509251,-0.663376,nan,nan,nan,nan,nan,nan,nan,nan,nan,nan,nan,nan
1461176240,4,-0.518325,-0.566463,-0.594211,-0.569597,nan,nan,nan,nan,nan,nan,nan,nan,nan,nan,nan,nan
1461228256,4,-0.559296,-0.579617,-0.553977,-0.6174,nan,nan,nan,nan,nan,nan,nan,nan,nan,nan,nan,nan
1461273267,4,-0.525479,-0.624457,-0.532277,-0.634106,nan,nan,nan,nan,nan,nan,nan,nan,nan,nan,nan,nan
1461332296,4,-0.566359,-0.592447,-0.49272,-0.695091,nan,nan,nan,nan,nan,nan,nan,nan,nan,nan,nan,nan
1461386341,4,-0.549208,-0.602475,-0.546774,-0.643063,nan,nan,nan,nan,nan,nan,nan,nan,nan,nan,nan,nan
1461438148,4,-0.522529,-0.636739,-0.522982,-0.667065,nan,nan,nan,nan,nan,nan,nan,nan,nan,nan,nan,nan
1461491144,4,-0.568065,-0.563892,-0.561655,-0.604131,nan,nan,nan,nan,nan,nan,nan,nan,nan,nan,nan,nan
1461524117,4,-0.491298,-0.638779,-0.586485,-0.598306,nan,nan,nan,nan,nan,nan,nan,nan,nan,nan,nan,nan
