timestamp,rollspeed,pitchspeed,yawspeed,q[0],q[1],q[2],q[3]
1437080051,0.00144379,-0.00444691,0.00479555,0.887963,0.00916987,0.00310918,0.459814
1437080051,0.00144379,-0.00444691,0.00479555,0.887963,0.00916987,0.00310918,0.459814
1437080051,0.00144379,-0.00444691,0.00479555,0.887963,0.00916987,0.00310918,0.459814
1437081233,0.000186118,-0.000596471,0.0037158,0.887963,0.00916834,0.00310841,0.459814
1437083154,0.000438946,0.00601843,-0.00115558,0.887962,0.00916277,0.00311282,0.459815
1437087070,0.00584921,-0.00532679,0.00456404,0.88796,0.00916122,0.00310701,0.459818
1437090156,0.000287664,-6.07973e-06,0.00276365,0.88796,0.00916407,0.00310455,0.459818
1437094013,0.00589497,-0.00503151,0.00547876,0.887959,0.0091618,0.00310306,0.459821
1437097223,-0.00256142,-0.000346179,-0.00112188,0.887958,0.0091609,0.0030976,0.459823
1437100116,0.00350417,-0.000469979,0.00433959,0.887958,0.00915746,0.00309933,0.459823
1437104125,0.00110918,-0.00127341,0.00464236,0.887958,0.00916104,0.00309741,0.459822
1437108111,0.00502353,0.00238313,0.00454153,0.887959,0.00916089,0.00309392,0.459821
1437111105,-0.00233516,0.00583933,0.00265155,0.887959,0.00915546,0.0030985,0.459821
1437115241,0.00609358,0.000652927,0.00396115,0.887961,0.00915056,0.00309457,0.459818
1437118227,0.00229471,0.0040641,0.00534967,0.887961,0.00915208,0.00310258,0.459818
1437121100,0.000722747,0.00366504,0.00342881,0.887961,0.00914456,0.00310912,0.459818
1437125097,0.00318527,0.000652816,0.00483579,0.887959,0.00914675,0.00311015,0.459821
1437129057,0.00215127,0.00287153,0.00681025,0.887958,0.00913733,0.00311891,0.459823
1437132082,0.00589048,0.0025821,0.00329113,0.887958,0.00913892,0.00312281,0.459823
1437136135,0.00505297,0.00188914,0.00464876,0.887958,0.0091376,0.00312997,0.459823
1437139104,-5.44237e-05,0.00522712,0.00212509,0.887959,0.00913459,0.00313349,0.459822
1437143129,0.00246828,-0.00305388,0.00465237,0.887959,0.0091293,0.00313583,0.459821
1437146126,0.0047452,0.00650868,0.00396367,0.887959,0.00913204,0.00313651,0.459821
1437149126,-0.000351097,-0.00864751,0.00479978,0.887959,0.00912946,0.00313647,0.459821
1437153272,0.00274874,0.00724527,0.00588812,0.887961,0.00913049,0.00313454,0.459818
1437157118,-0.000825968,0.000667883,0.00440361,0.887961,0.00912258,0.00313451,0.459818
1437160043,0.00212929,0.00193903,0.00398507,0.887961,0.00911886,0.00314038,0.459818
1437164156,0.00201904,0.00122686,0.00805201,0.887961,0.00911407,0.00313973,0.459819
1437167049,0.000195066,-0.00410981,-0.00239242,0.887961,0.00911612,0.00313792,0.459817
1437171156,0.00149956,0.00063817,0.0100066,0.887961,0.00910652,0.00313506,0.459817
1437174181,0.00312101,-0.00488414,0.00121539,0.887962,0.00911133,0.00312947,0.459816
1437177221,-0.000359228,0.00350372,0.000348509,0.887963,0.00910625,0.00313122,0.459815
1437181204,0.00422216,0.00355089,0.000544011,0.887963,0.0091065,0.00313621,0.459815
1437185154,-0.0010762,0.0060556,0.00273021,0.887964,0.00909545,0.00314332,0.459813
1437188080,0.00487526,-0.0095976,0.00211459,0.887964,0.00909919,0.00313886,0.459813
1437192038,-0.00371311,0.00437777,0.0055332,0.887964,0.00909096,0.00313866,0.459813
1437195125,0.00855127,0.00309725,0.00371803,0.887963,0.00909169,0.0031449,0.459814
1437199129,0.00027827,-0.00276157,0.00889732,0.887962,0.00908487,0.00314446,0.459816
1437205165,0.000253222,-0.0034382,0.00418785,0.887963,0.00908951,0.00313123,0.459815
1437209125,0.00161688,-0.00524236,-0.000567035,0.887963,0.00908441,0.00312141,0.459814
1437213159,0.00123954,-0.00155032,0.00573318,0.887964,0.00908152,0.00311454,0.459814
1437216119,0.00444634,0.00233576,0.00387769,0.887963,0.00908301,0.0031154,0.459814
1437220136,-0.00081927,-0.00348893,0.00336834,0.887962,0.00907695,0.00311714,0.459816
1437223177,0.00129311,-0.00191077,0.0030996,0.887962,0.0090793,0.00311356,0.459817
1437227126,-0.00405901,0.00327217,0.00760599,0.887962,0.00906495,0.00311162,0.459818
1437230115,0.00335272,-0.000691839,0.00574623,0.887962,0.00906362,0.00311057,0.459818
1437234092,-0.00127826,-0.00405718,0.00585872,0.887961,0.00905928,0.00310856,0.459819
1437237079,0.00426102,0.00323503,0.00382247,0.887962,0.00905977,0.0031093,0.459818
1437240114,-6.48387e-06,-0.00141797,0.000235013,0.887962,0.00905635,0.00310906,0.459817
1437244167,0.00344656,-5.21771e-05,0.00622487,0.887962,0.00905172,0.00311211,0.459817
1437248192,-0.00163419,0.00292604,0.00018634,0.887962,0.00904639,0.00311979,0.459818
1437251121,0.00894343,0.00384317,0.00561588,0.887962,0.00904847,0.00312232,0.459818
1437255251,-0.00583762,0.00496316,0.003078,0.887962,0.00903521,0.00312813,0.459817
1437256151,-0.00351121,-0.00353436,0.000695615,0.887962,0.00903318,0.00312575,0.459817
1437262171,-0.00203854,0.00196488,0.00505666,0.887964,0.00902799,0.00312668,0.459813
1437265104,0.00351475,-0.00210759,0.00622036,0.887964,0.00902416,0.00312451,0.459813
1437269035,-0.00314227,-0.00580794,0.00108557,0.887966,0.00902263,0.00312081,0.45981
1437272283,0.00564283,0.00092329,0.00383824,0.887966,0.00902406,0.00311337,0.45981
1437275153,-0.000299717,-0.00343756,0.000934398,0.887969,0.00902221,0.00311347,0.459805
1437278131,0.00569042,-0.000357229,0.00864555,0.887972,0.00902388,0.00311003,0.459799
1437282080,-0.00182858,0.00559023,-0.00180981,0.887974,0.00902117,0.0031158,0.459796
1437286187,0.00408465,-0.00335679,0.00645421,0.887974,0.00901346,0.00312148,0.459796
1437287272,0.00225166,-0.000429466,0.00474225,0.887975,0.00901334,0.00312115,0.459793
1437292067,-0.000272725,-0.000808395,0.00434471,0.887975,0.00900444,0.00312245,0.459793
1437296099,-0.00093524,0.00131496,0.00201385,0.887975,0.00900454,0.00312011,0.459793
1437300095,0.00400166,0.000555422,0.00924397,0.887976,0.00899888,0.00311699,0.459792
1437303136,-0.00208441,0.0025542,0.000595195,0.887977,0.00899244,0.00312206,0.45979
1437307034,0.00382035,-0.000670576,0.00435788,0.887979,0.00899451,0.00310589,0.459785
1437310109,-0.000995045,-0.00212521,0.0026563,0.887979,0.00899647,0.00310509,0.459785
1437313113,-0.000636027,-0.00195509,0.00505816,0.887981,0.00898827,0.00309941,0.459783
1437317221,0.00214603,0.00249421,0.00548061,0.88798,0.00898904,0.0030949,0.459783
1437321167,0.00140694,-0.00260856,0.00653724,0.88798,0.00898403,0.00309355,0.459783
1437324095,0.00283063,0.00177369,0.00211437,0.887981,0.00898272,0.00309078,0.459783
1437327129,-0.00212262,-0.00039771,-0.000981774,0.887981,0.00897638,0.00309234,0.459782
1437332119,-0.00446477,0.00126952,0.00259082,0.887982,0.00897381,0.00309063,0.45978
1437335156,0.00200612,-0.00578037,0.00411801,0.887982,0.00896865,0.003082,0.45978
1437339081,0.00195232,0.0024418,0.00590702,0.887983,0.00896956,0.00308394,0.459779
1437342077,0.00381733,0.00334254,0.00431589,0.887982,0.00896864,0.00308578,0.459781
1437346139,0.00025009,0.00451197,0.00360713,0.887982,0.00896278,0.00309124,0.459781
1437349089,-0.00166129,-0.00410926,0.000937002,0.88798,0.0089566,0.00308737,0.459785
1437352083,0.00396092,0.00257471,0.00348347,0.88798,0.00895491,0.00308924,0.459786
1437356288,-0.000610748,-0.00665422,0.00678486,0.88798,0.00895359,0.00307436,0.459786
1437360194,0.001787,0.0054757,-0.0002928,0.887979,0.00895124,0.00307695,0.459786
1437363128,-0.00116414,0.00505407,0.00735606,0.887979,0.0089405,0.0030816,0.459787
1437366100,0.00429887,-0.000113871,0.00194956,0.887979,0.00893978,0.00308327,0.459787
1437369175,-0.0025686,-0.001381,0.00597586,0.887979,0.0089365,0.0030796,0.459787
1437371165,-0.000791068,0.00204523,0.00238757,0.887979,0.00893189,0.00307901,0.459787
1437380075,0.00376534,-0.00107796,0.00497731,0.88798,0.00892333,0.00308567,0.459785
1437384079,-0.00117354,-0.00186292,0.00887509,0.887981,0.00891466,0.00307463,0.459784
1437388048,0.00158289,-0.000545573,0.00148964,0.88798,0.00891583,0.00307304,0.459785
1437391153,0.000860932,0.00400969,0.0046739,0.88798,0.0089084,0.00307551,0.459785
1437392099,0.00615654,0.00103681,0.00439715,0.887979,0.00890955,0.00307686,0.459788
1437398057,-0.000804718,0.00352538,0.000869183,0.887979,0.00890968,0.00308072,0.459787
1437402171,0.00495703,0.00581504,0.0109869,0.887979,0.00890628,0.00308727,0.459787
1437405091,-0.0041865,0.001503,0.000118188,0.887979,0.00889908,0.00308841,0.459787
1437409163,0.00624197,0.00934776,0.00314738,0.88798,0.00889347,0.00309953,0.459787
1437412198,-0.0027403,0.000894946,0.00439592,0.88798,0.00888832,0.00310345,0.459786
1437415186,0.00483662,-0.00108693,0.00674473,0.88798,0.00888806,0.00310303,0.459786
1437419055,-0.00113093,0.00154886,0.00507262,0.88798,0.0088789,0.00310342,0.459786
1437423081,0.00362823,0.00106236,-7.209e-05,0.887979,0.00888387,0.00310138,0.459788
1437426104,-3.28757e-07,0.000529071,0.00554538,0.887979,0.00887628,0.00310296,0.459788
1437429160,0.00580787,-0.00275894,0.00484203,0.887977,0.00887963,0.00310008,0.459791
1437433146,-0.00131267,0.00157498,0.00462474,0.887977,0.00887201,0.00310419,0.459792
1437436097,0.00262072,0.000965073,-0.000951936,0.887977,0.00887066,0.0031037,0.459792
1437440040,-0.00188849,-0.00299768,0.0104539,0.887977,0.0088641,0.00310481,0.459792
1437444094,0.00266708,-0.00105529,0.00460192,0.887977,0.00886575,0.00309882,0.459792
1437447105,0.000184719,0.00692888,0.00353826,0.887976,0.00885924,0.00310482,0.459794
1437450068,0.00292798,-0.0013754,0.00543771,0.887976,0.00885722,0.00310595,0.459794
1437454111,0.00051861,0.00227503,0.00625938,0.887975,0.00885349,0.00310982,0.459796
1437458093,0.00445331,0.00364238,0.0103672,0.887976,0.00885269,0.00310543,0.459794
1437461134,-0.00236806,4.96766e-05,0.00392028,0.887976,0.00884749,0.0031084,0.459794
1437465101,0.00684196,0.00248306,0.0056466,0.887977,0.00884781,0.00310992,0.459793
1437468183,-0.000480128,0.000234624,0.00164653,0.887977,0.00884456,0.00311388,0.459793
1437471133,0.00513567,0.00198121,0.00709908,0.887977,0.00884408,0.00311241,0.459793
1437475208,-0.00339249,-0.0045552,0.00113984,0.887978,0.0088424,0.00310962,0.459791
1437479049,0.00645926,0.00139178,0.00806088,0.887979,0.00884147,0.00311052,0.459789
1437482060,-0.00364655,0.00234476,0.00382783,0.88798,0.0088389,0.00311228,0.459787
1437486085,0.00450036,-0.00259754,0.00433056,0.88798,0.00883059,0.00310957,0.459788
1437487273,0.00405607,-0.00456105,0.00459027,0.887981,0.00883231,0.00310744,0.459785
1437493029,0.00441689,0.00309772,-0.000295578,0.887981,0.00882475,0.00310448,0.459786
1437496119,-0.00169244,0.000213334,0.00332145,0.887981,0.00882136,0.00310503,0.459786
1437500111,0.00451098,0.000483147,0.00437891,0.887982,0.0088146,0.00310706,0.459783
1437501093,0.0025845,-0.00209737,0.00192091,0.887982,0.00881504,0.00310614,0.459783
1437507179,0.00838601,-0.00525978,0.00461976,0.887984,0.00880947,0.00310149,0.459779
1437510131,0.000885177,-0.000325687,0.00309569,0.887984,0.00881333,0.00310045,0.459779
1437513131,-0.0033194,0.0037141,0.00754105,0.887985,0.00880425,0.0030997,0.459778
1437517156,0.000344307,0.00959562,0.00241326,0.887985,0.00879584,0.00310886,0.459778
1437521100,0.00332745,-0.00410472,0.00093819,0.887985,0.00879275,0.00311338,0.459778
1437524292,0.00178425,0.00257346,0.00115745,0.887984,0.00878947,0.00311424,0.45978
1437528105,0.00295545,-0.00261368,0.00316845,0.887982,0.00878656,0.00311477,0.459785
1437531207,0.00142608,-0.000164528,0.00527049,0.887982,0.00878674,0.00311283,0.459785
1437535184,0.00507752,-0.00309977,0.00486045,0.887979,0.00878928,0.00311157,0.459789
1437538074,-0.000949761,0.00267455,0.00563961,0.887979,0.0087887,0.00311651,0.45979
1437541133,-0.000406171,-0.00143707,0.00869224,0.887979,0.00878,0.00310819,0.45979
1437545155,-0.000810841,0.00260928,0.00134438,0.887979,0.00878127,0.00310853,0.45979
1437548173,0.00651666,-0.00267475,0.0032713,0.887978,0.00878168,0.0031109,0.459791
1437552062,0.00229925,0.00364311,0.0034599,0.887978,0.00878004,0.0031081,0.459791
1437556129,0.00470347,-0.00307168,0.00405361,0.887978,0.00878294,0.00310443,0.459792
1437559132,-0.000928961,-0.000270905,0.00262973,0.887977,0.00878435,0.0031029,0.459793
1437562137,-0.000184519,0.00170297,0.000170946,0.887976,0.00877714,0.00310348,0.459796
1437566050,0.00243109,0.00228281,0.0062853,0.887976,0.00878076,0.00310356,0.459795
1437570142,0.000895594,0.00376269,0.00295627,0.887975,0.00877053,0.00310651,0.459798
1437573121,-0.000320774,0.00145428,-0.000860596,0.887975,0.00877015,0.00310804,0.459799
1437577149,0.00427649,-0.00418851,0.00906739,0.887975,0.00876452,0.00310084,0.459799
1437580217,0.000739345,0.00476457,0.00351259,0.887975,0.00876285,0.00310044,0.459799
1437584181,-0.00139986,-0.00605934,0.00623023,0.887976,0.00875582,0.00309647,0.459797
1437587025,0.000613281,0.00105881,0.00309653,0.887976,0.00875501,0.00309106,0.459797
1437589172,-0.00174277,0.000449366,0.00400254,0.887977,0.00875042,0.00309096,0.459794
1437594218,0.0061798,0.00227289,0.00162242,0.887976,0.00875183,0.00309482,0.459795
1437597163,-0.00256335,-0.00436795,0.000344085,0.887977,0.00874531,0.00309283,0.459794
1437601058,0.000448704,0.00468999,0.00211204,0.887977,0.00874539,0.00309031,0.459794
1437604139,0.00146492,0.00187084,0.00154592,0.887977,0.00873842,0.00309457,0.459795
1437608043,0.00147928,-0.001727,0.00324675,0.887976,0.00873739,0.00309434,0.459796
1437612103,0.00026673,-0.000882611,0.00560516,0.887976,0.00872659,0.00310087,0.459796
1437615220,0.00483827,-0.00243531,0.00498553,0.887977,0.00873043,0.00309722,0.459795
1437618098,0.000239305,-0.00490752,0.00428221,0.887978,0.00873118,0.00309006,0.459793
1437622241,0.00161333,-0.00114119,0.000104657,0.887977,0.00872745,0.00308937,0.459795
1437626157,0.00328491,0.00496963,0.00406341,0.887977,0.00871815,0.00309771,0.459794
1437629160,0.0011538,-0.00202083,0.00206899,0.887975,0.00871956,0.0030974,0.459798
1437633074,-0.0031609,0.00381736,0.00520398,0.887976,0.00870842,0.00309897,0.459798
1437636126,0.00672472,-0.00439986,0.00173938,0.887976,0.00871086,0.00310218,0.459798
1437640190,-0.00388354,-0.000423503,0.00601094,0.887978,0.00870183,0.00309562,0.459794
1437643050,0.0021769,-0.0025763,0.00182985,0.887978,0.00870062,0.00308937,0.459792
1437647099,-0.00151064,0.00170357,0.0081589,0.887979,0.00869375,0.00308638,0.459792
1437650227,0.00524284,0.00379618,-0.000868719,0.887978,0.00869301,0.00309055,0.459793
1437654159,-0.00188271,0.0083182,0.00253026,0.887978,0.0086845,0.00310169,0.459794
1437657194,0.00836687,-0.00474456,0.00561057,0.887978,0.00868981,0.0031011,0.459794
1437660076,-0.00321876,0.000983234,0.000761197,0.887979,0.00868637,0.00309936,0.459793
1437664092,0.00833855,-0.00383383,0.00504657,0.887979,0.00868761,0.00309764,0.459791
1437668079,-0.00497861,0.00571003,0.000648542,0.887979,0.0086797,0.00309999,0.459792
1437669185,-0.00121558,-0.00102798,0.00219681,0.887979,0.00867773,0.0030987,0.459792
1437678072,0.00371588,-0.000357698,0.00464697,0.887976,0.00867401,0.00309845,0.459798
1437687091,0.00125357,0.00236711,0.00477199,0.887975,0.00867,0.00309993,0.4598
1437691164,-0.000596943,-0.00112216,0.00523637,0.887976,0.00865861,0.00310198,0.459798
1437696190,0.00123071,0.00184566,0.00670482,0.887974,0.00865578,0.00310124,0.459801
1437699083,0.00204121,0.00141843,0.0057884,0.887975,0.00865323,0.00310377,0.459799
1437703116,9.77637e-05,-0.00196228,0.00365753,0.887975,0.00865312,0.0031038,0.4598
1437706095,0.0065192,-0.00139234,0.00330347,0.887975,0.00865243,0.00310413,0.4598
1437710128,-0.00384554,0.000689958,0.00297491,0.887974,0.0086521,0.00310196,0.459803
1437713137,0.00395814,-0.00450144,0.00241145,0.887974,0.00865061,0.00309532,0.459802
1437717029,0.00126784,-0.00422832,0.00784576,0.887974,0.0086507,0.00309778,0.459802
1437720102,0.00148986,-0.00153312,0.00208494,0.887976,0.00864925,0.00308834,0.459797
1437724069,-0.00137289,-0.00141932,0.00509557,0.887979,0.00864433,0.00308857,0.459793
1437727167,0.00384233,0.000583106,0.00682467,0.887979,0.00864351,0.00308796,0.459792
1437731157,5.7674e-05,-0.00119027,-0.0010562,0.887979,0.00864006,0.00309204,0.459792
1437734098,0.000432665,0.00471206,0.00434723,0.887978,0.00863348,0.00309154,0.459794
1437738101,-0.00343267,-0.0025166,0.00391159,0.887979,0.00862841,0.00309436,0.459792
1437741089,0.00288188,-0.00785187,0.00761125,0.887979,0.00862919,0.00308211,0.459792
1437744122,-0.00197468,0.00270157,0.00384356,0.887979,0.00862652,0.00308249,0.459793
1437748006,-7.05607e-05,0.00100018,0.00738568,0.887978,0.00862159,0.00307968,0.459794
1437752068,0.000863231,0.00776323,0.00400257,0.887978,0.00861694,0.00308396,0.459794
1437755045,0.00143187,0.000760724,0.00316557,0.88798,0.00861004,0.00308803,0.459792
1437759184,-0.00264069,0.00173977,0.00176256,0.88798,0.00860786,0.0030876,0.459791
1437762181,0.00215919,-0.00225748,0.00252144,0.88798,0.00860441,0.00308414,0.459791
1437766138,-0.00177197,0.00484965,0.00405399,0.887979,0.00860316,0.0030812,0.459794
1437769137,0.00229837,-0.00142654,0.000480364,0.887977,0.00859919,0.00308169,0.459797
1437773175,0.00145772,0.00427679,0.00498912,0.887975,0.00859269,0.00308862,0.4598
1437776139,-0.000946336,-0.00219926,0.0069235,0.887976,0.0085884,0.00308719,0.4598
1437780109,0.00158548,0.00292928,-0.000357515,0.887975,0.00858813,0.00308699,0.459801
1437782049,-0.000925364,0.000385786,0.00468909,0.887975,0.00858332,0.00308762,0.459801
1437787015,0.00182632,0.00482701,-0.00177574,0.887975,0.00857994,0.00309185,0.459801
1437790088,-0.00301016,0.00188691,0.00531735,0.887976,0.00857197,0.00309217,0.459799
1437793181,0.00237813,0.00206644,0.00510202,0.887976,0.00857175,0.00309078,0.4598
1437796103,-0.00271477,-0.00287617,0.00741341,0.887976,0.00856586,0.00308802,0.4598
1437801189,0.0034104,0.00188576,0.00661705,0.887972,0.00856434,0.00308795,0.459807
1437804164,-0.00222046,-0.00062679,0.00456,0.887972,0.00855779,0.00308592,0.459808
1437807215,0.00129829,0.00669649,0.0091389,0.887972,0.00855275,0.00308921,0.459808
1437811163,-0.000597342,0.00270118,0.00385466,0.887972,0.00854615,0.00309851,0.459809
1437815091,0.00126007,0.000997524,0.0049051,0.887971,0.00854165,0.00309514,0.45981
1437818109,-0.000635351,-0.00235693,-0.00280413,0.887971,0.00853796,0.00309119,0.459809
1437821297,0.00495524,0.00380452,0.00354031,0.887971,0.00853803,0.00309724,0.459809
1437825138,-0.00115437,-0.00183319,0.00175388,0.887972,0.00853546,0.00309548,0.459808
1437828173,0.00321591,0.0045724,0.00597672,0.887973,0.00853213,0.0030992,0.459807
1437832340,-0.000432376,-0.000279311,0.00220915,0.887973,0.00852595,0.00310082,0.459807
1437836130,0.00137904,-0.000325328,0.00477701,0.887973,0.00852265,0.0031029,0.459805
1437839167,-0.000844101,-0.00095438,0.00546679,0.887974,0.00851824,0.00309959,0.459805
1437842097,0.000339074,-0.00220195,0.000732082,0.887974,0.00851475,0.00309667,0.459805
1437844219,0.00425041,-0.000856147,0.000330559,0.887973,0.00851527,0.00309587,0.459807
1437850157,0.00444851,0.00473773,0.00799386,0.887973,0.00851364,0.00309806,0.459807
1437853133,-0.00195428,-0.00930012,0.0035483,0.887973,0.00851162,0.00309458,0.459807
1437856201,0.00580556,-0.00233346,0.00897734,0.887973,0.00851491,0.00308269,0.459807
1437860127,-0.00411163,-0.00267533,0.00483193,0.887972,0.00850985,0.003083,0.459809
1437864134,0.00208643,0.00493447,0.00468689,0.887971,0.008506,0.00308132,0.45981
1437867147,-0.00105596,0.00224044,0.00309041,0.887971,0.00849914,0.00308327,0.45981
1437871133,0.00228999,0.00345412,0.00166288,0.887972,0.00849436,0.00309281,0.45981
1437874153,-0.00175669,0.00264525,0.00340308,0.887972,0.00848725,0.00309578,0.459809
1437877156,0.00522077,0.00648195,0.0050019,0.887972,0.00848478,0.00310033,0.459809
1437881153,-0.000745873,-0.000262656,0.00540593,0.887972,0.00847591,0.00310494,0.459809
1437885097,0.00262091,0.00146596,0.00273969,0.887972,0.00847315,0.00309943,0.459808
1437888093,0.00026921,-0.000834342,0.00212244,0.887972,0.00847057,0.00310083,0.459808
1437892077,0.00168386,0.00310773,0.00369707,0.887972,0.00847152,0.00309265,0.459808
1437895135,-0.00230965,-0.00239279,-0.000255374,0.887972,0.00846417,0.00309709,0.459809
1437899146,0.00619866,-0.00412114,0.00464924,0.887975,0.0084693,0.00308732,0.459803
1437902291,-0.00218971,9.40305e-05,0.00701023,0.887975,0.00846486,0.00308619,0.459803
1437906099,0.0035646,-0.00151816,0.000874762,0.887974,0.00846074,0.00307956,0.459806
1437909210,-0.0040733,0.00194326,0.00372456,0.887974,0.00845346,0.00307894,0.459806
1437913166,0.00452471,-0.00222688,0.00678927,0.887973,0.0084496,0.00307745,0.459807
1437916142,-0.00268818,0.00290932,0.0028075,0.887973,0.00844464,0.00308174,0.459807
1437920134,0.00329689,-0.00332057,0.00354171,0.887973,0.00844625,0.00307041,0.459808
1437923152,-0.00365193,0.00520976,7.31153e-05,0.887972,0.0084373,0.00307511,0.45981
1437926094,0.00155972,-0.00704641,0.00625458,0.887972,0.00843689,0.00306714,0.45981
1437930115,0.0024371,0.00382719,-0.000625403,0.887971,0.00843609,0.00307072,0.459812
1437934233,0.00425233,0.00546706,0.00416832,0.887972,0.00843303,0.00307274,0.459811
1437937177,0.00334395,0.00169766,0.00216673,0.887971,0.00843442,0.00307614,0.459811
1437941126,0.00197259,-0.00180502,0.00934394,0.887973,0.00843263,0.00307294,0.459809
1437944243,-0.00249366,0.00539056,0.00386055,0.887974,0.00842671,0.00307608,0.459807
1437947125,0.00187406,-0.00763635,0.00605728,0.887974,0.00842362,0.00307216,0.459807
1437951109,-0.000778973,0.00304789,0.00497358,0.887973,0.00842033,0.00307149,0.459808
1437955187,0.00445581,-0.00628135,0.000821847,0.887973,0.00842047,0.0030613,0.459809
1437958234,0.00559486,0.000496507,0.00891943,0.887973,0.00842815,0.00306004,0.459808
1437961142,0.000154375,-0.000362522,0.00205815,0.887973,0.00842388,0.0030597,0.459808
1437965047,-0.000732883,-0.00154017,0.00533411,0.887974,0.00842315,0.00305668,0.459806
1437968182,0.00181098,0.00162755,0.00244194,0.887974,0.00841802,0.00305815,0.459806
1437972107,-0.00369404,0.000422606,0.00470992,0.887974,0.00841374,0.00305339,0.459806
1437975177,0.00128609,-0.000510623,0.00595711,0.887975,0.00840709,0.00305206,0.459804
1437978137,0.00264605,-0.00253002,0.00321695,0.887976,0.00840953,0.0030495,0.459803
1437983099,0.00191032,-0.00447161,0.00613249,0.887977,0.00840456,0.00304836,0.459801
1437986093,-0.00198166,0.00332146,0.00502163,0.887977,0.00840238,0.00304424,0.459801
1437990058,0.00560674,-0.00802755,0.00181616,0.88798,0.00839309,0.0030435,0.459796
1437993159,0.00402983,0.00292881,0.00820274,0.887979,0.00840102,0.00304114,0.459798
1437996140,-0.000618373,0.00168971,0.003651,0.887979,0.00839597,0.00304294,0.459798
1438000254,0.00113814,-0.00260259,0.00522675,0.887979,0.00839341,0.00304288,0.459798
1438003235,0.00457583,0.00167322,0.00243792,0.887979,0.00839114,0.00304535,0.459797
1438007125,0.00166043,0.00150961,0.00626744,0.887979,0.00839064,0.00304655,0.459797
1438011137,-0.00173606,-0.000376038,0.00172049,0.887981,0.00838136,0.00304688,0.459794
1438014159,-0.000591182,0.000187925,0.0040028,0.887981,0.00837863,0.00304652,0.459794
1438018231,0.0015033,-0.000259794,0.00447578,0.88798,0.00837174,0.00304181,0.459795
1438021138,-0.000467283,0.0027412,0.000128599,0.887981,0.00836795,0.00304022,0.459795
1438024166,0.00121801,-0.00191624,0.00114987,0.88798,0.00836316,0.00304207,0.459796
1438028116,0.00329551,0.00846809,0.00177386,0.88798,0.00835907,0.00304759,0.459797
1438031097,0.00196686,-0.00568362,0.00402,0.88798,0.00835909,0.00304733,0.459797
1438035170,0.00300957,0.000305841,0.00465143,0.887979,0.00836063,0.00304358,0.459798
1438038272,-0.00157611,0.000496369,0.00584345,0.887979,0.0083534,0.00304087,0.459799
1438042107,0.00264007,0.00230578,0.00476999,0.887979,0.00835113,0.00304286,0.459799
1438045173,-0.00107968,0.00337582,0.00426406,0.88798,0.00834337,0.00304628,0.459797
1438049156,0.00343352,0.00490904,0.00687002,0.887981,0.00834618,0.00305221,0.459795
1438052287,-0.00226526,-0.00108822,0.00085701,0.887981,0.00833726,0.00305212,0.459795
1438056112,0.00441375,0.0042921,0.00295135,0.887981,0.00833698,0.00305139,0.459794
1438059100,-0.00286318,0.00830247,0.00600701,0.887981,0.00832659,0.00306218,0.459794
1438063063,0.00314765,-0.00113009,0.0015874,0.88798,0.00832992,0.00306306,0.459797
1438067129,-0.00365219,0.00162204,0.00311209,0.88798,0.00831831,0.00305951,0.459797
1438070113,0.00409669,-0.000393356,0.00676401,0.887979,0.00831878,0.00306056,0.459799
1438074062,0.000603166,0.00436326,-0.000314121,0.887979,0.00831416,0.00306679,0.459799
1438077163,0.00301525,0.00200574,0.00496208,0.887978,0.00831375,0.00306989,0.459801
1438081145,0.000548065,-0.00117532,0.00134779,0.887976,0.00830532,0.00307243,0.459804
1438084123,0.00540364,0.00628539,0.00558404,0.887975,0.00830695,0.00307631,0.459806
1438087143,-0.00312049,-0.00160989,0.00740055,0.887975,0.00830102,0.0030766,0.459806
1438091158,0.00477586,-0.006123,0.00470835,0.887977,0.00830444,0.00306919,0.459804
1438095150,-0.00171986,-0.00153254,0.0104815,0.887976,0.00829804,0.00306795,0.459805
1438098211,0.0045421,0.00184246,0.00503524,0.887975,0.00829872,0.00306767,0.459807
1438101180,-0.00316857,-0.00400955,9.95388e-05,0.887975,0.00829252,0.00306248,0.459807
1438104043,0.0060913,-2.26072e-05,0.00628881,0.887975,0.00829518,0.00306192,0.459807
1438107114,-0.000566044,0.00352299,0.00241607,0.887975,0.00829444,0.00306464,0.459807
1438111085,0.00175386,-0.00109003,0.000525849,0.887976,0.0082838,0.0030594,0.459805
1438114157,0.00117272,0.00129976,0.00402594,0.887976,0.00828404,0.0030592,0.459805
1438117203,0.000690163,0.000493618,0.0064425,0.887976,0.00827592,0.00306096,0.459805
1438121084,-0.000380564,0.00119035,0.00131568,0.887976,0.00827576,0.00306188,0.459806
1438129143,-0.00127543,0.0038601,-0.00162682,0.887975,0.00825923,0.00306267,0.459808
1438132062,-0.00280134,0.00054119,0.00568503,0.887975,0.00825042,0.00305994,0.459808
1438137188,-0.00185985,0.00167612,0.00468331,0.887974,0.0082437,0.0030615,0.459809
1438140097,0.00592361,-0.00123403,-0.00263964,0.887975,0.00824507,0.00306175,0.459808
1438144092,-0.000582578,1.75401e-05,0.000972129,0.887974,0.00824638,0.00306212,0.459809
1438147062,0.00549105,0.000993752,0.00154958,0.887974,0.00824426,0.00306279,0.459809
1438151031,0.00302413,-0.00131145,0.00132201,0.887974,0.00824563,0.00306382,0.45981
1438154278,0.00198743,0.000760953,0.00634735,0.887973,0.00824296,0.00306247,0.459811
1438157129,0.00214302,0.00168165,0.00491971,0.887973,0.00824281,0.00306512,0.459811
1438161213,0.00627979,-0.00103234,0.00382972,0.887973,0.00824066,0.00306273,0.459812
1438164188,0.000260402,0.000363051,0.00122381,0.887973,0.00824283,0.003063,0.459812
1438168122,0.00145358,-0.0010281,0.00233992,0.887974,0.00823173,0.00306397,0.45981
1438171122,-0.0026939,0.00594629,-0.0029406,0.887974,0.00822433,0.00306624,0.45981
1438175257,0.0051909,0.000402804,0.00421523,0.887975,0.00822333,0.00306545,0.459808
1438177032,0.00524563,-0.000616264,0.00988037,0.887975,0.0082252,0.00306688,0.459808
1438182089,0.00538792,0.00103921,0.00496034,0.887977,0.00822087,0.00307227,0.459804
1438186090,0.000995293,0.00333117,0.00322649,0.887979,0.0082216,0.0030743,0.4598
1438189033,0.000811616,-0.00242016,0.00414585,0.887978,0.00822004,0.00306869,0.459803
1438193078,0.000212431,0.00165672,0.00441656,0.887978,0.00822128,0.00307013,0.459801
1438195139,0.00185551,-0.003634,0.00454269,0.887978,0.00821982,0.00306737,0.459801
1438200128,-0.00141833,-0.00293284,0.00544233,0.887977,0.00821856,0.00306421,0.459803
1438203170,-0.000197405,0.00243142,0.0069748,0.887975,0.00821308,0.00306242,0.459808
1438207120,0.0013797,-0.00206982,0.00169799,0.887975,0.00821575,0.00306296,0.459808
1438210121,-0.00290843,0.00222936,0.00157358,0.887974,0.00820944,0.0030605,0.45981
1438214062,0.00272118,-0.00113012,0.0025933,0.887975,0.00821239,0.00306351,0.459808
1438217128,-0.00226263,0.00173211,0.00266083,0.887975,0.00820479,0.00306292,0.459808
1438221106,-8.77874e-05,-0.00346489,-0.00106965,0.887975,0.0082033,0.00305238,0.459808
1438224241,-0.00146954,-0.00222961,0.00236684,0.887973,0.00819536,0.00305024,0.459812
1438228110,0.000147433,0.00581947,0.00203739,0.887973,0.00819338,0.00305056,0.459813
1438231174,-0.00329933,-0.000383349,0.0021685,0.887973,0.00818481,0.00304952,0.459813
1438234166,0.00274677,0.00170664,0.00362453,0.887975,0.0081838,0.00304988,0.459808
1438238125,-0.000350309,-0.00508381,0.0049537,0.887975,0.00818078,0.00304187,0.459808
1438242142,0.000474565,4.0954e-05,0.0057908,0.887979,0.00818092,0.00304653,0.459802
1438245243,-0.00318398,0.00202664,0.00111865,0.887979,0.00817211,0.00304585,0.459801
1438249153,0.00218775,0.00366994,0.000182156,0.887979,0.00817451,0.00305014,0.459801
1438252140,0.00129611,-0.000188362,0.00163891,0.887979,0.00816943,0.00305115,0.459801
1438256105,0.00426694,0.00590064,0.00673519,0.88798,0.00817169,0.00305578,0.459799
1438259100,-0.00179454,-0.00305086,0.0032998,0.88798,0.0081687,0.00305546,0.4598
1438263182,0.00153274,0.00112314,0.00155339,0.88798,0.0081701,0.00305169,0.4598
1438266046,-0.00161414,0.000558173,0.00488293,0.88798,0.00816229,0.0030505,0.4598
1438270084,0.00620235,0.00158499,0.00504762,0.887981,0.00816263,0.00305671,0.459798
1438273109,-0.0027318,-0.0024589,0.00366443,0.887981,0.00816001,0.00305454,0.459798
1438277122,0.00333501,0.00634807,0.00273993,0.88798,0.00815585,0.00305531,0.459799
1438280193,-0.00476086,-0.00110746,-0.000478807,0.887979,0.00814542,0.00305786,0.459801
1438284192,0.00376125,-0.00113018,0.00379181,0.887978,0.00814571,0.00305829,0.459804
1438287300,-0.00141264,0.00174074,0.00821895,0.887978,0.00814064,0.00305654,0.459804
1438290228,0.00346182,-0.0019629,0.00173052,0.887978,0.00814127,0.0030556,0.459805
1438294206,0.00175127,0.000766481,0.00610182,0.887977,0.00813848,0.00305479,0.459806
1438297084,0.00523043,-0.00296553,0.00827155,0.887977,0.00814129,0.0030488,0.459806
1438301138,0.000806389,0.00235234,0.00156854,0.887977,0.00813448,0.0030559,0.459805
1438305046,0.00282332,0.00266816,0.00118088,0.887979,0.00813528,0.00305676,0.459801
1438308085,-0.00027144,-0.000595136,0.00355469,0.887979,0.00813274,0.00305571,0.459801
1438312055,0.00257891,0.00159469,0.00326163,0.887981,0.00812549,0.00305405,0.459799
1438315145,0.0020267,-0.00188333,0.00545734,0.887982,0.00812556,0.00305256,0.459796
1438318094,0.0035353,-0.0015359,0.00796686,0.887982,0.00812635,0.00304975,0.459796
1438322121,-0.00483093,0.00538214,0.00544172,0.887981,0.0081237,0.00305206,0.459798
1438326193,0.00372516,0.00128839,-0.00175158,0.887979,0.00811417,0.00305245,0.459802
1438329110,-0.00182779,-0.00323582,0.00483139,0.887977,0.00811247,0.00304933,0.459806
1438333102,0.00526155,-0.0022895,-0.000669372,0.887977,0.00811502,0.0030457,0.459806
1438336147,-0.0070703,0.00368086,-0.00234707,0.887977,0.00810732,0.00304261,0.459806
1438340185,0.0075618,-0.00246861,0.00407111,0.887978,0.00810776,0.00303777,0.459804
1438343086,-0.00200031,0.0017217,0.00200871,0.887978,0.00810282,0.00303754,0.459804
1438347048,6.55651e-05,-0.00327165,0.00830195,0.887979,0.00810146,0.00303014,0.459803
1438350149,-0.00108778,0.00401929,0.00222208,0.887979,0.0080958,0.00303331,0.459802
1438354144,0.00507116,0.00193877,0.00214891,0.887978,0.00809491,0.00302593,0.459805
1438357151,-0.000587972,-0.00205608,0.000105765,0.887978,0.0080916,0.00302885,0.459804
1438360155,0.00254206,0.00765146,0.00445932,0.887979,0.00808865,0.00303011,0.459803
1438364207,-0.00319362,-0.0011823,0.00118559,0.88798,0.0080847,0.00303414,0.4598
1438367091,0.00319077,0.00307401,0.0058468,0.88798,0.00808128,0.00303368,0.459801
1438371141,0.000494401,-0.00511115,0.00484199,0.88798,0.00807941,0.00303357,0.459802
1438375127,0.00235177,0.00315585,-0.000248117,0.88798,0.00807645,0.00303239,0.459802
1438378121,-0.000530694,-3.91482e-05,0.00509701,0.887979,0.00807392,0.0030335,0.459803
1438382067,0.00268722,0.000411474,0.00421073,0.887981,0.00807211,0.00302764,0.4598
1438385077,-0.000180916,0.00212894,-0.00231082,0.887982,0.00806914,0.00302837,0.459798
1438389152,0.000677369,-0.00365437,0.00615301,0.887982,0.00806179,0.00302749,0.459799
1438392280,-0.000368929,8.28773e-05,-0.000223366,0.887982,0.00805881,0.00302351,0.459798
1438395108,-0.00140749,0.00265573,0.00480983,0.887996,0.00805426,0.00302357,0.459772
1438399145,0.00569838,0.000280536,0.00273773,0.887996,0.00805571,0.00302477,0.459771
1438403128,-0.00300989,-0.00134784,0.00283414,0.887996,0.00804566,0.00302507,0.459771
1438406147,0.00321584,0.0033848,0.00354873,0.887998,0.00804612,0.00302914,0.459767
1438409136,-0.000298576,0.000370015,0.00941917,0.888,0.00803971,0.00302974,0.459764
1438413118,-0.000148749,-0.000205973,0.00279968,0.888,0.00803893,0.00302795,0.459764
1438417121,0.00261741,-0.00585018,0.00548434,0.888001,0.0080376,0.00301732,0.459761
1438420115,0.00437348,0.00446642,0.00427415,0.888002,0.00803867,0.00302319,0.459759
1438424145,0.00152024,-0.00430154,0.00289034,0.888002,0.00803495,0.00301808,0.459759
1438427168,0.00243972,0.00105358,0.00164628,0.888002,0.00803685,0.003019,0.459759
1438430123,-0.00232868,-0.00406921,0.00162022,0.888002,0.00803361,0.00301155,0.45976
1438434107,-0.000899995,0.00522299,-0.00123761,0.888001,0.00802895,0.00300996,0.459761
1438438121,-0.00191409,0.00269119,0.00877073,0.888001,0.00801245,0.0030104,0.459761
1438441061,0.00354379,-0.00425084,0.00112136,0.888002,0.00801653,0.00300735,0.45976
1438444118,-0.00326592,-0.00235879,0.00294144,0.888004,0.00801012,0.00300212,0.459757
1438448100,0.00287668,0.00542028,0.00259833,0.888004,0.00800904,0.00299454,0.459757
1438452222,0.00135372,-0.00185656,0.00408588,0.888004,0.00800065,0.00299638,0.459756
1438455159,0.00393267,0.00606918,0.00663518,0.888003,0.00800173,0.00299904,0.459758
1438459182,0.00120229,-0.00327381,0.00541828,0.888002,0.0079967,0.00300241,0.45976
1438462151,0.00284423,6.78554e-05,0.00168182,0.888002,0.00799877,0.00300298,0.45976
1438466089,-0.0016644,0.000903493,0.00583955,0.888003,0.00798835,0.00299788,0.459758
1438469058,0.003254,-0.00204382,0.00407238,0.888004,0.00798902,0.00299481,0.459756
1438473104,-0.00182509,-0.0025617,0.00439479,0.888004,0.00798086,0.00299635,0.459756
1438476242,0.00349804,0.00140091,0.000615529,0.888005,0.00798239,0.00299474,0.459755
1438480154,0.00162155,0.0021125,0.00434756,0.888005,0.00797844,0.00299631,0.459756
1438483077,0.00498123,0.000291776,0.00231171,0.888005,0.00798245,0.00299765,0.459756
1438487047,-0.00135281,-0.00146615,0.00136796,0.888004,0.00797203,0.00299343,0.459757
1438490180,0.00230469,0.00507032,0.00479217,0.888,0.00797148,0.00299613,0.459764
1438494043,-0.00227484,-0.0105421,0.0176896,0.887999,0.00795182,0.00299071,0.459768
1438497101,0.0335926,0.0234436,0.0115891,0.887998,0.00797637,0.00298806,0.459768
1438500111,-0.0148345,-0.0146434,-0.0107554,0.887991,0.00797682,0.00303636,0.459782
1438504155,-0.0513802,0.0241489,-0.0363021,0.88799,0.00792218,0.00301044,0.459785
1438507140,0.0354449,0.0196,-0.00523239,0.88799,0.00793544,0.00299885,0.459786
1438511044,0.0127155,-0.0362541,0.0468026,0.888012,0.00793299,0.00299619,0.459742
1438514056,0.0191165,-0.023557,0.0160317,0.888015,0.00794449,0.00305377,0.459735
1438518264,-0.0687487,0.0541391,-0.0147091,0.888015,0.00793003,0.00303944,0.459736
1438522078,0.0483714,0.0809403,-0.000546896,0.887991,0.00794483,0.00302935,0.459783
1438525091,0.019869,-0.0453066,0.00900831,0.887986,0.00792373,0.00301336,0.459792
1438529066,-0.11002,-0.0711301,-0.00925757,0.88799,0.00789697,0.00305697,0.459785
1438532387,0.0601065,0.053065,-0.0154978,0.88799,0.00786449,0.00313072,0.459785
1438535256,-0.0332323,0.0134694,-0.00105602,0.887996,0.00782739,0.00306203,0.459775
1438539166,0.0220709,-0.0564576,0.0133584,0.888007,0.00791008,0.00306244,0.459751
1438542089,-0.0789147,-0.0389633,0.0140318,0.888008,0.00781962,0.00305288,0.459751
1438546092,-0.0607698,0.0121478,0.0171367,0.888006,0.00786371,0.00309333,0.459754
1438549167,0.122746,0.110758,-0.0441523,0.887989,0.00788383,0.00311813,0.459786
1438553114,-0.0820237,0.0218063,-0.0216971,0.88799,0.0077499,0.00302152,0.459787
1438556070,0.0297928,-0.0535705,0.0447134,0.888002,0.00780691,0.00311545,0.459762
1438560083,0.0434978,-0.0416183,0.0372021,0.888026,0.00781312,0.0031908,0.459716
1438564102,-0.0922291,-0.06838,-0.0376351,0.888008,0.0077393,0.00314473,0.459753
1438567277,0.0692123,0.136372,0.000935802,0.888008,0.00773457,0.00316346,0.459753
1438570415,0.00627609,-0.111563,0.0460577,0.888006,0.00782122,0.00307876,0.459754
1438574246,0.0567781,-0.157944,0.0142923,0.888006,0.00781675,0.00308856,0.459754
1438577111,-0.0951934,0.111074,0.014465,0.888014,0.00774472,0.00314351,0.459741
1438581102,-0.0264474,0.137544,0.000188799,0.887994,0.00775838,0.00314469,0.45978
1438584104,0.0579298,-0.0598891,-0.0683092,0.88798,0.00782511,0.00310547,0.459805
1438588184,0.0449275,-0.18446,-0.0293512,0.88798,0.00779711,0.00312748,0.459805
1438591071,-0.0436399,0.0518626,0.0692076,0.888015,0.00766461,0.00313943,0.459741
1438595062,-0.049445,0.175811,0.0342877,0.888053,0.00778739,0.00321559,0.459665
1438599069,-0.23566,0.0281976,-0.000807346,0.888052,0.0078309,0.00314496,0.459665
1438602114,0.178429,-0.0890555,-0.0197304,0.888007,0.00785281,0.00308238,0.459753
1438605190,-0.074316,0.0586284,-0.0384179,0.887966,0.00770593,0.00317113,0.459834
1438609172,-0.0206834,0.0663557,0.000464284,0.887988,0.00768217,0.00317194,0.459792
1438613128,-0.16892,0.0146825,-0.00199979,0.887988,0.00758635,0.00310572,0.459793
1438616018,0.0736488,0.0171071,0.0370611,0.88801,0.00770186,0.00319756,0.459748
1438619066,0.204732,-0.0448521,0.0528902,0.88801,0.0077004,0.00324746,0.459748
1438623064,0.0111522,0.100952,0.00392314,0.887998,0.00762458,0.00320214,0.459774
1438626009,-0.156333,-0.082395,-0.0234199,0.887971,0.00767606,0.00324859,0.459824
1438630106,0.0309257,-0.0595956,-0.0191333,0.887964,0.00767855,0.00331591,0.459837
1438633011,0.00404346,0.0862493,0.012253,0.887966,0.0074457,0.00318615,0.459838
1438637099,-0.0132373,0.160011,0.0513122,0.887986,0.00752943,0.00321073,0.459797
1438641119,0.0299653,0.00493738,0.00732111,0.887987,0.00770708,0.0032495,0.459793
1438644105,-0.152958,-0.206359,-0.0494932,0.887987,0.0076177,0.0032314,0.459793
1438647218,0.0985522,0.191729,-0.0562598,0.887954,0.00747027,0.00335091,0.45986
1438648087,0.122491,-0.0164268,-0.0276629,0.887953,0.00750929,0.00337019,0.45986
1438654099,0.0956956,-0.126142,0.0584083,0.887962,0.00757945,0.00330788,0.459842
1438658096,0.0039762,-0.165975,0.0250367,0.887996,0.00757317,0.00324853,0.459778
1438662176,-0.0537417,-0.179185,-0.0500671,0.887967,0.00758954,0.00330054,0.459834
1438665136,0.0596929,0.0894671,-0.133239,0.887941,0.00758963,0.00327005,0.459884
1438667172,-0.0590492,-0.10025,-0.132301,0.887941,0.00759862,0.00320168,0.459884
1438675128,0.320427,-0.181905,0.154371,0.888015,0.00787729,0.00328002,0.459736
1438679189,-0.0446369,-0.194444,0.00342391,0.888072,0.0080575,0.00309663,0.459623
1438683112,0.0259305,0.0398785,-0.102905,0.888071,0.0081423,0.00300753,0.459624
1438684019,0.0200018,-0.189089,-0.0373874,0.888071,0.00816865,0.00296559,0.459625
1438686119,0.0563687,-0.00735455,0.0848054,0.888016,0.00823557,0.00289899,0.459731
1438689106,0.184237,-0.199008,0.13272,0.888013,0.00855378,0.00289766,0.459731
1438696077,-0.129104,0.225516,-0.06441,0.888008,0.00858191,0.00287332,0.459738
1438699999,0.0110122,-0.0314737,0.11276,0.888006,0.00872184,0.00275605,0.459742
1438704102,-0.158292,0.165413,-0.0991802,0.888006,0.00867388,0.00262913,0.459743
1438707073,0.0544099,0.0497433,0.00240328,0.888019,0.00864484,0.00279843,0.459717
1438710046,0.00786936,0.105294,0.099154,0.88801,0.00842391,0.0030595,0.459737
1438714301,-0.154472,0.0130725,-0.0817887,0.88801,0.00822134,0.00284881,0.459743
1438717128,0.0155181,0.225679,-0.0502973,0.88801,0.00821162,0.00303499,0.459741
1438721101,-0.086755,-0.0835666,0.0941301,0.888016,0.00797842,0.00313855,0.459732
1438725109,-0.040979,-0.16014,-0.0736028,0.888021,0.00793654,0.00286569,0.459726
1438728192,0.152353,0.130021,-0.00262551,0.88802,0.00799106,0.00307875,0.459724
1438732088,-0.144111,0.0185266,0.171447,0.888016,0.00773033,0.00317801,0.459736
1438735008,0.0449622,-0.0275243,0.0519829,0.88799,0.00791907,0.00302036,0.459785
1438738098,0.0930206,-0.0738882,-0.00967054,0.887989,0.00798339,0.00299462,0.459786
1438742164,-0.180905,-0.0162414,0.0211834,0.887901,0.00787125,0.00318585,0.459957
1438746086,0.0363998,-0.114032,-0.106808,0.887855,0.00770888,0.00288098,0.46005
1438749163,0.155655,0.150505,-0.0655301,0.887897,0.00788145,0.00303201,0.459964
1438752033,0.0655211,0.0438352,0.0411054,0.887896,0.0080232,0.00326541,0.459963
1438756212,-0.265971,-0.127679,-0.0353233,0.887965,0.00754507,0.00295754,0.45984
1438759095,0.28277,-0.0407162,-0.00822835,0.887963,0.00775624,0.00297906,0.45984
1438763195,-0.0508778,0.0228636,0.141593,0.887988,0.00801404,0.00331738,0.459784
1438767044,-0.167722,-0.126741,-0.136076,0.887973,0.00766813,0.0030392,0.459821
1438768101,-0.0797308,-0.0932711,-0.156382,0.887973,0.00764842,0.00296467,0.459822
1438770057,0.24957,0.0749127,-0.0643841,0.887939,0.00777793,0.00307634,0.459884
1438773051,0.158299,0.10344,0.126577,0.887936,0.00815415,0.00340852,0.459882
1438777078,-0.318232,0.000404377,-0.0920409,0.88794,0.00776774,0.00325818,0.459883
1438780044,0.161047,-0.0435937,-0.086247,0.887961,0.00779685,0.00322268,0.459842
1438783086,0.206652,0.0631737,0.144599,0.887971,0.00804901,0.00350741,0.459815
1438786038,-0.139272,0.0518266,0.0762488,0.887976,0.00802937,0.00354359,0.459806
1438790149,-0.0463126,0.0669348,-0.184831,0.887963,0.0075741,0.00332791,0.45984
1438805097,0.297927,-0.118472,0.193131,0.887963,0.00819756,0.00364204,0.459828
1438808138,-0.256848,-0.116539,0.0555101,0.887963,0.00816026,0.0035873,0.459829
1438812131,0.0264827,0.0472658,-0.213064,0.887969,0.00783014,0.00337797,0.459825
1438816101,0.393875,-0.0257071,0.266817,0.887961,0.00826501,0.00368498,0.459829
1438819037,-0.194599,-0.0574439,0.061705,0.887969,0.00839959,0.00362623,0.459812
1438822222,-0.280462,-0.000957225,-0.275838,0.887974,0.00791172,0.00336374,0.459814
1438826129,0.135471,0.0025515,0.108047,0.88795,0.00815877,0.00372962,0.459854
1438829091,-0.0161505,-0.144257,0.234581,0.887985,0.00826544,0.00377012,0.459784
1438833167,-0.231891,0.098586,-0.252177,0.887988,0.00786192,0.0036243,0.459785
1438837133,0.314074,0.0104935,0.142435,0.887969,0.00801128,0.00402408,0.459815
1438840030,-0.133947,-0.0688086,0.182433,0.88797,0.00804598,0.00396934,0.459814
1438843089,-0.199618,0.0196708,-0.195061,0.887972,0.00779735,0.00368191,0.459816
1438847118,0.083468,0.112255,0.0292026,0.887969,0.00771091,0.00400812,0.459821
1438851089,-0.0934939,-0.210786,0.156859,0.887969,0.00806434,0.00398466,0.459816
1438854091,-0.227114,-0.00821301,-0.214215,0.887971,0.00783531,0.00377292,0.459817
1438857108,0.311268,0.120996,-0.0824433,0.887971,0.00788318,0.00405508,0.459814
1438861115,0.146636,-0.138851,0.253439,0.887976,0.00816073,0.00415331,0.459799
1438865101,-0.123239,0.012399,-0.196766,0.887982,0.0081193,0.003799,0.459791
1438867160,-0.0700713,0.0969985,-0.222727,0.887983,0.00799177,0.00383854,0.459791
1438872097,-0.0760305,-0.150545,0.212559,0.887959,0.00828465,0.00402609,0.45983
1438875130,-0.0988815,-0.143308,-0.0795772,0.887959,0.00829209,0.00375726,0.459832
1438879070,0.0249964,0.125077,-0.0781272,0.887978,0.00827876,0.00406597,0.459793
1438881991,0.0614741,-0.130274,0.202113,0.887963,0.00832125,0.004197,0.45982
1438885199,-0.149329,-0.0611485,-0.00386987,0.887977,0.0082178,0.00380519,0.4598
1438889030,0.205395,0.228967,-0.096442,0.887972,0.00821189,0.00394892,0.459807
1438892202,-0.123168,0.0785529,0.130751,0.887972,0.00818191,0.00426693,0.459804
1438896136,-0.181344,-0.121541,-0.0445609,0.887977,0.00810095,0.0039516,0.4598
1438900027,0.0331439,0.138942,-0.0788056,0.887972,0.00806788,0.00411829,0.459809
1438903174,-0.0770462,-0.0766705,0.142652,0.887971,0.00809306,0.00435738,0.459807
1438906305,-0.0595665,-0.0834523,0.0483169,0.887978,0.00787377,0.0040725,0.459801
1438910149,0.264144,0.142614,-0.0921894,0.887964,0.00803108,0.00417335,0.459824
1438913160,0.00203915,0.0855192,0.087425,0.887964,0.00809864,0.00450183,0.459821
1438917063,-0.28349,-0.0967427,-0.0297502,0.887957,0.00785104,0.00415092,0.459842
1438921046,0.186663,0.089279,-0.0359905,0.887967,0.00801319,0.00422959,0.459819
1438924088,-0.0247634,0.0577675,0.0964772,0.887968,0.0081883,0.00457748,0.45981
1438928091,-0.239343,-0.135094,-0.0668145,0.88797,0.00791087,0.00430306,0.459813
1438931192,0.257424,0.103982,-0.0566378,0.887966,0.00793589,0.00427379,0.459821
1438934168,0.193119,0.0596099,0.115649,0.887964,0.00820487,0.00462071,0.459817
1438938193,-0.245641,-0.0240724,-0.0540041,0.887967,0.00788336,0.00438403,0.45982
1438941070,-0.07067,0.0128234,-0.111057,0.887964,0.00778737,0.00428824,0.459826
1438945099,0.175635,0.0307882,0.166574,0.88797,0.0081467,0.00466487,0.459807
1438949176,-0.428547,-0.00825145,-0.101004,0.887966,0.00776402,0.00444335,0.459822
1438952079,0.194027,0.070986,-0.118486,0.887966,0.0077478,0.00446662,0.459822
1438955028,0.254409,-0.0284953,0.176575,0.887962,0.00794161,0.00470534,0.459825
1438959124,-0.202352,-0.0797366,-0.0435975,0.887969,0.00796682,0.00460744,0.459811
1438963031,0.252851,0.134125,-0.0738395,0.887971,0.00769052,0.00454022,0.459812
1438966130,0.214102,-0.00600752,0.177744,0.88796,0.00817734,0.00491898,0.459822
1438970127,-0.264026,-0.0883084,-0.0885063,0.88796,0.00821017,0.00466839,0.459823
1438972119,-0.132578,-0.018407,-0.237464,0.887962,0.00806435,0.00454879,0.459824
1438976298,0.500121,-0.00667383,0.174144,0.887955,0.0083557,0.0048185,0.45983
1438980280,-0.179481,-0.178455,0.0493674,0.887976,0.00857344,0.00467911,0.459787
1438983145,-0.0685866,0.0848169,-0.243889,0.887978,0.00831266,0.00455254,0.459788
1438985376,0.0553255,0.158561,-0.0895879,0.88796,0.00830612,0.00473866,0.459822
1438989033,0.193011,-0.136177,0.220377,0.887956,0.00873337,0.00493984,0.45982
1438994092,-0.255869,0.145088,-0.226829,0.887976,0.00826734,0.00456649,0.459793
1438997096,0.19346,0.143312,0.0604756,0.887968,0.00825842,0.00496801,0.459805
1439001181,0.0187688,-0.205759,0.127845,0.887993,0.00852822,0.00487399,0.459753
1439004043,-0.225626,0.0612534,-0.183987,0.887996,0.00822265,0.00471292,0.459754
1439007151,0.0819178,0.265784,-0.0644209,0.887994,0.00793944,0.00495005,0.459761
1439012139,-0.0527998,-0.2081,0.113804,0.887993,0.00825894,0.00496883,0.459756
1439015161,-0.189613,0.143609,-0.190235,0.887998,0.00808367,0.00478288,0.459752
1439019248,0.0805511,0.169686,0.0571385,0.887991,0.00790483,0.00515828,0.459764
1439022139,0.0961786,-0.270539,0.157878,0.887987,0.00833552,0.00500071,0.459766
1439025367,-0.0447701,-0.12857,-0.119721,0.888,0.00833129,0.00473935,0.459744
1439029273,0.228485,-0.00229923,0.0221491,0.887994,0.00823491,0.00507609,0.459754
1439033064,0.181297,-0.342533,0.16321,0.887991,0.00849124,0.00495072,0.459756
1439036039,-0.132894,0.08337,-0.125758,0.887996,0.00848639,0.00472078,0.459749
1439040060,0.154346,0.276677,-0.0183626,0.887981,0.00832622,0.00495277,0.459778
1439043123,-0.133768,-0.0732195,0.138405,0.88798,0.00848586,0.00495499,0.459778
1439046268,0.0271708,-0.21693,-0.00556,0.887999,0.00855435,0.00471551,0.459741
1439050172,-0.013433,0.0363339,-0.0760259,0.887993,0.00838525,0.00505112,0.459754
1439053134,0.124708,-0.0474398,0.104873,0.887993,0.00829855,0.00522759,0.459752
1439057108,-0.00268718,0.054813,-0.0132235,0.887994,0.00811505,0.00490671,0.459757
1439061099,0.134636,0.237617,-0.00356455,0.887999,0.00819126,0.00530392,0.459742
1439064214,-0.122321,0.102899,0.0415837,0.887992,0.00806242,0.00527763,0.459759
1439068069,-0.26971,0.160692,-0.0768853,0.887992,0.00803003,0.00495087,0.459762
1439071289,0.193945,-0.0833821,-0.0051699,0.887998,0.00814353,0.00516789,0.459746
1439074118,-0.0556886,-0.0924853,0.0703777,0.887999,0.00811752,0.00537994,0.459743
1439077180,-0.0622773,0.0941166,-0.000121233,0.888008,0.00786455,0.00506872,0.459733
1439079110,0.096898,-0.205596,-0.0352544,0.888006,0.00803639,0.00497879,0.459734
1439085253,0.0464874,0.13878,0.0266379,0.887993,0.00807929,0.00534332,0.459754
1439089103,-0.175962,0.181265,-0.0678521,0.887997,0.00770932,0.00492888,0.459759
1439092198,0.114664,-0.0536573,0.0316966,0.887939,0.008088,0.00507381,0.459862
1439095111,-0.0253428,-0.254883,0.091042,0.887947,0.00804859,0.00518308,0.459847
1439099086,0.00108809,-0.154318,-0.102483,0.887947,0.00805134,0.00503922,0.459849
1439102098,0.177029,0.277211,0.00579021,0.88794,0.00774511,0.00500816,0.459867
1439106086,0.0444358,0.205568,0.0977956,0.887949,0.00820605,0.00532314,0.459837
1439109086,-0.31859,-0.0883213,-0.0844485,0.887952,0.00796958,0.00496444,0.459841
1439113144,-0.291156,0.139136,-0.0285664,0.887951,0.00794094,0.00512193,0.459841
1439116107,0.295869,-0.314661,0.152663,0.887948,0.00813637,0.00541118,0.459841
1439120338,-0.38452,-0.178737,-0.109863,0.88795,0.00802601,0.00524671,0.45984
1439124107,0.365854,-0.0779996,0.0123186,0.887948,0.00806676,0.00566782,0.459838
1439127183,-0.0551076,0.14655,0.15529,0.88795,0.00785042,0.00568641,0.459838
1439131099,0.239367,0.204944,-0.0946401,0.887958,0.00820278,0.00565016,0.459817
1439134113,-0.56419,0.2669,-0.11973,0.887963,0.00757735,0.00547872,0.45982
1439137114,0.351956,-0.354834,0.117659,0.887948,0.00796146,0.00573239,0.459839
1439141099,-0.273705,-0.416694,-0.00718965,0.887966,0.00780229,0.00529319,0.459812
1439145034,-0.201386,-0.0274356,-0.0746738,0.887956,0.00786572,0.00565856,0.459826
1439147251,-0.238522,0.263157,0.0556171,0.88796,0.00733938,0.00561746,0.459827
1439151069,0.0579549,0.132274,-0.0170726,0.88795,0.00799089,0.00548093,0.459839
1439155396,-0.0518537,0.232286,-0.098802,0.887961,0.00751483,0.00532866,0.459827
1439158284,-0.221196,-0.109889,0.0333499,0.88796,0.00765358,0.0054437,0.459826
1439162262,0.110745,-0.46491,0.0859277,0.887984,0.00781387,0.00500263,0.459782
1439165075,-0.0257047,0.101026,-0.0953475,0.887969,0.00797924,0.0053385,0.459803
1439169071,0.570369,-0.085562,0.0469885,0.887971,0.00775722,0.00558501,0.459801
1439170376,0.14893,-0.33918,0.0465227,0.887949,0.00793369,0.00542706,0.459842
1439173156,-0.0627268,-0.130561,0.0232095,0.88795,0.0078093,0.00519597,0.459844
1439176042,0.513936,0.405217,-0.0104739,0.887977,0.00796761,0.00533979,0.459787
1439180155,-0.254704,0.179543,0.0303914,0.887985,0.00758466,0.00550573,0.459777
1439184197,0.0648342,0.108966,-0.0387467,0.887982,0.0079863,0.00528525,0.459779
1439190045,0.106323,-0.0493656,0.0272049,0.88799,0.00798668,0.0058037,0.459757
1439193119,0.0214777,-0.0333514,0.0769852,0.887994,0.00753607,0.00549631,0.45976
1439197183,0.330596,0.374521,0.00811434,0.888003,0.00801903,0.00558989,0.459734
1439201066,0.163945,0.134377,-0.0122561,0.887979,0.00756092,0.00563148,0.459787
1439204234,-0.476541,0.0201561,-0.0741122,0.88798,0.00743843,0.00537115,0.45979
1439207072,-0.0417701,-0.155889,0.00444179,0.888025,0.00749335,0.0052199,0.459704
1439211063,-0.265692,0.0487273,0.0194033,0.888053,0.00742274,0.00568426,0.459647
1439215137,0.0399137,-0.401028,-0.0315354,0.888046,0.00739611,0.00543804,0.459663
1439218194,0.325887,0.0681757,0.000178255,0.888045,0.00746634,0.00546586,0.459663
1439222048,0.285615,-0.00526503,0.0444718,0.888044,0.00742045,0.00557587,0.459665
1439225123,-0.172958,-0.0180669,-0.0275187,0.888068,0.0071925,0.00519237,0.459628
1439228135,-0.0818823,-0.110358,0.00715432,0.888064,0.00768802,0.00497543,0.45963
1439232148,-0.135583,-0.057682,0.0145976,0.888067,0.00773156,0.00518772,0.45962
1439235395,0.0737408,-0.292661,-0.0513169,0.888049,0.00791297,0.00529305,0.459651
1439239284,0.494024,-0.182633,0.0217223,0.888047,0.00808348,0.0052443,0.459651
1439242055,0.0667951,0.333929,0.0770794,0.888062,0.00792174,0.00541494,0.459624
1439246114,0.330417,0.0841409,-0.0626708,0.888089,0.00795817,0.00553757,0.459569
1439248125,-0.264206,-0.274458,-0.0822053,0.888088,0.00815194,0.00533567,0.459571
1439253089,-0.12291,0.115699,0.0722103,0.888098,0.00804997,0.00551219,0.459551
1439256020,-0.340535,-0.309128,-0.0394003,0.888104,0.00787557,0.0054708,0.459542
1439260107,0.166365,-0.295001,-0.0485806,0.888086,0.0080238,0.00558876,0.459574
1439263039,0.0715145,0.198003,0.0886441,0.888092,0.00730261,0.00574628,0.459573
1439267087,0.248462,-0.00550398,-0.0373268,0.888102,0.0076256,0.00576137,0.459548
1439270086,-0.420709,0.385692,-0.0717774,0.888123,0.00703569,0.00524527,0.459523
1439273045,0.00891894,-0.193005,0.0885777,0.888118,0.00758005,0.00552471,0.45952
1439278057,0.0677513,0.10749,-0.078562,0.888123,0.00714862,0.0051426,0.459522
1439281134,-0.351587,-0.290898,-0.13677,0.888099,0.00759755,0.00526676,0.45956
1439284109,0.495782,-0.111709,0.106442,0.888101,0.00725001,0.00557484,0.459557
1439288185,0.00118131,-0.191504,0.0297634,0.888123,0.00739418,0.00543435,0.459515
1439292061,0.879936,0.148422,0.00104588,0.88815,0.0076496,0.00563328,0.459455
1439295228,-0.498865,0.549942,0.0616848,0.888144,0.00714008,0.00560576,0.459476
1439297119,0.0695324,-0.540352,0.0767471,0.888143,0.00723189,0.00550552,0.459477
1439300063,0.458708,0.162829,-0.103753,0.888141,0.00751405,0.00569512,0.459474
1439304171,0.49521,0.570109,0.0466726,0.88816,0.0073104,0.00600297,0.459437
1439306062,-0.198611,-0.272976,0.0967299,0.88818,0.00747174,0.00591425,0.459397
1439313081,0.502815,0.00812368,-0.0296688,0.888196,0.00760935,0.00630319,0.459358
1439316068,0.0352974,0.455776,0.0452249,0.888182,0.00706239,0.00623885,0.459394
1439319051,-0.243061,-0.0425929,-0.0434196,0.888182,0.00722825,0.00597978,0.459397
1439323094,-0.202307,0.0113656,-0.0549999,0.888193,0.00718624,0.00568438,0.459379
1439327059,-0.666592,-0.213639,0.0732165,0.888215,0.00739401,0.00603339,0.459329
1439330043,-0.0516433,-0.555904,-0.037428,0.888213,0.00717621,0.0057664,0.45934
1439333106,0.519599,0.179723,-0.0969154,0.888211,0.00744937,0.00585576,0.459339
1439337144,0.405131,0.511549,0.0288238,0.88821,0.00734599,0.00601257,0.459339
1439340158,-0.488561,-0.18311,-0.00375094,0.888262,0.00711901,0.00563474,0.459248
1439344150,0.240143,0.212701,-0.0528438,0.888261,0.0072264,0.00544826,0.459249
1439348065,-0.584871,-0.0353855,0.0501085,0.888292,0.00717442,0.00569277,0.459187
1439351159,-0.145946,-0.116779,-0.0504701,0.888289,0.00707913,0.00575633,0.459194
1439355143,-0.12855,-0.419563,-0.0523196,0.88829,0.00737963,0.00544602,0.459192
1439358062,0.434596,0.445937,0.0749321,0.88829,0.00733539,0.00604302,0.459185
1439361033,0.00278431,-0.0971398,0.0529294,0.88832,0.00715372,0.00596406,0.459131
1439365079,0.208645,0.413071,-0.0503863,0.88832,0.00736508,0.00594325,0.459128
1439368131,-0.397488,-0.0702641,0.00885434,0.888319,0.00748543,0.00605009,0.459126
1439369083,-0.167293,0.15919,0.031734,0.88832,0.00738085,0.00607679,0.459126
1439372035,-0.489785,0.000568198,-0.0703758,0.888311,0.00718138,0.00601714,0.459147
1439377070,-0.118222,0.326996,-0.0211268,0.888309,0.00745382,0.00583166,0.459148
1439379047,0.0567848,-0.0199852,0.057971,0.888325,0.00750579,0.00606548,0.459114
1439383106,0.299245,-0.277011,-0.0335302,0.88835,0.0076876,0.00612496,0.459062
1439387066,0.472151,-0.308098,0.0320461,0.88837,0.00769612,0.00598663,0.459026
1439390103,0.040244,0.351818,0.0396545,0.88839,0.00760477,0.00609,0.458986
1439394114,0.251747,0.0264193,-0.0530739,0.888393,0.00723875,0.00575417,0.45899
1439395088,0.646245,-0.274803,-0.049471,0.888407,0.00758943,0.00578143,0.458958
1439403086,0.274346,0.0559915,-0.0239149,0.888433,0.00748186,0.0060596,0.458906
1439413149,-0.348307,-0.297199,0.00744134,0.888459,0.00726221,0.00556706,0.458864
1439417143,-0.579746,-0.114221,-0.121134,0.888479,0.00756667,0.00546166,0.458822
1439421086,0.0825571,-0.291562,0.103894,0.888493,0.0077031,0.00561085,0.458791
1439424124,-0.201739,-0.279587,0.0102828,0.888495,0.00743624,0.00563388,0.458791
1439428159,0.785869,-0.310325,-0.0519192,0.888492,0.00805644,0.0057823,0.458786
1439431065,-0.266768,0.485023,0.0458397,0.888498,0.00745357,0.00578752,0.458783
1439435132,0.27779,0.29361,-0.0070149,0.888527,0.00749418,0.00577371,0.458728
1439438053,-0.514863,0.167524,-0.0913521,0.888528,0.00733852,0.00538509,0.458732
1439442022,-0.259813,0.0830803,0.0791211,0.888533,0.00775792,0.00598043,0.458707
1439446122,-0.21255,-0.130279,-0.0719275,0.888523,0.00726637,0.00590155,0.458737
1439449176,0.21573,-0.376937,-0.124771,0.888517,0.0079042,0.00625641,0.458733
1439452090,0.276804,0.394873,0.0391899,0.888508,0.00746186,0.00653199,0.458753
1439456152,0.0617251,0.16472,0.0250476,0.888552,0.00748885,0.00647324,0.45867
1439460131,0.701622,0.368887,-0.00321011,0.888573,0.00759813,0.00631625,0.458629
1439463138,-0.577622,0.327279,0.0377237,0.888573,0.00765978,0.00624281,0.45863
1439466025,-0.252059,-0.457055,0.00280343,0.888558,0.00748333,0.00613771,0.458662
1439468141,0.353044,0.255608,-0.0802194,0.888558,0.00749945,0.00631485,0.45866
1439471153,-0.486601,0.190202,-0.10005,0.888554,0.00735548,0.00594967,0.458675
1439477042,-0.0586768,-0.0707203,0.0315577,0.888582,0.00724496,0.00635361,0.458617
1439481018,0.805358,0.0798437,-0.0730358,0.888588,0.00744377,0.00633108,0.458602
1439483144,-0.482031,-0.144776,-0.0453131,0.888588,0.00751781,0.0060773,0.458605
1439487082,-0.336991,-0.22849,0.00560789,0.888608,0.00707481,0.00611721,0.458572
1439491066,-0.382725,-0.21778,-0.0745852,0.888647,0.00721848,0.00579815,0.458498
1439494243,0.664724,0.012723,0.106518,0.888644,0.00755071,0.00654314,0.45849
1439498147,-0.0340783,-0.152675,0.0553445,0.888654,0.007342,0.00640421,0.458475
1439501091,0.583759,0.143509,-0.0956059,0.888622,0.00743349,0.0064805,0.458534
1439505165,0.0480615,0.468454,0.00897926,0.888616,0.00746076,0.00654502,0.458544
1439508294,-0.326886,-0.0793466,-0.0106365,0.888618,0.00735379,0.00641023,0.458545
1439512256,-0.31655,0.149806,-0.10305,0.888664,0.00738844,0.00612332,0.458458
1439515090,0.122672,-0.30909,0.0687853,0.888691,0.00780348,0.00643471,0.458395
1439519180,-0.16318,-0.263346,0.0101395,0.888693,0.00758627,0.00637995,0.458395
1439523112,0.0584199,-0.404977,-0.122456,0.888688,0.0077323,0.00623686,0.458405
1439526264,0.189079,0.328956,0.0260827,0.888698,0.00723809,0.00655274,0.458389
1439530099,0.306031,0.0617077,0.0308635,0.888745,0.00708967,0.00642272,0.458302
1439533171,-0.155955,0.336456,-0.112588,0.888747,0.00693479,0.00625781,0.458304
1439536168,-0.260719,-0.28143,-0.0031907,0.888767,0.00733708,0.0061741,0.458258
1439540175,-0.365663,-0.381363,0.0060812,0.888765,0.00691661,0.00615463,0.458269
1439543305,0.579366,-0.356525,-0.0667544,0.888762,0.00743444,0.00618838,0.458268
1439547268,0.300614,-0.0520588,0.0790499,0.888785,0.00726917,0.00641238,0.458222
1439550068,0.085896,0.360252,0.0675468,0.88881,0.00697425,0.00638331,0.458179
1439554098,0.255628,0.203607,-0.0813112,0.888809,0.00711558,0.00630733,0.45818
1439557076,-0.376795,0.13123,-0.059416,0.888807,0.00750467,0.00627606,0.458178
1439561044,-0.468779,-0.186901,0.0117585,0.888832,0.00708752,0.00640176,0.458133
1439564072,0.271481,-0.464286,-0.0574729,0.888829,0.00746952,0.00645966,0.458132
1439568130,0.263137,-0.325701,0.0677585,0.888861,0.00747674,0.00655762,0.458068
1439570086,-0.307792,0.419178,0.0344616,0.888878,0.00714895,0.00652644,0.458043
1439575129,0.595642,0.204993,-0.0375009,0.888878,0.00705211,0.00660004,0.458042
1439578150,-0.291177,0.431369,-0.0531251,0.888881,0.00723606,0.0066091,0.458034
1439582102,-0.47039,0.05992,-0.00514743,0.888896,0.00673544,0.0065414,0.458014
1439585240,-0.112293,-0.416087,-0.0848688,0.888918,0.00694226,0.00648047,0.457969
1439588104,0.545451,-0.0856103,0.0580291,0.888915,0.00717201,0.00675609,0.457965
1439592120,0.0652103,0.0392034,0.0384996,0.888932,0.00688805,0.00676792,0.457938
1439596088,0.701623,-0.147657,-0.0220767,0.888932,0.00691595,0.00656612,0.457939
1439599222,-0.094706,0.473436,-0.0135329,0.888932,0.0069802,0.00645549,0.45794
1439603081,-0.191452,0.280602,0.000533842,0.888944,0.00666448,0.00643374,0.457923
1439607111,-0.116324,0.188512,-0.0880534,0.888964,0.0066026,0.00629263,0.457886
1439610262,-0.052308,-0.253885,0.01509,0.888977,0.00720451,0.00633611,0.457851
1439613182,-0.171835,-0.0958447,0.0325993,0.888978,0.00703456,0.00663317,0.457848
1439617130,0.63206,-0.336358,-0.0560871,0.888997,0.00700985,0.00629581,0.457816
1439620082,0.199315,0.43941,2.40486e-05,0.889027,0.00702779,0.00644383,0.457756
1439624111,0.197595,0.345412,0.0678217,0.889027,0.00708147,0.00651252,0.457755
1439627178,-0.436682,0.0849131,-0.103687,0.889054,0.0068846,0.00645496,0.457706
1439631206,-0.189018,-0.00277672,-0.0154456,0.889054,0.00749661,0.00655883,0.457694
1439634130,-0.400038,-0.218008,0.0175763,0.889056,0.00718835,0.00667065,0.457693
1439638085,0.134393,-0.360423,-0.100653,0.889069,0.00743867,0.0066018,0.457666
